timestamp (ms),stateEstimate.x,stateEstimate.y,stateEstimate.z,stabilizer.roll,stabilizer.pitch,stabilizer.yaw
7154,0.0,0.0,0.0,0.0,0.0,0.0
7164,0.0,0.0,0.0,0.0,0.0,0.0
7174,0.0,0.0,0.0,0.0,0.0,0.0
7184,0.0,0.0,0.0,0.0,0.0,0.0
7194,0.0,0.0,0.0,0.0,0.0,0.0
7204,0.0,0.0,0.0,0.0,0.0,0.0
7214,0.0,0.0,0.0,0.0,0.0,0.0
7224,0.0,0.0,0.0,0.0,0.0,0.0
7234,0.0,0.0,0.0,0.0,0.0,0.0
7244,0.0,0.0,0.0,0.0,0.0,0.0
7254,0.0,0.0,0.0,0.0,0.0,0.0
7264,0.0,0.0,0.0,0.0,0.0,0.0
7274,0.0,0.0,0.0,0.0,0.0,0.0
7284,0.0,0.0,0.0,0.0,0.0,0.0
7294,0.0,0.0,0.0,0.0,0.0,0.0
7304,0.0,0.0,0.0,0.0,0.0,0.0
7314,0.0,0.0,0.0,0.0,0.0,0.0
7324,0.0,0.0,0.0,0.0,0.0,0.0
7334,0.0,0.0,0.0,0.0,0.0,0.0
7344,0.0,0.0,0.0,0.0,0.0,0.0
7354,0.0,0.0,0.0,0.0,0.0,0.0
7364,0.0,0.0,0.0,0.0,0.0,0.0
7374,0.0,0.0,0.0,0.0,0.0,0.0
7384,0.0,0.0,0.0,0.0,0.0,0.0
7394,0.0,0.0,0.0,0.0,0.0,0.0
7404,0.0,0.0,0.0,0.0,0.0,0.0
7414,0.0,0.0,0.0,0.0,0.0,0.0
7424,0.0,0.0,0.0,0.0,0.0,0.0
7434,0.0,0.0,0.0,0.0,0.0,0.0
7444,0.0,0.0,0.0,0.0,0.0,0.0
7454,0.0,0.0,0.0,0.0,0.0,0.0
7464,0.0,0.0,0.0,0.0,0.0,0.0
7474,0.0,0.0,0.0,0.0,0.0,0.0
7484,0.0,0.0,0.0,0.0,0.0,0.0
7494,0.0,0.0,0.0,0.0,0.0,0.0
7504,0.0,0.0,0.0,0.0,0.0,0.0
7514,0.0,0.0,0.0,0.0,0.0,0.0
7524,0.0,0.0,0.0,0.0,0.0,0.0
7534,0.0,0.0,0.0,0.0,0.0,0.0
7544,0.0,0.0,0.0,0.0,0.0,0.0
7554,0.0,0.0,0.0,0.0,0.0,0.0
7564,0.0,0.0,0.0,0.0,0.0,0.0
7574,0.0,0.0,0.0,0.0,0.0,0.0
7584,0.0,0.0,0.0,0.0,0.0,0.0
7594,0.0,0.0,0.0,0.0,0.0,0.0
7604,0.0,0.0,0.0,0.0,0.0,0.0
7614,0.0,0.0,0.0,0.0,0.0,0.0
7624,0.0,0.0,0.0,0.0,0.0,0.0
7634,0.0,0.0,0.0,0.0,0.0,0.0
7644,0.0,0.0,0.0,0.0,0.0,0.0
7654,0.0,0.0,0.0,0.0,0.0,0.0
7664,0.0,0.0,0.0,0.0,0.0,0.0
7674,0.0,0.0,0.0,0.0,0.0,0.0
7684,0.0,0.0,0.0,0.0,0.0,0.0
7694,0.0,0.0,0.0,0.0,0.0,0.0
7704,0.0,0.0,0.0,0.0,0.0,0.0
7714,0.0,0.0,0.0,0.0,0.0,0.0
7724,0.0,0.0,0.0,0.0,0.0,0.0
7734,0.0,0.0,0.0,0.0,0.0,0.0
7744,0.0,0.0,0.0,0.0,0.0,0.0
7754,0.0,0.0,0.0,0.0,0.0,0.0
7764,0.0,0.0,0.0,0.0,0.0,0.0
7774,0.0,0.0,0.0,0.0,0.0,0.0
7784,0.0,0.0,0.0,0.0,0.0,0.0
7794,0.0,0.0,0.0,0.0,0.0,0.0
7804,0.0,0.0,0.0,0.0,0.0,0.0
7814,0.0,0.0,0.0,0.0,0.0,0.0
7824,0.0,0.0,0.0,0.0,0.0,0.0
7834,0.0,0.0,0.0,0.0,0.0,0.0
7844,0.0,0.0,0.0,0.0,0.0,0.0
7854,0.0,0.0,0.0,0.0,0.0,0.0
7864,0.0,0.0,0.0,0.0,0.0,0.0
7874,0.0,0.0,0.0,0.0,0.0,0.0
7884,0.0,0.0,0.0,0.0,0.0,0.0
7894,0.0,0.0,0.0,0.0,0.0,0.0
7904,0.0,0.0,0.0,0.0,0.0,0.0
7914,0.0,0.0,0.0,0.0,0.0,0.0
7924,0.0,0.0,0.0,0.0,0.0,0.0
7934,0.0,0.0,0.0,0.0,0.0,0.0
7944,0.0,0.0,0.0,0.0,0.0,0.0
7954,0.0,0.0,0.0,0.0,0.0,0.0
7964,0.0,0.0,0.0,0.0,0.0,0.0
7974,0.0,0.0,0.0,0.0,0.0,0.0
7984,0.0,0.0,0.0,0.0,0.0,0.0
7994,0.0,0.0,0.0,0.0,0.0,0.0
8004,0.0,0.0,0.0,0.0,0.0,0.0
8014,0.0,0.0,0.0,0.0,0.0,0.0
8024,0.0,0.0,0.0,0.0,0.0,0.0
8034,0.0,0.0,0.0,0.0,0.0,0.0
8044,0.0,0.0,0.0,0.0,0.0,0.0
8054,0.0,0.0,0.0,0.0,0.0,0.0
8064,0.0,0.0,0.0,0.0,0.0,0.0
8074,0.0,0.0,0.0,0.0,0.0,0.0
8084,0.0,0.0,0.0,0.0,0.0,0.0
8094,0.0,0.0,0.0,0.0,0.0,0.0
8104,0.0,0.0,0.0,0.0,0.0,0.0
8114,0.0,0.0,0.0,0.0,0.0,0.0
8124,0.0,0.0,0.0,0.0,0.0,0.0
8134,0.0,0.0,0.0,0.0,0.0,0.0
8144,0.0,0.0,0.0,0.0,0.0,0.0
8154,0.0,0.0,0.0,0.0,0.0,0.0
8164,0.0,0.0,0.0,0.0,0.0,0.0
8174,0.0,0.0,0.0,0.0,0.0,0.0
8184,0.0,0.0,0.0,0.0,0.0,0.0
8194,0.0,0.0,0.0,0.0,0.0,0.0
8204,0.0,0.0,0.0,0.0,0.0,0.0
8214,0.0,0.0,0.0,0.0,0.0,0.0
8224,0.0,0.0,0.0,0.0,0.0,0.0
8234,0.0,0.0,0.0,0.0,0.0,0.0
8244,0.0,0.0,0.0,0.0,0.0,0.0
8254,0.0,0.0,0.0,0.0,0.0,0.0
8264,0.0,0.0,0.0,0.0,0.0,0.0
8274,0.0,0.0,0.0,0.0,0.0,0.0
8284,0.0,0.0,0.0,0.0,0.0,0.0
8294,0.0,0.0,0.0,0.0,0.0,0.0
8304,0.0,0.0,0.0,0.0,0.0,0.0
8314,0.0,0.0,0.0,0.0,0.0,0.0
8324,0.0,0.0,0.0,0.0,0.0,0.0
8334,0.0,0.0,0.0,0.0,0.0,0.0
8344,0.0,0.0,0.0,0.0,0.0,0.0
8354,0.0,0.0,0.0,0.0,0.0,0.0
8364,0.0,0.0,0.0,0.0,0.0,0.0
8374,0.0,0.0,0.0,0.0,0.0,0.0
8384,0.0,0.0,0.0,0.0,0.0,0.0
8394,0.0,0.0,0.0,0.0,0.0,0.0
8404,0.0,0.0,0.0,0.0,0.0,0.0
8414,0.0,0.0,0.0,0.0,0.0,0.0
8424,0.0,0.0,0.0,0.0,0.0,0.0
8434,0.0,0.0,0.0,0.0,0.0,0.0
8444,0.0,0.0,0.0,0.0,0.0,0.0
8454,0.0,0.0,0.0,0.0,0.0,0.0
8464,0.0,0.0,0.0,0.0,0.0,0.0
8474,0.0,0.0,0.0,0.0,0.0,0.0
8484,0.0,0.0,0.0,0.0,0.0,0.0
8494,0.0,0.0,0.0,0.0,0.0,0.0
8504,0.0,0.0,0.0,0.0,0.0,0.0
8514,0.0,0.0,0.0,0.0,0.0,0.0
8524,0.0,0.0,0.0,0.0,0.0,0.0
8534,0.0,0.0,0.0,0.0,0.0,0.0
8544,0.0,0.0,0.0,0.0,0.0,0.0
8554,0.0,0.0,0.0,0.0,0.0,0.0
8564,0.0,0.0,0.0,0.0,0.0,0.0
8574,0.0,0.0,0.0,0.0,0.0,0.0
8584,0.0,0.0,0.0,0.0,0.0,0.0
8594,0.0,0.0,0.0,0.0,0.0,0.0
8604,0.0,0.0,0.0,0.0,0.0,0.0
8614,0.0,0.0,0.0,0.0,0.0,0.0
8624,0.0,0.0,0.0,0.0,0.0,0.0
8634,0.0,0.0,0.0,0.0,0.0,0.0
8644,0.0,0.0,0.0,0.0,0.0,0.0
8654,0.0,0.0,0.0,0.0,0.0,0.0
8664,0.0,0.0,0.0,0.0,0.0,0.0
8674,0.0,0.0,0.0,0.0,0.0,0.0
8684,0.0,0.0,0.0,0.0,0.0,0.0
8694,0.0,0.0,0.0,0.0,0.0,0.0
8704,0.0,0.0,0.0,0.0,0.0,0.0
8714,0.0,0.0,0.0,0.0,0.0,0.0
8724,0.0,0.0,0.0,0.0,0.0,0.0
8734,0.0,0.0,0.0,0.0,0.0,0.0
8744,0.0,0.0,0.0,0.0,0.0,0.0
8754,0.0,0.0,0.0,0.0,0.0,0.0
8764,0.0,0.0,0.0,0.0,0.0,0.0
8774,0.0,0.0,0.0,0.0,0.0,0.0
8784,0.0,0.0,0.0,0.0,0.0,0.0
8794,0.0,0.0,0.0,0.0,0.0,0.0
8804,0.0,0.0,0.0,0.0,0.0,0.0
8814,0.0,0.0,0.0,0.0,0.0,0.0
8824,0.0,0.0,0.0,0.0,0.0,0.0
8834,0.0,0.0,0.0,0.0,0.0,0.0
8844,0.0,0.0,0.0,0.0,0.0,0.0
8854,0.0,0.0,0.0,0.0,0.0,0.0
8864,0.0,0.0,0.0,0.0,0.0,0.0
8874,0.0,0.0,0.0,0.0,0.0,0.0
8884,0.0,0.0,0.0,0.0,0.0,0.0
8894,0.0,0.0,0.0,0.0,0.0,0.0
8904,0.0,0.0,0.0,0.0,0.0,0.0
8914,0.0,0.0,0.0,0.0,0.0,0.0
8924,0.0,0.0,0.0,0.0,0.0,0.0
8934,0.0,0.0,0.0,0.0,0.0,0.0
8944,0.0,0.0,0.0,0.0,0.0,0.0
8954,0.0,0.0,0.0,0.0,0.0,0.0
8964,0.0,0.0,0.0,0.0,0.0,0.0
8974,0.0,0.0,0.0,0.0,0.0,0.0
8984,0.0,0.0,0.0,0.0,0.0,0.0
8994,0.0,0.0,0.0,0.0,0.0,0.0
9004,0.0,0.0,0.0,0.0,0.0,0.0
9014,0.0,0.0,0.0,0.0,0.0,0.0
9024,0.0,0.0,0.0,0.0,0.0,0.0
9034,0.0,0.0,0.0,0.0,0.0,0.0
9044,0.0,0.0,0.0,0.0,0.0,0.0
9054,0.0,0.0,0.0,0.0,0.0,0.0
9064,0.0,0.0,0.0,0.0,0.0,0.0
9074,0.0,0.0,0.0,0.0,0.0,0.0
9084,0.0,0.0,0.0,0.0,0.0,0.0
9094,0.0,0.0,0.0,0.0,0.0,0.0
9104,0.0,0.0,0.0,0.0,0.0,0.0
9114,0.0,0.0,0.0,0.0,0.0,0.0
9124,0.0,0.0,0.0,0.0,0.0,0.0
9134,0.0,0.0,0.0,0.0,0.0,0.0
9144,0.0,0.0,0.0,0.0,0.0,0.0
9154,0.0,0.0,0.0,0.0,0.0,0.0
9164,0.0,0.0,0.0,0.0,0.0,0.0
9174,0.0,0.0,0.0,0.0,0.0,0.0
9184,0.0,0.0,0.0,0.0,0.0,0.0
9194,0.0,0.0,0.0,0.0,0.0,0.0
9204,0.0,0.0,0.0,0.0,0.0,0.0
9214,0.0,0.0,0.0,0.0,0.0,0.0
9224,0.0,0.0,0.0,0.0,0.0,0.0
9234,0.0,0.0,0.0,0.0,0.0,0.0
9244,0.0,0.0,0.0,0.0,0.0,0.0
9254,0.0,0.0,0.0,0.0,0.0,0.0
9264,0.0,0.0,0.0,0.0,0.0,0.0
9274,0.0,0.0,0.0,0.0,0.0,0.0
9284,0.0,0.0,0.0,0.0,0.0,0.0
9294,0.0,0.0,0.0,0.0,0.0,0.0
9304,0.0,0.0,0.0,0.0,0.0,0.0
9314,0.0,0.0,0.0,0.0,0.0,0.0
9324,0.0,0.0,0.0,0.0,0.0,0.0
9334,0.0,0.0,0.0,0.0,0.0,0.0
9344,0.0,0.0,0.0,0.0,0.0,0.0
9354,0.0,0.0,0.0,0.0,0.0,0.0
9364,0.0,0.0,0.0,0.0,0.0,0.0
9374,0.0,0.0,0.0,0.0,0.0,0.0
9384,0.0,0.0,0.0,0.0,0.0,0.0
9394,0.0,0.0,0.0,0.0,0.0,0.0
9404,0.0,0.0,0.0,0.0,0.0,0.0
9414,0.0,0.0,0.0,0.0,0.0,0.0
9424,0.0,0.0,0.0,0.0,0.0,0.0
9434,0.0,0.0,0.0,0.0,0.0,0.0
9444,0.0,0.0,0.0,0.0,0.0,0.0
9454,0.0,0.0,0.0,0.0,0.0,0.0
9464,0.0,0.0,0.0,0.0,0.0,0.0
9474,0.0,0.0,0.0,0.0,0.0,0.0
9484,0.0,0.0,0.0,0.0,0.0,0.0
9494,0.0,0.0,0.0,0.0,0.0,0.0
9504,0.0,0.0,0.0,0.0,0.0,0.0
9514,0.0,0.0,0.0,0.0,0.0,0.0
9524,0.0,0.0,0.0,0.0,0.0,0.0
9534,0.0,0.0,0.0,0.0,0.0,0.0
9544,0.0,0.0,0.0,0.0,0.0,0.0
9554,0.0,0.0,0.0,0.0,0.0,0.0
9564,0.0,0.0,0.0,0.0,0.0,0.0
9574,0.0,0.0,0.0,0.0,0.0,0.0
9584,0.0,0.0,0.0,0.0,0.0,0.0
9594,0.0,0.0,0.0,0.0,0.0,0.0
9604,0.0,0.0,0.0,0.0,0.0,0.0
9614,0.0,0.0,0.0,0.0,0.0,0.0
9624,0.0,0.0,0.0,0.0,0.0,0.0
9634,0.0,0.0,0.0,0.0,0.0,0.0
9644,0.0,0.0,0.0,0.0,0.0,0.0
9654,0.0,0.0,0.0,0.0,0.0,0.0
9664,0.0,0.0,0.0,0.0,0.0,0.0
9674,0.0,0.0,0.0,0.0,0.0,0.0
9684,0.0,0.0,0.0,0.0,0.0,0.0
9694,0.0,0.0,0.0,0.0,0.0,0.0
9704,0.0,0.0,0.0,0.0,0.0,0.0
9714,0.0,0.0,0.0,0.0,0.0,0.0
9724,0.0,0.0,0.0,0.0,0.0,0.0
9734,0.0,0.0,0.0,0.0,0.0,0.0
9744,0.0,0.0,0.0,0.0,0.0,0.0
9754,0.0,0.0,0.0,0.0,0.0,0.0
9764,0.0,0.0,0.0,0.0,0.0,0.0
9774,0.0,0.0,0.0,0.0,0.0,0.0
9784,0.0,0.0,0.0,0.0,0.0,0.0
9794,0.0,0.0,0.0,0.0,0.0,0.0
9804,0.0,0.0,0.0,0.0,0.0,0.0
9814,0.0,0.0,0.0,0.0,0.0,0.0
9824,0.0,0.0,0.0,0.0,0.0,0.0
9834,0.0,0.0,0.0,0.0,0.0,0.0
9844,0.0,0.0,0.0,0.0,0.0,0.0
9854,0.0,0.0,0.0,0.0,0.0,0.0
9864,0.0,0.0,0.0,0.0,0.0,0.0
9874,0.0,0.0,0.0,0.0,0.0,0.0
9884,0.0,0.0,0.0,0.0,0.0,0.0
9894,0.0,0.0,0.0,0.0,0.0,0.0
9904,0.0,0.0,0.0,0.0,0.0,0.0
9914,0.0,0.0,0.0,0.0,0.0,0.0
9924,0.0,0.0,0.0,0.0,0.0,0.0
9934,0.0,0.0,0.0,0.0,0.0,0.0
9944,0.0,0.0,0.0,0.0,0.0,0.0
9954,0.0,0.0,0.0,0.0,0.0,0.0
9964,0.0,0.0,0.0,0.0,0.0,0.0
9974,0.0,0.0,0.0,0.0,0.0,0.0
9984,0.0,0.0,0.0,0.0,0.0,0.0
9994,0.0,0.0,0.0,0.0,0.0,0.0
10004,0.0,0.0,0.0,0.0,0.0,0.0
10014,0.0,0.0,0.0,0.0,0.0,0.0
10024,0.0,0.0,0.0,0.0,0.0,0.0
10034,0.0,0.0,0.0,0.0,0.0,0.0
10044,0.0,0.0,0.0,0.0,0.0,0.0
10054,0.0,0.0,0.0,0.0,0.0,0.0
10064,0.0,0.0,0.0,0.0,0.0,0.0
10074,0.0,0.0,0.0,0.0,0.0,0.0
10084,0.0,0.0,0.0,0.0,0.0,0.0
10094,0.0,0.0,0.0,0.0,0.0,0.0
10104,0.0,0.0,0.0,0.0,0.0,0.0
10114,0.0,0.0,0.0,0.0,0.0,0.0
10124,0.0,0.0,0.0,0.0,0.0,0.0
10134,0.0,0.0,0.0,0.0,0.0,0.0
10144,0.0,0.0,0.0,0.0,0.0,0.0
10154,0.0,0.0,0.0,0.0,0.0,0.0
10164,0.0,0.0,0.0,0.0,0.0,0.0
10174,0.0,0.0,0.0,0.0,0.0,0.0
10184,0.0,0.0,0.0,0.0,0.0,0.0
10194,0.0,0.0,0.0,0.0,0.0,0.0
10204,0.0,0.0,0.0,0.0,0.0,0.0
10214,0.0,0.0,0.0,0.0,0.0,0.0
10224,0.0,0.0,0.0,0.0,0.0,0.0
10234,0.0,0.0,0.0,0.0,0.0,0.0
10244,0.0,0.0,0.0,0.0,0.0,0.0
10254,0.0,0.0,0.0,0.0,0.0,0.0
10264,0.0,0.0,0.0,0.0,0.0,0.0
10274,0.0,0.0,0.0,0.0,0.0,0.0
10284,0.0,0.0,0.0,0.0,0.0,0.0
10294,0.0,0.0,0.0,0.0,0.0,0.0
10304,0.0,0.0,0.0,0.0,0.0,0.0
10314,0.0,0.0,0.0,0.0,0.0,0.0
10324,0.0,0.0,0.0,0.0,0.0,0.0
10334,0.0,0.0,0.0,0.0,0.0,0.0
10344,0.0,0.0,0.0,0.0,0.0,0.0
10354,0.0,0.0,0.0,0.0,0.0,0.0
10364,0.0,0.0,0.0,0.0,0.0,0.0
10374,0.0,0.0,0.0,0.0,0.0,0.0
10384,0.0,0.0,0.0,0.0,0.0,0.0
10394,0.0,0.0,0.0,0.0,0.0,0.0
10404,0.0,0.0,0.0,0.0,0.0,0.0
10414,0.0,0.0,0.0,0.0,0.0,0.0
10424,0.0,0.0,0.0,0.0,0.0,0.0
10434,0.0,0.0,0.0,0.0,0.0,0.0
10444,0.0,0.0,0.0,0.0,0.0,0.0
10454,0.0,0.0,0.0,0.0,0.0,0.0
10464,0.0,0.0,0.0,0.0,0.0,0.0
10474,0.0,0.0,0.0,0.0,0.0,0.0
10484,0.0,0.0,0.0,0.0,0.0,0.0
10494,0.0,0.0,0.0,0.0,0.0,0.0
10504,0.0,0.0,0.0,0.0,0.0,0.0
10514,0.0,0.0,0.0,0.0,0.0,0.0
10524,0.0,0.0,0.0,0.0,0.0,0.0
10534,0.0,0.0,0.0,0.0,0.0,0.0
10544,0.0,0.0,0.0,0.0,0.0,0.0
10554,0.0,0.0,0.0,0.0,0.0,0.0
10564,0.0,0.0,0.0,0.0,0.0,0.0
10574,0.0,0.0,0.0,0.0,0.0,0.0
10584,0.0,0.0,0.0,0.0,0.0,0.0
10594,0.0,0.0,0.0,0.0,0.0,0.0
10604,0.0,0.0,0.0,0.0,0.0,0.0
10614,0.0,0.0,0.0,0.0,0.0,0.0
10624,0.0,0.0,0.0,0.0,0.0,0.0
10634,0.0,0.0,0.0,0.0,0.0,0.0
10644,0.0,0.0,0.0,0.0,0.0,0.0
10654,0.0,0.0,0.0,0.0,0.0,0.0
10664,0.0,0.0,0.0,0.0,0.0,0.0
10674,0.0,0.0,0.0,0.0,0.0,0.0
10684,0.0,0.0,0.0,0.0,0.0,0.0
10694,0.0,0.0,0.0,0.0,0.0,0.0
10704,0.0,0.0,0.0,0.0,0.0,0.0
10714,0.0,0.0,0.0,0.0,0.0,0.0
10724,0.0,0.0,0.0,0.0,0.0,0.0
10734,0.0,0.0,0.0,0.0,0.0,0.0
10744,0.0,0.0,0.0,0.0,0.0,0.0
10754,0.0,0.0,0.0,0.0,0.0,0.0
10764,0.0,0.0,0.0,0.0,0.0,0.0
10774,0.0,0.0,0.0,0.0,0.0,0.0
10784,0.0,0.0,0.0,0.0,0.0,0.0
10794,0.0,0.0,0.0,0.0,0.0,0.0
10804,0.0,0.0,0.0,0.0,0.0,0.0
10814,0.0,0.0,0.0,0.0,0.0,0.0
10824,0.0,0.0,0.0,0.0,0.0,0.0
10834,0.0,0.0,0.0,0.0,0.0,0.0
10844,0.0,0.0,0.0,0.0,0.0,0.0
10854,0.0,0.0,0.0,0.0,0.0,0.0
10864,0.0,0.0,0.0,0.0,0.0,0.0
10874,0.0,0.0,0.0,0.0,0.0,0.0
10884,0.0,0.0,0.0,0.0,0.0,0.0
10894,0.0,0.0,0.0,0.0,0.0,0.0
10904,0.0,0.0,0.0,0.0,0.0,0.0
10914,0.0,0.0,0.0,0.0,0.0,0.0
10924,0.0,0.0,0.0,0.0,0.0,0.0
10934,0.0,0.0,0.0,0.0,0.0,0.0
10944,0.0,0.0,0.0,0.0,0.0,0.0
10954,0.0,0.0,0.0,0.0,0.0,0.0
10964,0.0,0.0,0.0,0.0,0.0,0.0
10974,0.0,0.0,0.0,0.0,0.0,0.0
10984,0.0,0.0,0.0,0.0,0.0,0.0
10994,0.0,0.0,0.0,0.0,0.0,0.0
11004,0.0,0.0,0.0,0.0,0.0,0.0
11014,0.0,0.0,0.0,0.0,0.0,0.0
11024,0.0,0.0,0.0,0.0,0.0,0.0
11034,0.0,0.0,0.0,0.0,0.0,0.0
11044,0.0,0.0,0.0,0.0,0.0,0.0
11054,0.0,0.0,0.0,0.0,0.0,0.0
11064,0.0,0.0,0.0,0.0,0.0,0.0
11074,0.0,0.0,0.0,0.0,0.0,0.0
11084,0.0,0.0,0.0,0.0,0.0,0.0
11094,0.0,0.0,0.0,0.0,0.0,0.0
11104,0.0,0.0,0.0,0.0,0.0,0.0
11114,0.0,0.0,0.0,0.0,0.0,0.0
11124,0.0,0.0,0.0,0.0,0.0,0.0
11134,0.0,0.0,0.0,0.0,0.0,0.0
11144,0.0,0.0,0.0,0.0,0.0,0.0
11154,0.0,0.0,0.0,0.0,0.0,0.0
11164,0.0,0.0,0.0,0.0,0.0,0.0
11174,0.0,0.0,0.0,0.0,0.0,0.0
11184,0.0,0.0,0.0,0.0,0.0,0.0
11194,0.0,0.0,0.0,0.0,0.0,0.0
11204,0.0,0.0,0.0,0.0,0.0,0.0
11214,0.0,0.0,0.0,0.0,0.0,0.0
11224,0.0,0.0,0.0,0.0,0.0,0.0
11234,0.0,0.0,0.0,0.0,0.0,0.0
11244,0.0,0.0,0.0,0.0,0.0,0.0
11254,0.0,0.0,0.0,0.0,0.0,0.0
11264,0.0,0.0,0.0,0.0,0.0,0.0
11274,0.0,0.0,0.0,0.0,0.0,0.0
11284,0.0,0.0,0.0,0.0,0.0,0.0
11294,0.0,0.0,0.0,0.0,0.0,0.0
11304,0.0,0.0,0.0,0.0,0.0,0.0
11314,0.0,0.0,0.0,0.0,0.0,0.0
11324,0.0,0.0,0.0,0.0,0.0,0.0
11334,0.0,0.0,0.0,0.0,0.0,0.0
11344,0.0,0.0,0.0,0.0,0.0,0.0
11354,0.0,0.0,0.0,0.0,0.0,0.0
11364,0.0,0.0,0.0,0.0,0.0,0.0
11374,0.0,0.0,0.0,0.0,0.0,0.0
11384,0.0,0.0,0.0,0.0,0.0,0.0
11394,0.0,0.0,0.0,0.0,0.0,0.0
11404,0.0,0.0,0.0,0.0,0.0,0.0
11414,0.0,0.0,0.0,0.0,0.0,0.0
11424,0.0,0.0,0.0,0.0,0.0,0.0
11434,0.0,0.0,0.0,0.0,0.0,0.0
11444,0.0,0.0,0.0,0.0,0.0,0.0
11454,0.0,0.0,0.0,0.0,0.0,0.0
11464,0.0,0.0,0.0,0.0,0.0,0.0
11474,0.0,0.0,0.0,0.0,0.0,0.0
11484,0.0,0.0,0.0,0.0,0.0,0.0
11494,0.0,0.0,0.0,0.0,0.0,0.0
11504,0.0,0.0,0.0,0.0,0.0,0.0
11514,0.0,0.0,0.0,0.0,0.0,0.0
11524,0.0,0.0,0.0,0.0,0.0,0.0
11534,0.0,0.0,0.0,0.0,0.0,0.0
11544,0.0,0.0,0.0,0.0,0.0,0.0
11554,0.0,0.0,0.0,0.0,0.0,0.0
11564,0.0,0.0,0.0,0.0,0.0,0.0
11574,0.0,0.0,0.0,0.0,0.0,0.0
11584,0.0,0.0,0.0,0.0,0.0,0.0
11594,0.0,0.0,0.0,0.0,0.0,0.0
11604,0.0,0.0,0.0,0.0,0.0,0.0
11614,0.0,0.0,0.0,0.0,0.0,0.0
11624,0.0,0.0,0.0,0.0,0.0,0.0
11634,0.0,0.0,0.0,0.0,0.0,0.0
11644,0.0,0.0,0.0,0.0,0.0,0.0
11654,0.0,0.0,0.0,0.0,0.0,0.0
11664,0.0,0.0,0.0,0.0,0.0,0.0
11674,0.0,0.0,0.0,0.0,0.0,0.0
11684,0.0,0.0,0.0,0.0,0.0,0.0
11694,0.0,0.0,0.0,0.0,0.0,0.0
11704,0.0,0.0,0.0,0.0,0.0,0.0
11714,0.0,0.0,0.0,0.0,0.0,0.0
11724,0.0,0.0,0.0,0.0,0.0,0.0
11734,0.0,0.0,0.0,0.0,0.0,0.0
11744,0.0,0.0,0.0,0.0,0.0,0.0
11754,0.0,0.0,0.0,0.0,0.0,0.0
11764,0.0,0.0,0.0,0.0,0.0,0.0
11774,0.0,0.0,0.0,0.0,0.0,0.0
11784,0.0,0.0,0.0,0.0,0.0,0.0
11794,0.0,0.0,0.0,0.0,0.0,0.0
11804,0.0,0.0,0.0,0.0,0.0,0.0
11814,0.0,0.0,0.0,0.0,0.0,0.0
11824,0.0,0.0,0.0,0.0,0.0,0.0
11834,0.0,0.0,0.0,0.0,0.0,0.0
11844,0.0,0.0,0.0,0.0,0.0,0.0
11854,0.0,0.0,0.0,0.0,0.0,0.0
11864,0.0,0.0,0.0,0.0,0.0,0.0
11874,0.0,0.0,0.0,0.0,0.0,0.0
11884,0.0,0.0,0.0,0.0,0.0,0.0
11894,0.0,0.0,0.0,0.0,0.0,0.0
11904,0.0,0.0,0.0,0.0,0.0,0.0
11914,0.0,0.0,0.0,0.0,0.0,0.0
11924,0.0,0.0,0.0,0.0,0.0,0.0
11934,0.0,0.0,0.0,0.0,0.0,0.0
11944,0.0,0.0,0.0,0.0,0.0,0.0
11954,0.0,0.0,0.0,0.0,0.0,0.0
11964,0.0,0.0,0.0,0.0,0.0,0.0
11974,0.0,0.0,0.0,0.0,0.0,0.0
11984,0.0,0.0,0.0,0.0,0.0,0.0
11994,0.0,0.0,0.0,0.0,0.0,0.0
12004,0.0,0.0,0.0,0.0,0.0,0.0
12014,0.0,0.0,0.0,0.0,0.0,0.0
12024,0.0,0.0,0.0,0.0,0.0,0.0
12034,0.0,0.0,0.0,0.0,0.0,0.0
12044,0.0,0.0,0.0,0.0,0.0,0.0
12054,0.0,0.0,0.0,0.0,0.0,0.0
12064,0.0,0.0,0.0,0.0,0.0,0.0
12074,0.0,0.0,0.0,0.0,0.0,0.0
12084,2.1695508621633053e-05,-5.7684969760885e-06,-2.6863126549869776e-06,0.0006678190547972918,0.0008071594056673348,0.0006246480625122786
12094,7.862756319809705e-05,-3.5412126635492314e-06,-0.2840009033679962,-0.00540531612932682,-0.008372294716536999,0.0005563782178796828
12104,6.223273521754891e-05,-0.0007169421296566725,0.018963586539030075,0.25386980175971985,0.017503343522548676,0.001384890521876514
12114,-5.459336080093635e-06,-0.0015289291040971875,0.01868964172899723,0.4785996675491333,0.055457260459661484,0.0021750377491116524
12124,-1.0093023774970789e-05,-0.0019802520982921124,0.01866130158305168,0.47908738255500793,0.05587758868932724,0.0010783332400023937
12134,5.614224210148677e-05,-0.0020899532828480005,0.01881520263850689,0.3161921799182892,0.0238808561116457,0.002120797988027334
12144,-0.0003644365642685443,-0.0028755823150277138,0.01931946352124214,0.47917428612709045,0.2168634831905365,0.001514779287390411
12154,-5.8989375247620046e-05,-0.0028300145640969276,0.01940145529806614,0.23780286312103271,0.05410854518413544,0.0036562473978847265
12164,3.5237309930380434e-05,-0.0030633434653282166,0.019388936460018158,0.15682755410671234,0.012278967536985874,0.003492831252515316
12174,-6.50377623969689e-05,-0.002946452936157584,0.019410299137234688,-0.059772830456495285,0.057755935937166214,0.004786540288478136
12184,0.0004014274454675615,-0.0032113646157085896,0.01883128471672535,-0.08912605047225952,-0.1272517740726471,0.0049164448864758015
12194,0.003852901514619589,-0.0036010497715324163,0.01870187558233738,-0.07236385345458984,-1.4054248332977295,0.0022025606594979763
12204,0.0039047924801707268,-0.003316469956189394,0.01871480420231819,-0.30588823556900024,-1.2327696084976196,-0.0002392787573626265
12214,0.004347464069724083,-0.0038436586037278175,0.018626784905791283,-0.22226376831531525,-1.2167195081710815,0.0016007984522730112
12224,0.004841684829443693,-0.003488013055175543,0.018566563725471497,-0.45067304372787476,-1.1941378116607666,-0.0014864348340779543
12234,0.003120016073808074,-0.004548612050712109,0.01916688308119774,-0.20104072988033295,-0.49814894795417786,0.003526633605360985
12244,0.004556795582175255,-0.004089191555976868,0.019090328365564346,-0.4337702989578247,-0.8371492624282837,6.876487168483436e-05
12254,0.0040699634701013565,-0.004124857950955629,0.01907670684158802,-0.4945816099643707,-0.5862418413162231,0.0008409689762629569
12264,0.005615460220724344,-0.003961037378758192,0.01895163394510746,-0.5978800058364868,-0.9079918265342712,-0.002069977344945073
12274,0.003885391866788268,-0.007286114152520895,0.018583856523036957,0.18573212623596191,-0.35790422558784485,0.006877381354570389
12284,0.007910407148301601,-0.007915490306913853,0.018388496711850166,0.20807915925979614,-1.2521494626998901,0.010290991514921188
12294,0.008128545247018337,-0.007716360967606306,0.01835503801703453,0.03523797169327736,-1.151633381843567,0.008315317332744598
12304,0.008135109208524227,-0.007301257457584143,0.01834971085190773,-0.15900231897830963,-1.014552354812622,0.004823651164770126
12314,0.00898902676999569,-0.007725125644356012,0.018484532833099365,-0.15927951037883759,-1.06643545627594,0.005423462018370628
12324,0.009622089564800262,-0.00815192237496376,0.018380532041192055,-0.15894941985607147,-1.0653209686279297,0.006977553479373455
12334,0.010272781364619732,-0.008587727323174477,0.01827404461801052,-0.15756118297576904,-1.0659236907958984,0.006907929666340351
12344,0.008982663974165916,-0.008719165809452534,0.018342986702919006,-0.21399596333503723,-0.7184174060821533,0.007749988231807947
12354,0.007796888705343008,-0.007813125848770142,0.019092021510004997,-0.43759721517562866,-0.42851823568344116,0.00398872559890151
12364,0.0076910145580768585,-0.00798903126269579,0.019068296998739243,-0.4629024267196655,-0.34997648000717163,0.005128104239702225
12374,0.007599865086376667,-0.008433815091848373,0.01903790608048439,-0.44303882122039795,-0.28645220398902893,0.004840587265789509
12384,0.009637907147407532,-0.008344803936779499,0.018984412774443626,-0.5026546716690063,-0.538914144039154,0.005506294779479504
12394,0.008470004424452782,-0.008007214404642582,0.019026366993784904,-0.5899667739868164,-0.31208497285842896,0.004871314857155085
12404,0.007870631292462349,-0.013763672672212124,0.019406035542488098,0.15894263982772827,-0.18133245408535004,0.01019502803683281
12414,0.008049355819821358,-0.02201005071401596,0.01884947530925274,1.150598406791687,-0.17265114188194275,0.019647259265184402
12424,0.006933706812560558,-0.021686188876628876,0.01907198689877987,0.9440256953239441,0.006574505940079689,0.015374047681689262
12434,0.007952189072966576,-0.02139599435031414,0.01928764209151268,0.7592495679855347,-0.09771902114152908,0.015968497842550278
12444,0.007106700446456671,-0.020077377557754517,0.01937435381114483,0.46902933716773987,0.031056398525834084,0.014155090786516666
12454,0.007849935442209244,-0.020366990938782692,0.01942361518740654,0.38904616236686707,-0.03725438937544823,0.014328502118587494
12464,0.007801444735378027,-0.020673556253314018,0.019473526626825333,0.31792688369750977,-0.007669531740248203,0.015693334862589836
12474,0.0067301406525075436,-0.020463375374674797,0.01957467757165432,0.19384287297725677,0.12778735160827637,0.01609748974442482
12484,0.007748257834464312,-0.020276090130209923,0.019823187962174416,0.08197853714227676,0.028214992955327034,0.015884509310126305
12494,0.0069368090480566025,-0.020345833152532578,0.01987719163298607,0.006700336467474699,0.12825201451778412,0.016157981008291245
12504,0.007423201575875282,-0.019165875390172005,0.01999261975288391,-0.1884884238243103,0.0875944271683693,0.01777534931898117
12514,0.006879206746816635,-0.019272156059741974,0.020034123212099075,-0.24213764071464539,0.15213344991207123,0.01950586587190628
12524,0.008641193620860577,-0.019398897886276245,0.020098472014069557,-0.289124071598053,-0.011460193432867527,0.019398484379053116
12534,0.008815990760922432,-0.019981108605861664,0.02008471079170704,-0.2889384329319,-0.012161730788648129,0.01996154710650444
12544,0.008991796523332596,-0.020572993904352188,0.020109759643673897,-0.2885279357433319,-0.011636549606919289,0.019931260496377945
12554,0.007732359692454338,-0.020615333691239357,0.02016211301088333,-0.33888059854507446,0.11995702981948853,0.021835556253790855
12564,0.008280367590487003,-0.020382991060614586,0.02021055854856968,-0.41038087010383606,0.07833228260278702,0.02288138121366501
12574,0.006188040133565664,-0.014046658761799335,0.01941903866827488,-0.9945964813232422,0.265802800655365,0.028716804459691048
12584,0.006483617704361677,-0.01657419465482235,0.019478093832731247,-0.7898271679878235,0.239350363612175,0.026164408773183823
12594,0.0067663658410310745,-0.01647455431520939,0.01946159265935421,-0.8193846344947815,0.21572579443454742,0.027537673711776733
12604,0.005639410577714443,-0.01639711856842041,0.019427096471190453,-0.8425772786140442,0.30777260661125183,0.028353024274110794
12614,0.006476236507296562,-0.016294434666633606,0.018840666860342026,-0.8650843501091003,0.23740161955356598,0.02840871922671795
12624,0.007859501987695694,-0.022285504266619682,0.018859243020415306,-0.41613560914993286,0.12912136316299438,0.022447792813181877
12634,0.009193525649607182,-0.022124748677015305,0.018829496577382088,-0.46804022789001465,0.034400660544633865,0.023872753605246544
12644,0.009329570457339287,-0.02261851727962494,0.018776465207338333,-0.46707701683044434,0.03381776064634323,0.0236648079007864
12654,0.00841767992824316,-0.023870155215263367,0.018707862123847008,-0.4111948311328888,0.10901140421628952,0.023686300963163376
12664,0.00850253738462925,-0.024497658014297485,0.020463498309254646,-0.40945884585380554,0.109818235039711,0.023663338273763657
12674,0.008573845960199833,-0.025054749101400375,0.020500078797340393,-0.4104306995868683,0.11024558544158936,0.02441117726266384
12684,0.008860175497829914,-0.02474016137421131,0.020568739622831345,-0.46966031193733215,0.09493504464626312,0.025760365650057793
12694,0.00977269560098648,-0.024468425661325455,0.020630134269595146,-0.5226956605911255,0.0389813669025898,0.027978580445051193
12704,0.00989985279738903,-0.024934925138950348,0.02041264809668064,-0.5226525664329529,0.038054026663303375,0.028052475303411484
12714,0.010028345510363579,-0.02541414648294449,0.020434962585568428,-0.5242807269096375,0.03940325975418091,0.029474016278982162
12724,0.010286535136401653,-0.024734260514378548,0.02048671245574951,-0.5954961776733398,0.03113502822816372,0.030813582241535187
12734,0.011227015405893326,-0.024467142298817635,0.020516199991106987,-0.6352775692939758,-0.019091904163360596,0.032786592841148376
12744,0.00843799114227295,-0.024559998884797096,0.020371021702885628,-0.6519294381141663,0.15931406617164612,0.030148757621645927
12754,0.00941976998001337,-0.024335989728569984,0.02039615996181965,-0.6871820688247681,0.10100159049034119,0.03264613449573517
12764,0.009382213465869427,-0.02386420965194702,0.02042325586080551,-0.7330726981163025,0.10923318564891815,0.03255970776081085
12774,0.009983020834624767,-0.022752678021788597,0.020451057702302933,-0.8108873963356018,0.07809173315763474,0.03533199056982994
12784,0.008378405123949051,-0.023253632709383965,0.02028662897646427,-0.7949422597885132,0.17217512428760529,0.03475724905729294
12794,0.006547445431351662,-0.023760778829455376,0.020282519981265068,-0.7779754400253296,0.2717248797416687,0.03220898658037186
12804,0.006441190373152494,-0.024010274559259415,0.02028721570968628,-0.7776704430580139,0.27142080664634705,0.03298833593726158
12814,0.006330621428787708,-0.024259421974420547,0.020291602239012718,-0.7755422592163086,0.2717492878437042,0.03260471671819687
12824,0.006215035915374756,-0.02450832724571228,0.020296085625886917,-0.7731334567070007,0.27118217945098877,0.033561550080776215
12834,0.003411190817132592,-0.017102127894759178,0.019783206284046173,-1.1629468202590942,0.4073244333267212,0.0394575297832489
12844,0.003138236002996564,-0.016924064606428146,0.019757317379117012,-1.1606067419052124,0.4057088792324066,0.03931988775730133
12854,0.002985757775604725,-0.017068753018975258,0.019745441153645515,-1.1430253982543945,0.39853885769844055,0.03840474784374237
12864,0.0031753573566675186,-0.016837099567055702,0.019730834290385246,-1.143784523010254,0.3768810033798218,0.038927581161260605
12874,0.0019485193770378828,-0.016954878345131874,0.020216017961502075,-1.1270414590835571,0.4223509132862091,0.03759550303220749
12884,0.00349935470148921,-0.01706019788980484,0.02027280628681183,-1.1134742498397827,0.33475634455680847,0.03944627195596695
12894,0.0036269682459533215,-0.017493780702352524,0.020296044647693634,-1.0825588703155518,0.3176339566707611,0.04028983786702156
12904,0.0024517036508768797,-0.017571335658431053,0.02028489299118519,-1.0721983909606934,0.36106249690055847,0.038017239421606064
12914,0.003822873579338193,-0.017619242891669273,0.02105012908577919,-1.06205153465271,0.2862476110458374,0.040285155177116394
12924,0.00267353979870677,-0.017684947699308395,0.021088698878884315,-1.0501281023025513,0.3308674395084381,0.03949546813964844
12934,0.002782890573143959,-0.01804349571466446,0.021146390587091446,-1.0264140367507935,0.31527531147003174,0.03827294707298279
12944,0.003763359971344471,-0.017788341268897057,0.021212860941886902,-1.0311055183410645,0.26077720522880554,0.04039553552865982
12954,0.0032485025003552437,-0.01812923327088356,0.021259870380163193,-1.0084912776947021,0.2750948369503021,0.03870861232280731
12964,0.0030927262268960476,-0.018077224493026733,0.019857218489050865,-1.0078293085098267,0.2738865613937378,0.0389416478574276
12974,0.002892223186790943,-0.017979739233851433,0.01981522887945175,-1.0042297840118408,0.27453505992889404,0.03906915336847305
12984,0.0013951367000117898,-0.018354039639234543,0.019757915288209915,-0.9835841059684753,0.33048734068870544,0.037310998886823654
12994,0.001118924468755722,-0.018271181732416153,0.019715221598744392,-0.9818395376205444,0.3288961946964264,0.038418300449848175
13004,0.0009384939912706614,-0.016631271690130234,0.020222824066877365,-1.0494215488433838,0.32302922010421753,0.040635962039232254
13014,-0.0008510026964358985,-0.009910853579640388,0.02007272094488144,-1.3351349830627441,0.38812801241874695,0.04828989505767822
13024,-0.0009828832698985934,-0.00985149759799242,0.02008090168237686,-1.3150686025619507,0.37726613879203796,0.047277435660362244
13034,-0.0017397040501236916,-0.011652321554720402,0.020185697823762894,-1.2137978076934814,0.39212027192115784,0.04509349539875984
13044,-3.6948389606550336e-05,-0.010589588433504105,0.020561981946229935,-1.240749716758728,0.29900771379470825,0.05016384646296501
13054,-0.0003258389187976718,-0.010159337893128395,0.0205687265843153,-1.2381539344787598,0.2967384457588196,0.050816670060157776
13064,-0.0014384902315214276,-0.009758050553500652,0.020558832213282585,-1.235148310661316,0.32968854904174805,0.04968911036849022
13074,0.00026906104176305234,-0.009961502626538277,0.020651666447520256,-1.2054023742675781,0.2437417209148407,0.05387658625841141
13084,2.3084168788045645e-05,-0.009538122452795506,0.020659832283854485,-1.204498291015625,0.24254021048545837,0.05347273871302605
13094,0.0010961167281493545,-0.016813883557915688,0.02149573527276516,-0.8695396184921265,0.18421319127082825,0.046143706887960434
13104,0.006240107584744692,-0.026934921741485596,0.021523108705878258,-0.4318487048149109,-0.04244279861450195,0.04431891068816185
13114,0.007754407823085785,-0.026728399097919464,0.02158295549452305,-0.45784446597099304,-0.10378959774971008,0.04790599271655083
13124,0.007080795709043741,-0.026543984189629555,0.021698549389839172,-0.4825996458530426,-0.0692266970872879,0.046439267694950104
13134,0.0052579850889742374,-0.025499291718006134,0.02155550755560398,-0.5430622696876526,0.012069445103406906,0.043675731867551804
13144,0.00760708237066865,-0.02565900981426239,0.021583061665296555,-0.5496933460235596,-0.08905309438705444,0.0476127453148365
13154,0.006692578550428152,-0.026119234040379524,0.021640708670020103,-0.5422654151916504,-0.04459512233734131,0.04695699363946915
13164,0.007232343312352896,-0.0260000042617321,0.021691879257559776,-0.5616611242294312,-0.06288610398769379,0.04872966557741165
13174,0.006626754067838192,-0.02589486725628376,0.02185962349176407,-0.5771642923355103,-0.03169712796807289,0.04744664207100868
13184,0.007678006310015917,-0.02450401894748211,0.02194035053253174,-0.6472521424293518,-0.07458270341157913,0.05114490166306496
13194,0.005156153347343206,-0.025265201926231384,0.02202395349740982,-0.6222777962684631,0.038106292486190796,0.04810676351189613
13204,0.006517873611301184,-0.025739194825291634,0.022069936618208885,-0.6106799840927124,-0.0223750788718462,0.05019388720393181
13214,0.007304404396563768,-0.02567100338637829,0.022121382877230644,-0.6220324039459229,-0.05304236337542534,0.05186142772436142
13224,0.005145899951457977,-0.025613337755203247,0.0213372353464365,-0.6327656507492065,0.04538916051387787,0.050033509731292725
13234,0.00620997603982687,-0.02555103972554207,0.0213523767888546,-0.6447172164916992,-0.003237198805436492,0.05169554799795151
13244,0.006241193041205406,-0.02575676701962948,0.02135957032442093,-0.6453123092651367,-0.0009244338143616915,0.05239827558398247
13254,0.005137520842254162,-0.02542363665997982,0.021380802616477013,-0.6684572100639343,0.04940899461507797,0.05187008157372475
13264,0.003524642437696457,-0.031322505325078964,0.02038135565817356,-0.41752320528030396,0.11842428147792816,0.04725665971636772
13274,0.0034213177859783173,-0.03178904205560684,0.020333077758550644,-0.41764816641807556,0.11995879560709,0.047859251499176025
13284,0.002062062034383416,-0.0316355936229229,0.020299147814512253,-0.44411322474479675,0.17359739542007446,0.047600727528333664
13294,0.003774899523705244,-0.030419528484344482,0.02037905342876911,-0.5168399810791016,0.0917242020368576,0.04928554594516754
13304,0.0024322501849383116,-0.03165948763489723,0.019374724477529526,-0.47872525453567505,0.14732520282268524,0.04783331975340843
13314,0.0022888649255037308,-0.032074082642793655,0.019280657172203064,-0.4775340259075165,0.1477622538805008,0.04702332243323326
13324,0.0020541877020150423,-0.031923484057188034,0.019205639138817787,-0.500277578830719,0.15203773975372314,0.04757508635520935
13334,0.0009880042634904385,-0.031784240156412125,0.019113268703222275,-0.5231192111968994,0.19040696322917938,0.04865971952676773
13344,0.0007825965294614434,-0.032153964042663574,0.019015979021787643,-0.5237197279930115,0.18999083340168,0.04880397394299507
13354,0.0002831969177350402,-0.032869741320610046,0.018471503630280495,-0.508516788482666,0.20352348685264587,0.04783318564295769
13364,0.0006476077251136303,-0.03216124698519707,0.01839464157819748,-0.5534560680389404,0.17916381359100342,0.049818649888038635
13374,0.00044874308514408767,-0.032499585300683975,0.018270218744874,-0.5515211224555969,0.17874203622341156,0.050135288387537
13384,0.003211231902241707,-0.03235161677002907,0.018230661749839783,-0.5716987252235413,0.05463114008307457,0.051667217165231705
13394,0.0026463214308023453,-0.03223920613527298,0.018443798646330833,-0.5881833434104919,0.07496799528598785,0.05073949322104454
13404,0.002573493868112564,-0.03253442049026489,0.018344836309552193,-0.5881502628326416,0.0743163600564003,0.05140485614538193
13414,0.0024987750221043825,-0.03283194452524185,0.01824553869664669,-0.5847310423851013,0.0732112005352974,0.05127382650971413
13424,0.003821756923571229,-0.03235530108213425,0.018171081319451332,-0.6140745878219604,0.015118381008505821,0.0526357963681221
13434,0.0032046297565102577,-0.03098740614950657,0.017597267404198647,-0.678483247756958,0.04121309891343117,0.05344994738698006
13444,0.001687218900769949,-0.022644389420747757,0.017512300983071327,-1.0214239358901978,0.10081475973129272,0.05716831982135773
13454,0.0015756952343508601,-0.022351346909999847,0.017379673197865486,-1.0204613208770752,0.1006857231259346,0.05811871588230133
13464,6.309441232588142e-05,-0.022512542083859444,0.01725432090461254,-0.9999455213546753,0.1553768813610077,0.0571153461933136
13474,0.0010436865268275142,-0.022339757531881332,0.0183858759701252,-0.993552029132843,0.10890505462884903,0.05773388594388962
13484,0.00019657862139865756,-0.023371484130620956,0.018368804827332497,-0.938587486743927,0.13863518834114075,0.05745059996843338
13494,0.0002563435700722039,-0.02287433296442032,0.01831076480448246,-0.9476667046546936,0.13122382760047913,0.057834137231111526
13504,0.0014738397439941764,-0.022967737168073654,0.018291126936674118,-0.9330964088439941,0.07629665732383728,0.05921190232038498
13514,0.0026230537332594395,-0.022197429090738297,0.018227940425276756,-0.9551987051963806,0.028461026027798653,0.06001347303390503
13524,0.0015133474953472614,-0.02312789112329483,0.018108079209923744,-0.9060215353965759,0.07229239493608475,0.05829662084579468
13534,0.00317451567389071,-0.0212789885699749,0.0180230513215065,-0.970836341381073,0.0013858475722372532,0.059672076255083084
13544,0.0020874887704849243,-0.01974843256175518,0.017925947904586792,-1.020500659942627,0.046285033226013184,0.05970527604222298
13554,0.002138199983164668,-0.019164465367794037,0.017896495759487152,-1.0458576679229736,0.044071175158023834,0.059857748448848724
13564,0.0033977774437516928,-0.02371872588992119,0.01889713667333126,-0.8288825750350952,-0.013461972586810589,0.06007494404911995
13574,0.0028995308093726635,-0.018832053989171982,0.018871285021305084,-1.0386826992034912,0.009136606939136982,0.060652956366539
13584,0.002900132443755865,-0.01961778663098812,0.01891685463488102,-0.9847636818885803,0.007734378334134817,0.06141819804906845
13594,0.003865104401484132,-0.01871100440621376,0.01888544298708439,-1.010359525680542,-0.035989534109830856,0.06256566941738129
13604,0.0033800634555518627,-0.018033476546406746,0.01931927166879177,-1.021275281906128,-0.011088928207755089,0.06300121545791626
13614,-0.00041138805681839585,-0.013143545016646385,0.019191637635231018,-1.22551691532135,0.16059339046478271,0.06035285443067551
13624,-0.0005876434152014554,-0.01252041570842266,0.0191973727196455,-1.2240697145462036,0.1616448014974594,0.06153585761785507
13634,-0.0007996198837645352,-0.012652101926505566,0.019266987219452858,-1.1886329650878906,0.1629493683576584,0.060075532644987106
13644,-0.0009834866505116224,-0.012053840793669224,0.01927354745566845,-1.1863850355148315,0.1621050387620926,0.06078309565782547
13654,-0.006075055804103613,-0.017334338277578354,0.019816529005765915,-0.9115076065063477,0.38819941878318787,0.0542597621679306
13664,-0.0037409947253763676,-0.02509736269712448,0.02018667943775654,-0.5361389517784119,0.258021742105484,0.05579208582639694
13674,-0.003674088278785348,-0.025318069383502007,0.020252423360943794,-0.5307154059410095,0.2416228950023651,0.056179508566856384
13684,-0.004347589798271656,-0.02504579722881317,0.020307963714003563,-0.5485917329788208,0.2601631283760071,0.05623951926827431
13694,-0.0033049583435058594,-0.032831039279699326,0.020072609186172485,-0.19156920909881592,0.1950744390487671,0.055842287838459015
13704,-0.0035510514862835407,-0.03335364907979965,0.020106010138988495,-0.19129304587841034,0.1966978907585144,0.056785423308610916
13714,-0.004501750227063894,-0.03323943912982941,0.020174939185380936,-0.22220353782176971,0.2283671796321869,0.05679412558674812
13724,-0.0021964607294648886,-0.033122774213552475,0.020348040387034416,-0.2511315941810608,0.10563687235116959,0.060741543769836426
13734,-0.0026450292207300663,-0.033050090074539185,0.019513364881277084,-0.2767171561717987,0.12031948566436768,0.060821618884801865
13744,-0.0006643657688982785,-0.03246895968914032,0.019586367532610893,-0.32503172755241394,0.0205606110394001,0.061473146080970764
13754,-0.0028163157403469086,-0.03240404650568962,0.019615180790424347,-0.3488430082798004,0.11830241978168488,0.06199534237384796
13764,-0.0020753114949911833,-0.03282071277499199,0.019625307992100716,-0.34578999876976013,0.0747528076171875,0.06179315224289894
13774,-0.002197606721892953,-0.033213283866643906,0.01962433010339737,-0.34505271911621094,0.07527805119752884,0.06189106032252312
13784,-0.0017022681422531605,-0.03436623513698578,0.0209353007376194,-0.31060507893562317,0.04464548081159592,0.061995577067136765
13794,-0.003396218176931143,-0.03354685753583908,0.021058352664113045,-0.36943551898002625,0.12016556411981583,0.06394501775503159
13804,-0.003117845393717289,-0.03323810547590256,0.021164825186133385,-0.40147504210472107,0.09769221395254135,0.06372334808111191
13814,-0.0032919675577431917,-0.03362380713224411,0.021242482587695122,-0.4000231921672821,0.09573701024055481,0.06472273916006088
13824,0.0018203787039965391,-0.03226315230131149,0.020143775269389153,-0.47704577445983887,-0.15108419954776764,0.06200515478849411
13834,0.0019507865654304624,-0.032528553158044815,0.02014787308871746,-0.4750446081161499,-0.15091827511787415,0.06181745603680611
13844,0.0020835306495428085,-0.03279687091708183,0.020150063559412956,-0.47197261452674866,-0.15054205060005188,0.06298664212226868
13854,0.0022188732400536537,-0.033067744225263596,0.020150598138570786,-0.47203728556632996,-0.15048162639141083,0.06388813257217407
13864,0.002454314613714814,-0.03294840827584267,0.020097915083169937,-0.48997262120246887,-0.15473639965057373,0.06465485692024231
13874,0.008617076091468334,-0.03142537921667099,0.020000547170639038,-0.5686590671539307,-0.426334023475647,0.060630545020103455
13884,0.009111624211072922,-0.031583357602357864,0.019984392449259758,-0.5695245862007141,-0.4256731867790222,0.06196243315935135
13894,0.007721188478171825,-0.03240269050002098,0.020090797916054726,-0.5394831895828247,-0.3405078053474426,0.06323934346437454
13904,0.008543262258172035,-0.03161051124334335,0.02045982889831066,-0.5871164798736572,-0.3398565649986267,0.06198838725686073
13914,0.00629596970975399,-0.025242559611797333,0.020572030916810036,-0.8650473952293396,-0.24204331636428833,0.059849414974451065
13924,0.004245657008141279,-0.01564401015639305,0.020291265100240707,-1.269749402999878,-0.14130187034606934,0.05533502995967865
13934,0.0044785235077142715,-0.01642508991062641,0.02046324871480465,-1.2014927864074707,-0.1454840749502182,0.056677766144275665
13944,0.0036404840648174286,-0.01689041033387184,0.020611073821783066,-1.14839768409729,-0.1036897823214531,0.05730469152331352
13954,0.005423389840871096,-0.0170493982732296,0.020419200882315636,-1.1121448278427124,-0.1752805858850479,0.05826225131750107
13964,0.0023171412758529186,-0.022318245843052864,0.020870443433523178,-0.8565672039985657,-0.0309173371642828,0.06231914833188057
13974,0.002329346491023898,-0.02206297032535076,0.02090136893093586,-0.8545024991035461,-0.032063551247119904,0.06350012868642807
13984,0.002056168857961893,-0.021335957571864128,0.020915266126394272,-0.8725123405456543,-0.020144101232290268,0.06389016658067703
13994,0.0017657697899267077,-0.017006192356348038,0.019667426124215126,-1.0494036674499512,-0.008183375932276249,0.06166979297995567
14004,0.001746645662933588,-0.01648058369755745,0.019607700407505035,-1.048704981803894,-0.007232177536934614,0.0621979795396328
14014,0.0006678029312752187,-0.01637931726872921,0.019562434405088425,-1.0283348560333252,0.03905167430639267,0.06308239698410034
14024,0.002817794680595398,-0.016525205224752426,0.019588131457567215,-0.9974044561386108,-0.05625719204545021,0.06422401964664459
14034,0.0020203927997499704,-0.015609237365424633,0.01970566250383854,-1.0139387845993042,-0.01978304237127304,0.06403528898954391
14044,0.005635623820126057,-0.019583003595471382,0.019885621964931488,-0.8162215948104858,-0.17570751905441284,0.06836462765932083
14054,0.00583811616525054,-0.01932225562632084,0.01985018327832222,-0.815874457359314,-0.1761344075202942,0.06799618899822235
14064,0.006049229297786951,-0.019401924684643745,0.01981806382536888,-0.8000167608261108,-0.17526839673519135,0.06950849294662476
14074,0.00573390256613493,-0.019465988501906395,0.019801009446382523,-0.7845001220703125,-0.15383976697921753,0.06883978843688965
14084,0.004645302426069975,-0.024963922798633575,0.01951735094189644,-0.5316525101661682,-0.09825779497623444,0.07258971035480499
14094,0.003353077918291092,-0.022399522364139557,0.019556615501642227,-0.6493641138076782,-0.03345806151628494,0.07046303898096085
14104,0.00559979910030961,-0.019390471279621124,0.019531870260834694,-0.7799634337425232,-0.13267669081687927,0.06955654919147491
14114,0.004584888927638531,-0.019433356821537018,0.019510773941874504,-0.7684391736984253,-0.07902068644762039,0.06798914074897766
14124,0.005304836202412844,-0.019214410334825516,0.019677521660923958,-0.7678832411766052,-0.10706306248903275,0.06853609532117844
14134,0.0045493836514651775,-0.014187096618115902,0.019569138064980507,-0.9858421087265015,-0.06747168302536011,0.0660848543047905
14144,0.003589903237298131,-0.014259838499128819,0.019555039703845978,-0.9587237238883972,-0.019322440028190613,0.06580992043018341
14154,0.004284888040274382,-0.014082090929150581,0.01952185668051243,-0.9449105262756348,-0.050282735377550125,0.06661245226860046
14164,0.00435132859274745,-0.01364682987332344,0.019470427185297012,-0.9451638460159302,-0.04852589592337608,0.06665831059217453
14174,0.004343405365943909,-0.018883679062128067,0.019467834383249283,-0.6829997897148132,-0.0446581095457077,0.07063432782888412
14184,0.009195756167173386,-0.024001911282539368,0.019420001655817032,-0.4378497004508972,-0.2674150764942169,0.07735248655080795
14194,0.008435294032096863,-0.023968175053596497,0.019432296976447105,-0.44463807344436646,-0.21726945042610168,0.07639142125844955
14204,0.008391602896153927,-0.024179715663194656,0.019397016614675522,-0.44382062554359436,-0.20392586290836334,0.07747786492109299
14214,0.009288780391216278,-0.024871833622455597,0.019175846129655838,-0.4198080599308014,-0.23313336074352264,0.07894085347652435
14224,0.008326727896928787,-0.02438529208302498,0.01918347179889679,-0.4494074881076813,-0.1731829047203064,0.07948804646730423
14234,0.009221718646585941,-0.0241413414478302,0.019123876467347145,-0.46711644530296326,-0.20562729239463806,0.07981827110052109
14244,0.008348604664206505,-0.024139394983649254,0.01911342516541481,-0.4713291823863983,-0.15257275104522705,0.08017536252737045
14254,0.008565662428736687,-0.024269428104162216,0.01903599314391613,-0.47039660811424255,-0.15286608040332794,0.07971843332052231
14264,0.008785262703895569,-0.02440340630710125,0.01897704228758812,-0.47051170468330383,-0.15407700836658478,0.07945691794157028
14274,0.008743420243263245,-0.024126216769218445,0.01892988570034504,-0.48906728625297546,-0.1407383680343628,0.08051756024360657
14284,0.008699818514287472,-0.024347389116883278,0.018871532753109932,-0.48293495178222656,-0.12908105552196503,0.08172032237052917
14294,0.0077027431689202785,-0.025528956204652786,0.019633587449789047,-0.43212267756462097,-0.06999025493860245,0.08327993750572205
14304,0.002869226038455963,-0.03177370876073837,0.01950836554169655,-0.14344936609268188,0.16930970549583435,0.09031494706869125
14314,0.001227889209985733,-0.029571887105703354,0.019630439579486847,-0.27245184779167175,0.2377801090478897,0.08937545120716095
14324,0.0007822582265362144,-0.02315180003643036,0.019974645227193832,-0.5962525010108948,0.24909207224845886,0.08595970273017883
14334,0.001279457937926054,-0.023148512467741966,0.020006585866212845,-0.596703827381134,0.2141149938106537,0.08516747504472733
14344,0.0017416221089661121,-0.023142509162425995,0.01962212845683098,-0.596304178237915,0.18093809485435486,0.0862470418214798
14354,0.002448547864332795,-0.02313612774014473,0.01961454004049301,-0.5986653566360474,0.13995802402496338,0.08619624376296997
14364,0.0017835890175774693,-0.023132584989070892,0.019573332741856575,-0.6018921136856079,0.1665843278169632,0.08746550977230072
14374,0.0009073368855752051,-0.023130925372242928,0.019520476460456848,-0.6033340692520142,0.1997867375612259,0.08854597061872482
14384,0.001369213336147368,-0.022461770102381706,0.019694896414875984,-0.6354971528053284,0.16630803048610687,0.08919467031955719
14394,0.0016036269953474402,-0.023123042657971382,0.019683009013533592,-0.602179229259491,0.14544330537319183,0.0894235223531723
14404,0.0014638291904702783,-0.023145748302340508,0.019658247008919716,-0.6010993719100952,0.14393243193626404,0.09033919870853424
14414,0.0024053282104432583,-0.02314526028931141,0.019655045121908188,-0.6010053753852844,0.09073524177074432,0.08942168205976486
14424,0.0006025792099535465,-0.02427796833217144,0.019381888210773468,-0.5471243262290955,0.17334090173244476,0.08991509675979614
14434,0.0010683778673410416,-0.0229157917201519,0.019368156790733337,-0.6163164973258972,0.1415453851222992,0.0893314778804779
14444,0.0008592220256105065,-0.0233575701713562,0.0193287692964077,-0.5950028896331787,0.14420008659362793,0.08968344330787659
14454,0.001533142989501357,-0.02313409373164177,0.019305815920233727,-0.6082615852355957,0.1041228249669075,0.09081145375967026
14464,0.0008823531679809093,-0.023139173164963722,0.019259100779891014,-0.607487142086029,0.1303362101316452,0.09209155291318893
14474,-0.0027712027076631784,-0.027705280110239983,0.017827043309807777,-0.38842126727104187,0.2988549470901489,0.09412351995706558
14484,-0.0031365295872092247,-0.028027214109897614,0.0176949854940176,-0.3859795928001404,0.297741562128067,0.0948648452758789
14494,-0.0021888951305299997,-0.02776496484875679,0.01767117902636528,-0.41382160782814026,0.2337755709886551,0.09526163339614868
14504,-0.004188417457044125,-0.027970025315880775,0.017464950680732727,-0.41703271865844727,0.31512975692749023,0.0979025736451149
14514,-0.01020055916160345,-0.02327452041208744,0.017947759479284286,-0.6537389159202576,0.5811173319816589,0.10752519965171814
14524,-0.011029064655303955,-0.023053942248225212,0.017838800325989723,-0.6605128049850464,0.5840777158737183,0.10776501893997192
14534,-0.01181066781282425,-0.02301716059446335,0.01773833855986595,-0.6600276827812195,0.5841726660728455,0.10866859555244446
14544,-0.012870029546320438,-0.023028947412967682,0.017602575942873955,-0.6545248627662659,0.5942105650901794,0.10867039114236832
14554,-0.011905975639820099,-0.02303684689104557,0.01870115101337433,-0.6501738429069519,0.5078017711639404,0.10649126023054123
14564,-0.015467144548892975,-0.014629777520895004,0.01836034283041954,-1.0497815608978271,0.6434431076049805,0.12159579992294312
14574,-0.01650937832891941,-0.01468795258551836,0.018346814438700676,-1.0189663171768188,0.6496977210044861,0.1205163300037384
14584,-0.015553273260593414,-0.014730284921824932,0.018608897924423218,-0.9898607134819031,0.5578105449676514,0.119330495595932
14594,-0.016150057315826416,-0.015434819273650646,0.01842917688190937,-0.9309280514717102,0.5479238033294678,0.11759775876998901
14604,-0.01611144468188286,-0.0191908311098814,0.018696388229727745,-0.7267643213272095,0.5078145861625671,0.10972436517477036
14614,-0.016880705952644348,-0.019012203440070152,0.01867872290313244,-0.725646436214447,0.5074960589408875,0.1102074384689331
14624,-0.01679394021630287,-0.018346725031733513,0.018735159188508987,-0.7484199404716492,0.4639878571033478,0.11083958297967911
14634,-0.015592912212014198,-0.018588179722428322,0.018928982317447662,-0.72397381067276,0.36801877617836,0.1102285161614418
14644,-0.016191208735108376,-0.018412381410598755,0.018532423302531242,-0.7238093018531799,0.366904616355896,0.11017294973134995
14654,-0.021076571196317673,-0.023448443040251732,0.0183658916503191,-0.46772632002830505,0.5760858654975891,0.10149215906858444
14664,-0.021962279453873634,-0.023566078394651413,0.01832585223019123,-0.4673376977443695,0.5774615406990051,0.10142050683498383
14674,-0.021800179034471512,-0.023289520293474197,0.01841854862868786,-0.48538848757743835,0.5260427594184875,0.10325354337692261
14684,-0.022665129974484444,-0.023388616740703583,0.018633192405104637,-0.485240638256073,0.5241110920906067,0.10304712504148483
14694,-0.021419264376163483,-0.023608820512890816,0.018772760406136513,-0.4808369278907776,0.42015817761421204,0.10214686393737793
14704,-0.02124384045600891,-0.023321008309721947,0.01883583329617977,-0.5005001425743103,0.3761695325374603,0.10236045718193054
14714,-0.022093741223216057,-0.023300662636756897,0.01882266253232956,-0.5063059329986572,0.3820304572582245,0.10378903150558472
14724,-0.027206744998693466,-0.01860349252820015,0.019516222178936005,-0.7377781867980957,0.5871728658676147,0.11862139403820038
14734,-0.025822177529335022,-0.022295810282230377,0.019821586087346077,-0.5507608652114868,0.4743804633617401,0.11002159863710403
14744,-0.024473924189805984,-0.02228081040084362,0.020034123212099075,-0.5520100593566895,0.36970821022987366,0.10820775479078293
14754,-0.024845754727721214,-0.02156081423163414,0.02011719159781933,-0.5872095227241516,0.3512878119945526,0.1104860007762909
14764,-0.024740854278206825,-0.022977318614721298,0.020224841311573982,-0.5188388824462891,0.3124053478240967,0.10756860673427582
14774,-0.0263124480843544,-0.02342630736529827,0.020527975633740425,-0.4993215501308441,0.35319021344184875,0.1068093478679657
14784,-0.02415422350168228,-0.02271728217601776,0.020773297175765038,-0.539472222328186,0.21408821642398834,0.10846423357725143
14794,-0.025006573647260666,-0.02248588390648365,0.020844146609306335,-0.5529331564903259,0.22576338052749634,0.11000685393810272
14804,-0.024272572249174118,-0.022701935842633247,0.020984498783946037,-0.5442022085189819,0.16135531663894653,0.10909867286682129
14814,-0.02489270456135273,-0.022697998210787773,0.02103808894753456,-0.5435236692428589,0.16091804206371307,0.10977087914943695
14824,-0.029785847291350365,-0.017559291794896126,0.021016644313931465,-0.7967978715896606,0.370175302028656,0.1228652223944664
14834,-0.030571473762392998,-0.017339741811156273,0.021081149578094482,-0.7943523526191711,0.37023720145225525,0.12274318933486938
14844,-0.031639646738767624,-0.016435865312814713,0.02109338343143463,-0.8272640109062195,0.38204652070999146,0.12432615458965302
14854,-0.030191414058208466,-0.016459232196211815,0.02161535806953907,-0.812872052192688,0.27187615633010864,0.12197950482368469
14864,-0.030346782878041267,-0.0171701330691576,0.02175954170525074,-0.7647865414619446,0.2464248389005661,0.12084447592496872
14874,-0.030286040157079697,-0.01650826446712017,0.02187502570450306,-0.7856624722480774,0.21067363023757935,0.1217588558793068
14884,-0.02955961599946022,-0.017195893451571465,0.02207031100988388,-0.7413329482078552,0.14445972442626953,0.12085428088903427
14894,-0.030015241354703903,-0.016530025750398636,0.022172046825289726,-0.7633441090583801,0.13579341769218445,0.12254778295755386
14904,-0.03475659713149071,-0.01790553703904152,0.020915711298584938,-0.6858352422714233,0.34182900190353394,0.12141766399145126
14914,-0.03360962122678757,-0.02075444906949997,0.02111259289085865,-0.541811466217041,0.24686452746391296,0.1176847517490387
14924,-0.03443681821227074,-0.02075137197971344,0.021130701526999474,-0.5454730987548828,0.25450754165649414,0.11771455407142639
14934,-0.03354993835091591,-0.020099231973290443,0.021294545382261276,-0.579006016254425,0.17744533717632294,0.1172126978635788
14944,-0.03373120352625847,-0.02116573229432106,0.02120766043663025,-0.5270073413848877,0.15874415636062622,0.1165471002459526
14954,-0.0343523770570755,-0.02095041237771511,0.02123846858739853,-0.5431414842605591,0.16066671907901764,0.11760398000478745
14964,-0.03494099900126457,-0.021021783351898193,0.021265406161546707,-0.541939914226532,0.15969128906726837,0.11751989275217056
14974,-0.0344405435025692,-0.02123849466443062,0.021353356540203094,-0.53169184923172,0.10726931691169739,0.11755585670471191
14984,-0.03392816334962845,-0.02012978494167328,0.020884692668914795,-0.5878713130950928,0.05942827835679054,0.11843837052583694
14994,-0.03455502539873123,-0.020798994228243828,0.020879333838820457,-0.5558212399482727,0.06821530312299728,0.11794283241033554
15004,-0.033877912908792496,-0.020794056355953217,0.02092224545776844,-0.5559095740318298,0.013468639925122261,0.11868200451135635
15014,-0.035374999046325684,-0.021009288728237152,0.02089167758822441,-0.5485509634017944,0.06858892738819122,0.11974002420902252
15024,-0.035336822271347046,-0.019937021657824516,0.02056013233959675,-0.6038921475410461,0.044424086809158325,0.12074079364538193
15034,-0.03577383607625961,-0.019932463765144348,0.020535893738269806,-0.6021201014518738,0.04414152726531029,0.12004316598176956
15044,-0.03621192276477814,-0.019928546622395515,0.02051045559346676,-0.603017270565033,0.04319256171584129,0.11985467374324799
15054,-0.036650270223617554,-0.019925372675061226,0.02048366144299507,-0.6020010113716125,0.0423903651535511,0.12007716298103333
15064,-0.035272371023893356,-0.019925225526094437,0.020546643063426018,-0.5999670028686523,-0.04387935623526573,0.11924247443675995
15074,-0.03522824868559837,-0.017670033499598503,0.021167192608118057,-0.7040820121765137,-0.062385037541389465,0.11872826516628265
15084,-0.03615204989910126,-0.01992225833237171,0.021230367943644524,-0.5896228551864624,-0.03361353278160095,0.11841537058353424
15094,-0.03648822382092476,-0.019926784560084343,0.021254325285553932,-0.5897715091705322,-0.033807411789894104,0.11765052378177643
15104,-0.03536872938275337,-0.019663801416754723,0.021325869485735893,-0.600481390953064,-0.1006135493516922,0.11834921687841415
15114,-0.03656620532274246,-0.020180661231279373,0.02077495865523815,-0.5761646032333374,-0.05722062662243843,0.11957763880491257
15124,-0.036868948489427567,-0.02020268328487873,0.020763251930475235,-0.5746674537658691,-0.056188829243183136,0.11967236548662186
15134,-0.03652183711528778,-0.01993107795715332,0.02076788805425167,-0.587602972984314,-0.08925560861825943,0.11898604035377502
15144,-0.03671721741557121,-0.01888520084321499,0.020757753401994705,-0.6356689929962158,-0.09192463010549545,0.11920654028654099
15154,-0.03538365662097931,-0.019399985671043396,0.02078722044825554,-0.6096099019050598,-0.16472388803958893,0.11955299973487854
15164,-0.0368298776447773,-0.019667306914925575,0.01956097036600113,-0.5954968929290771,-0.10334032028913498,0.12089360505342484
15174,-0.037067655473947525,-0.01967329904437065,0.019474860280752182,-0.5941809415817261,-0.10228529572486877,0.12027506530284882
15184,-0.03647695854306221,-0.019933529198169708,0.019405942410230637,-0.5822111368179321,-0.13961054384708405,0.12084584683179855
15194,-0.035397179424762726,-0.019678974524140358,0.019341854378581047,-0.5938024520874023,-0.1991451382637024,0.11966770887374878
15204,-0.03536582738161087,-0.020949259400367737,0.018276112154126167,-0.5337101221084595,-0.20541813969612122,0.1219274178147316
15214,-0.035352740436792374,-0.019931837916374207,0.018151598051190376,-0.583642840385437,-0.20984472334384918,0.12191754579544067
15224,-0.036321982741355896,-0.019930057227611542,0.01801449805498123,-0.5831884145736694,-0.16905537247657776,0.12338283658027649
15234,-0.03557323291897774,-0.019430186599493027,0.017886720597743988,-0.6069170236587524,-0.2085351198911667,0.12239288538694382
15244,-0.036511048674583435,-0.02471849136054516,0.017443843185901642,-0.36253970861434937,-0.16899479925632477,0.1295941174030304
15254,-0.03742637857794762,-0.03228741139173508,0.01699242554605007,-0.023199068382382393,-0.13056893646717072,0.1392562836408615
15264,-0.037594959139823914,-0.032983168959617615,0.01681305281817913,-0.023601047694683075,-0.1304699331521988,0.14004597067832947
15274,-0.038798924535512924,-0.03285158798098564,0.016714030876755714,-0.06345843523740768,-0.08276796340942383,0.1392146348953247
15284,-0.03855220973491669,-0.03373866155743599,0.01710476726293564,-0.0525556318461895,-0.10460957884788513,0.13878598809242249
15294,-0.040713611990213394,-0.02879841811954975,0.017380401492118835,-0.3159640431404114,-0.012937385588884354,0.13411103188991547
15304,-0.040668703615665436,-0.028501614928245544,0.017301347106695175,-0.3469262719154358,-0.028388122096657753,0.13377392292022705
15314,-0.04094725847244263,-0.028870461508631706,0.0171821266412735,-0.34418487548828125,-0.028702758252620697,0.1331559121608734
15324,-0.041884277015924454,-0.02879377454519272,0.0170588418841362,-0.3657253682613373,0.0017401298973709345,0.13400128483772278
15334,-0.04133829101920128,-0.0289841927587986,0.017740406095981598,-0.374585896730423,-0.04125663638114929,0.13281337916851044
15344,-0.04160050302743912,-0.02933555655181408,0.017658988013863564,-0.37465426325798035,-0.040200307965278625,0.13226687908172607
15354,-0.042564745992422104,-0.029513265937566757,0.01756453886628151,-0.38276758790016174,-0.006989961490035057,0.13267430663108826
15364,-0.040492165833711624,-0.029178934171795845,0.017591413110494614,-0.41410186886787415,-0.11797356605529785,0.1288428008556366
15374,-0.043921392410993576,-0.03434644266963005,0.018761616200208664,-0.18863753974437714,0.03368352726101875,0.13948434591293335
15384,-0.04426487162709236,-0.03493395075201988,0.018745331093668938,-0.18868771195411682,0.035191651433706284,0.14105495810508728
15394,-0.04460904374718666,-0.035529401153326035,0.018727244809269905,-0.18850266933441162,0.03578634187579155,0.14082416892051697
15404,-0.04498893395066261,-0.03619367256760597,0.018705740571022034,-0.18707942962646484,0.036578837782144547,0.14139516651630402
15414,-0.04533341899514198,-0.03680095076560974,0.018422972410917282,-0.18599218130111694,0.03653118386864662,0.14248771965503693
15424,-0.04155498743057251,-0.04280930757522583,0.01821826957166195,0.060137610882520676,-0.15057222545146942,0.14276131987571716
15434,-0.04167366400361061,-0.04374175891280174,0.018167870119214058,0.05952507629990578,-0.14960363507270813,0.14323678612709045
15444,-0.04037989675998688,-0.04326135292649269,0.018269360065460205,-0.004959467798471451,-0.21380014717578888,0.1408071219921112
15454,-0.04096749424934387,-0.042566701769828796,0.018241284415125847,-0.07369568198919296,-0.19121935963630676,0.14004763960838318
15464,-0.05032125860452652,-0.04256487637758255,0.018250608816742897,-0.10872964560985565,0.21551653742790222,0.15530550479888916
15474,-0.048948734998703,-0.04226837307214737,0.018394475802779198,-0.15484413504600525,0.1289207637310028,0.1509542614221573
15484,-0.0485047772526741,-0.042015254497528076,0.018474500626325607,-0.19570443034172058,0.0891568586230278,0.1488906592130661
15494,-0.048920921981334686,-0.04070474952459335,0.01857907511293888,-0.281576007604599,0.08824384212493896,0.14763839542865753
15504,-0.051177170127630234,-0.047230351716279984,0.017666049301624298,-0.021402543410658836,0.169510155916214,0.15565446019172668
15514,-0.051709726452827454,-0.04814596101641655,0.01758849434554577,-0.02042418345808983,0.1675734668970108,0.15556645393371582
15524,-0.05224442854523659,-0.04907174035906792,0.017509683966636658,-0.019125768914818764,0.1685597449541092,0.15614451467990875
15534,-0.0511467270553112,-0.04867860674858093,0.01768133044242859,-0.0757949948310852,0.09965222328901291,0.15249252319335938
15544,-0.050988972187042236,-0.04721350967884064,0.017946982756257057,-0.17416153848171234,0.07412829250097275,0.14957787096500397
15554,-0.05756247043609619,-0.043889839202165604,0.01793954335153103,-0.3475027084350586,0.33422017097473145,0.15930679440498352
