timestamp (ms),stateEstimate.x,stateEstimate.y,stateEstimate.z,stabilizer.roll,stabilizer.pitch,stabilizer.yaw
10878,9.292377217207104e-05,-5.0822864068322815e-06,-3.590539563447237e-06,0.0011833421885967255,-0.0004726035986095667,0.001292550121434033
10888,6.696632044622675e-05,9.996473818318918e-05,0.024055227637290955,-0.03150983527302742,0.03760937601327896,0.0027707242406904697
10898,0.0001083626484614797,-0.00015246968541759998,0.024063482880592346,0.07744862139225006,0.03826215863227844,0.003313811030238867
10908,0.00023477304785046726,-1.3928309272159822e-05,0.024059994146227837,-0.017864052206277847,0.007376982364803553,0.0032204228918999434
10918,0.00031804738682694733,-4.88178338855505e-05,0.02402346394956112,-0.01744764670729637,0.007477195933461189,0.0023529548197984695
10928,0.0006427821354009211,-8.491067274007946e-05,0.023979200050234795,-0.021680086851119995,-0.09628625214099884,0.0026608554180711508
10938,-0.0003074757114518434,0.0014519358519464731,0.024028338491916656,-0.7301667928695679,0.39125335216522217,0.006060331594198942
10948,-0.0008518596878275275,0.0034797880798578262,0.023743078112602234,-1.5109741687774658,0.6070127487182617,0.014266468584537506
10958,0.0010102733504027128,0.0022307296749204397,0.024195266887545586,-0.7465302348136902,-0.23512111604213715,0.007257947698235512
10969,0.00014169068890623748,0.003857808653265238,0.0240558460354805,-1.2973954677581787,0.19858892261981964,0.010608414188027382
10979,0.002505939919501543,0.003484305925667286,0.024057015776634216,-0.9612780809402466,-0.7112148404121399,0.006753566209226847
10989,0.002919520251452923,0.004133198875933886,0.02393958903849125,-1.0654340982437134,-0.7181903719902039,0.006029200274497271
10998,0.0015532078687101603,0.0033098007552325726,0.024088939651846886,-0.6233258843421936,-0.08045417815446854,0.007995693013072014
11008,0.0016140633961185813,0.004552452825009823,0.023953165858983994,-0.9606702327728271,-0.032547950744628906,0.008691267110407352
11018,0.001980971544981003,0.005421290639787912,0.02380019798874855,-1.1182887554168701,-0.09026936441659927,0.00737158814445138
11028,0.0025290835183113813,0.005514562129974365,0.023764371871948242,-1.008942723274231,-0.19052930176258087,0.008476795628666878
11038,0.0025811688974499702,0.005237331613898277,0.02368568256497383,-0.807182788848877,-0.12448882311582565,0.009785917587578297
11048,0.002619675360620022,0.004553551319986582,0.023608697578310966,-0.5215058922767639,-0.061429232358932495,0.011015363037586212
11058,0.0020893188193440437,0.005505444016307592,0.023488137871026993,-0.7148962020874023,0.14444206655025482,0.010892125777900219
11068,0.0020963463466614485,0.005688271950930357,0.02243640087544918,-0.6924347281455994,0.18137836456298828,0.011761585250496864
11078,0.002262722933664918,0.005968596786260605,0.02223474532365799,-0.6918663382530212,0.17970098555088043,0.011931946501135826
11088,0.002032910706475377,0.00503670796751976,0.022065870463848114,-0.4139527380466461,0.269912987947464,0.011940541677176952
11098,0.0021719965152442455,0.0051901694387197495,0.021863261237740517,-0.41147667169570923,0.2684268653392792,0.011406213976442814
11108,0.0018943893956020474,0.010254453867673874,0.02217264100909233,-1.4082229137420654,0.3556123971939087,0.014563740231096745
11118,0.00035176434903405607,0.0037640929222106934,0.022431759163737297,-0.030722899362444878,0.6750644445419312,0.00749879190698266
11128,0.0003063039039261639,0.0037188988644629717,0.02229025773704052,-0.030029982328414917,0.6738910675048828,0.008014384657144547
11138,4.066129622515291e-05,0.0034456057474017143,0.022138528525829315,0.008535288274288177,0.7121760249137878,0.0086041409522295
11148,6.567355012521148e-05,0.002621963620185852,0.02197311259806156,0.13027721643447876,0.6947721242904663,0.007736434228718281
11158,0.005927499383687973,-0.0020290047395974398,0.022647114470601082,0.8432717323303223,-0.24643318355083466,0.01214697863906622
11168,0.010184546932578087,-0.003235538024455309,0.022283878177404404,0.9382627010345459,-0.8240681886672974,0.018108384683728218
11178,0.010489453561604023,-0.002769849728792906,0.02231365069746971,0.7758373022079468,-0.7520875930786133,0.016020890325307846
11188,0.010268599726259708,-0.0028752866201102734,0.022350052371621132,0.7084007859230042,-0.6108667254447937,0.015305542387068272
11198,0.010856672190129757,-0.003256369149312377,0.02170759253203869,0.6846880316734314,-0.5945454239845276,0.01608179323375225
11208,0.010655459016561508,-0.0028337372932583094,0.021686118096113205,0.554623544216156,-0.47171369194984436,0.0151136489585042
11218,0.011333849281072617,-0.0033579953014850616,0.021551813930273056,0.5564599633216858,-0.47345438599586487,0.015703696757555008
11228,0.0120314322412014,-0.003904098179191351,0.02141597867012024,0.5550322532653809,-0.4741479754447937,0.017851758748292923
11238,0.011707780882716179,-0.004594312980771065,0.02249455638229847,0.5670753717422485,-0.34839996695518494,0.01810263656079769
11248,0.01170776505023241,-0.0021404121071100235,0.022610560059547424,0.2228931188583374,-0.27524521946907043,0.016005072742700577
11258,0.011124935001134872,-0.0034946040250360966,0.022596020251512527,0.32951608300209045,-0.14471475780010223,0.018169181421399117
11268,0.008510695770382881,-0.002398563316091895,0.022742288187146187,0.1626613289117813,0.18767552077770233,0.019654054194688797
11278,0.009561402723193169,-0.002543211681768298,0.02271687053143978,0.13918982446193695,0.11319254338741302,0.019401531666517258
11288,0.009746537543833256,-0.0038992867339402437,0.023720892146229744,0.23345720767974854,0.13696561753749847,0.020153451710939407
11298,0.007893544621765614,-0.012583586387336254,0.02353079430758953,1.0309953689575195,0.35099536180496216,0.0220467709004879
11308,0.007531645707786083,-0.012502426281571388,0.0236740130931139,0.9224883913993835,0.40627726912498474,0.02320905216038227
11318,0.006919301580637693,-0.010787157341837883,0.0240144282579422,0.6697382926940918,0.4798241853713989,0.025463689118623734
11328,0.006593412719666958,-0.011624878272414207,0.024032095447182655,0.6695120930671692,0.5208674669265747,0.02556704171001911
11338,0.006706550717353821,-0.012496396899223328,0.024077998474240303,0.6688022017478943,0.5206010341644287,0.025442322716116905
11348,0.005778856109827757,-0.006242943461984396,0.0246444009244442,0.0463373064994812,0.6101394891738892,0.033389415591955185
11358,0.005467134993523359,-0.004612169228494167,0.024760544300079346,-0.13066750764846802,0.6379448771476746,0.03621550276875496
11368,0.0048740217462182045,-0.004491699393838644,0.02483719401061535,-0.16690267622470856,0.6884407997131348,0.03818092867732048
11378,0.003997792024165392,-0.008664564229547977,0.02410070411860943,0.14896483719348907,0.7568525671958923,0.036556776612997055
11388,0.004873811732977629,-0.004517052788287401,0.024328945204615593,-0.22823649644851685,0.677864670753479,0.04111483320593834
11398,0.004596649203449488,-0.004979313351213932,0.024378184229135513,-0.2128106951713562,0.6982429027557373,0.041134387254714966
11408,0.005445385351777077,-0.004891629796475172,0.024451229721307755,-0.24204300343990326,0.6266592741012573,0.03981938585639
11418,0.0054367645643651485,-0.0061667608097195625,0.024280916899442673,-0.16405312716960907,0.6283025741577148,0.038832493126392365
11428,0.001496363547630608,-0.006591860204935074,0.024291375651955605,-0.1585329920053482,0.9270991086959839,0.04288424924015999
11438,0.0010187778389081359,-0.005683503113687038,0.024340705946087837,-0.2524162530899048,0.9457323551177979,0.045013464987277985
11448,0.0013510828139260411,-0.006143508013337851,0.024405036121606827,-0.23898281157016754,0.9010011553764343,0.04475202411413193
11458,0.0006135170697234571,-0.0060608405619859695,0.024432478472590446,-0.2663121819496155,0.9370932579040527,0.04662574082612991
11468,0.00036822547554038465,-0.006305057089775801,0.023421473801136017,-0.264194518327713,0.9367022514343262,0.04593246057629585
11478,-0.0017766400706022978,-0.012096384540200233,0.023275675252079964,0.12814165651798248,1.0712597370147705,0.034479882568120956
11488,-0.002206064760684967,-0.01189351174980402,0.02329600229859352,0.07110019028186798,1.0725440979003906,0.0372609980404377
11498,-0.0031851870007812977,-0.011711576022207737,0.02328544296324253,0.018305258825421333,1.112525224685669,0.03891982138156891
11508,-0.007136128842830658,-0.006161135621368885,0.023647187277674675,-0.4023532271385193,1.3502086400985718,0.05753576382994652
11518,-0.006681674160063267,-0.005561216734349728,0.023721979930996895,-0.4570598006248474,1.2732080221176147,0.05867299437522888
11528,-0.007275347597897053,-0.005743352230638266,0.023731764405965805,-0.4562046527862549,1.271493673324585,0.059883274137973785
11538,-0.007881135679781437,-0.00592863280326128,0.02374320849776268,-0.45515912771224976,1.270041584968567,0.05984216555953026
11548,-0.007302210666239262,-0.00432845763862133,0.023844996467232704,-0.5713483691215515,1.1902389526367188,0.06538496911525726
11558,-0.007080028764903545,0.003685245057567954,0.023873643949627876,-1.0878736972808838,1.136492133140564,0.08982463926076889
11568,-0.006291642785072327,0.00411641038954258,0.023942600935697556,-1.0886117219924927,1.050682783126831,0.08920060098171234
11578,-0.005235189571976662,0.008319634012877941,0.023780854418873787,-1.3235142230987549,0.9539161324501038,0.10124316811561584
11588,-0.0048116291873157024,0.007815485820174217,0.023919707164168358,-1.2544002532958984,0.9029834866523743,0.09735530614852905
11598,-0.004677434451878071,0.0064940485171973705,0.023677002638578415,-1.1399585008621216,0.8766494393348694,0.0917903482913971
11608,0.0012720013037323952,0.011916999705135822,0.023531872779130936,-1.4324774742126465,0.49993768334388733,0.10767672210931778
11618,0.0026315804570913315,0.011677991598844528,0.02357684075832367,-1.3711552619934082,0.42090752720832825,0.10551320016384125
11628,0.0001413885911460966,0.012551550753414631,0.023649290204048157,-1.3801743984222412,0.5727518200874329,0.10317124426364899
11638,0.00040891405660659075,0.011539570987224579,0.02381427399814129,-1.2760673761367798,0.5559971332550049,0.09937926381826401
11648,-0.0016930311685428023,0.019311638548970222,0.023114381358027458,-1.6829172372817993,0.6748061776161194,0.1147700622677803
11658,-0.004533035214990377,0.025302797555923462,0.0224931500852108,-1.9582633972167969,0.8278977274894714,0.12354453653097153
11668,-0.005509261507540941,0.024976350367069244,0.022675057873129845,-1.8609107732772827,0.8625258803367615,0.11883608996868134
11678,-0.003630086313933134,0.024689173325896263,0.022967364639043808,-1.7682267427444458,0.7382606267929077,0.11863984912633896
11688,-0.004630689509212971,0.02345392107963562,0.023610174655914307,-1.6293540000915527,0.7786327600479126,0.1116539016366005
11698,-0.005840597208589315,0.026749111711978912,0.02338683418929577,-1.7489700317382812,0.8278228044509888,0.11520599573850632
11708,-0.003522144164890051,0.024287816137075424,0.023922258988022804,-1.544217586517334,0.6831259727478027,0.11270283907651901
11718,-0.0034922545310109854,0.0248434878885746,0.02400257997214794,-1.5184199810028076,0.6707237362861633,0.11241772025823593
11728,-0.002472109394147992,0.023689206689596176,0.024298779666423798,-1.3989129066467285,0.6046500205993652,0.11083289235830307
11738,-0.0034571420401334763,0.025028306990861893,0.024632032960653305,-1.4171174764633179,0.6511716842651367,0.10926053673028946
11748,-0.0031869448721408844,0.026576699689030647,0.024657240137457848,-1.4476709365844727,0.6270256042480469,0.11121389269828796
11758,-0.00317143346183002,0.025698143988847733,0.024906087666749954,-1.3461111783981323,0.6204764246940613,0.1071714386343956
11768,-0.004120898898690939,0.027725229039788246,0.024878015741705894,-1.404054045677185,0.6634039282798767,0.1062726303935051
11778,-0.0038341470062732697,0.02297983504831791,0.024925360456109047,-1.1045925617218018,0.6405423283576965,0.09801284968852997
11788,-0.003965322859585285,0.023604536429047585,0.025003582239151,-1.10252046585083,0.6389026045799255,0.09795726090669632
11798,-0.003941292874515057,0.024483999237418175,0.025073900818824768,-1.1130757331848145,0.6308251619338989,0.09872258454561234
11808,-0.0029080782551318407,0.023596808314323425,0.025244208052754402,-1.0316698551177979,0.5706794857978821,0.09997290372848511
11818,-0.0028646746650338173,0.02287076972424984,0.0243744645267725,-0.9680032730102539,0.5660744905471802,0.09995756298303604
11828,-0.0063266209326684475,0.024502329528331757,0.024384798482060432,-1.0241591930389404,0.7387288212776184,0.09096134454011917
11838,-0.0028341813012957573,0.023187385872006416,0.024599768221378326,-0.9263992309570312,0.545844316482544,0.09966869652271271
11848,-0.0028602485544979572,0.0236459132283926,0.024643825367093086,-0.9249470233917236,0.5458388924598694,0.09896047413349152
11858,-0.0028495669830590487,0.022753337398171425,0.02473609708249569,-0.8542801737785339,0.5443121790885925,0.0972977876663208
11868,-0.004900385159999132,0.02417776919901371,0.024450289085507393,-0.9071686863899231,0.6447221636772156,0.09410256892442703
11878,-0.005046996288001537,0.024626079946756363,0.02447897382080555,-0.9059236645698547,0.6442915201187134,0.09448054432868958
11888,-0.005194107070565224,0.025078479200601578,0.02450735494494438,-0.9052836894989014,0.6416870951652527,0.0933510810136795
11898,-0.0062843444757163525,0.02519308030605316,0.0245314110070467,-0.8871656656265259,0.6882268190383911,0.09081251919269562
11908,-0.006181700620800257,0.025226060301065445,0.02343696728348732,-0.8691633939743042,0.6714503169059753,0.09135997295379639
11918,-0.005005470011383295,0.02342773973941803,0.023483747616410255,-0.7575393319129944,0.6031603217124939,0.09181239455938339
11928,-0.005243298131972551,0.02332945726811886,0.023461947217583656,-0.7373782992362976,0.6069599390029907,0.09080319106578827
11938,-0.005204344633966684,0.024056216701865196,0.023433363065123558,-0.75934237241745,0.5973450541496277,0.0905548557639122
11948,-0.005320330150425434,0.0243703443557024,0.02365921437740326,-0.7581755518913269,0.5952453017234802,0.09104824811220169
11958,-0.0027187573723495007,0.018595946952700615,0.023769238963723183,-0.4619217813014984,0.4621732234954834,0.09027612954378128
11968,-0.0026796867605298758,0.01856391504406929,0.0237733107060194,-0.46093785762786865,0.4618298411369324,0.09009820222854614
11978,-0.002638351172208786,0.018527241423726082,0.023778395727276802,-0.458570271730423,0.46043428778648376,0.0917818695306778
11988,-0.0010550793958827853,0.018564466387033463,0.02376728132367134,-0.46168720722198486,0.3825910985469818,0.09396440535783768
11998,-0.003557075746357441,0.02012072689831257,0.02436969429254532,-0.5347080826759338,0.5069284439086914,0.09257542341947556
12008,-0.0035607307218015194,0.020157886669039726,0.024404171854257584,-0.5335741639137268,0.504584014415741,0.0936754122376442
12018,-0.003562076250091195,0.02019178681075573,0.024436261504888535,-0.5309966802597046,0.5061192512512207,0.09469430893659592
12028,-0.004219014197587967,0.019171282649040222,0.0244615338742733,-0.4816640019416809,0.5335798859596252,0.09326666593551636
12038,-0.0032173541840165854,0.019180793315172195,0.024285966530442238,-0.4816755950450897,0.48397037386894226,0.09529832005500793
12048,-0.004167244303971529,0.01792316511273384,0.024298472329974174,-0.4246605932712555,0.5270720720291138,0.09225621074438095
12058,-0.004196349065750837,0.017829161137342453,0.024319687858223915,-0.42292553186416626,0.5232950448989868,0.09333446621894836
12068,-0.0038592678029090166,0.018858332186937332,0.024362431839108467,-0.4734424948692322,0.5062859058380127,0.09525109082460403
12078,-0.004492268431931734,0.018881890922784805,0.024388354271650314,-0.47408127784729004,0.5353130102157593,0.09536972641944885
12088,-0.00452971737831831,0.018834959715604782,0.024250909686088562,-0.4732256829738617,0.5340861082077026,0.09518164396286011
12098,-0.0012103298213332891,0.01589900627732277,0.0242609903216362,-0.34304267168045044,0.38321325182914734,0.09661094844341278
12108,-0.001284258789382875,0.016969826072454453,0.02431122213602066,-0.3993224799633026,0.3914927542209625,0.09812542051076889
12119,-0.001668385579250753,0.017354309558868408,0.02434687130153179,-0.4211558401584625,0.41452619433403015,0.09683571755886078
12129,-0.0014049748424440622,0.01739765703678131,0.024215860292315483,-0.4251917004585266,0.40748560428619385,0.09748630225658417
12139,-0.0014726340305060148,0.025615021586418152,0.024301692843437195,-0.7912827730178833,0.4123474061489105,0.10075559467077255
12148,-0.0015182471834123135,0.025777369737625122,0.024318993091583252,-0.7840795516967773,0.4182354509830475,0.10014251619577408
12158,-0.0003915328998118639,0.02594583109021187,0.024324046447873116,-0.777540385723114,0.37172073125839233,0.1009564995765686
12168,-0.001308925449848175,0.0258317943662405,0.024372005835175514,-0.7582041025161743,0.41940125823020935,0.10075215995311737
12178,-0.0004923499072901905,0.024321090430021286,0.024272046983242035,-0.6778699159622192,0.3867541253566742,0.10208386182785034
12188,-0.0030444711446762085,0.025370238348841667,0.024299435317516327,-0.715380847454071,0.5049400925636292,0.10064450651407242
12198,-0.003042543074116111,0.02559397555887699,0.02431061491370201,-0.714465856552124,0.5055316686630249,0.10056260228157043
12208,-0.0007328832871280611,0.026657279580831528,0.024313220754265785,-0.7481725215911865,0.4008702337741852,0.10207076370716095
12218,-0.0019056835444644094,0.02597835101187229,0.024223774671554565,-0.7030909657478333,0.45494264364242554,0.10204316675662994
12228,-0.0030341583769768476,0.025057846680283546,0.024255577474832535,-0.6505550742149353,0.5063086748123169,0.1004866287112236
12238,-0.0016628496814519167,0.026105443015694618,0.024260779842734337,-0.6872958540916443,0.4449576139450073,0.1016746535897255
12248,-0.0005982330185361207,0.025496937334537506,0.02427956648170948,-0.6494304537773132,0.39998072385787964,0.10169044882059097
12258,-0.00046893616672605276,0.025657759979367256,0.02428680658340454,-0.6476355791091919,0.3972335457801819,0.10151135176420212
12268,-0.0030228528194129467,0.019407426938414574,0.02383999340236187,-0.3667992949485779,0.5129448175430298,0.10070884972810745
12278,-0.0041152299381792545,0.016978943720459938,0.023740747943520546,-0.26732924580574036,0.5590810775756836,0.10059286653995514
12288,-0.004089529626071453,0.01680665649473667,0.023727837949991226,-0.27323058247566223,0.5540217757225037,0.10112235695123672
12298,-0.004339802078902721,0.018236074596643448,0.02380271442234516,-0.3489237427711487,0.5606001019477844,0.10155528783798218
12308,0.004124510567635298,0.01567540131509304,0.02391151525080204,-0.24558450281620026,0.1875823438167572,0.10157793015241623
12318,0.0029966160655021667,0.015761423856019974,0.023998821154236794,-0.2656444311141968,0.2525801360607147,0.10161006450653076
12328,-0.0024648464750498533,0.014286361634731293,0.02419118769466877,-0.21481634676456451,0.5061924457550049,0.1037731021642685
12338,-0.0017009824514389038,0.014373253099620342,0.024239476770162582,-0.2359834760427475,0.4701840579509735,0.10433638840913773
12348,-0.0016633154591545463,0.013965285383164883,0.02425263449549675,-0.23568223416805267,0.4681748151779175,0.10557224601507187
12358,-0.0016829166561365128,0.0193538386374712,0.026181749999523163,-0.49237704277038574,0.46922042965888977,0.10487573593854904
12368,-0.0016462111379951239,0.019272731617093086,0.02631312794983387,-0.49137014150619507,0.46826791763305664,0.10475986450910568
12378,-0.002763646189123392,0.019301122054457664,0.02644592709839344,-0.4967111349105835,0.5172823071479797,0.10609596222639084
12388,-0.0019403736805543303,0.019318731501698494,0.026586344465613365,-0.49830833077430725,0.4790869951248169,0.10682351887226105
12398,-0.003012186149135232,0.019885888323187828,0.02513299137353897,-0.524340808391571,0.5260311961174011,0.1087828129529953
12408,-0.010107292793691158,0.02250884287059307,0.025098204612731934,-0.6400165557861328,0.8382496237754822,0.11296579986810684
12418,-0.010261768475174904,0.02247881144285202,0.025151725858449936,-0.632023811340332,0.8245168924331665,0.11181475967168808
12428,-0.010418620891869068,0.021687261760234833,0.02522897534072399,-0.5917121171951294,0.8124491572380066,0.11198070645332336
12438,-0.009805921465158463,0.02345259301364422,0.024287356063723564,-0.6669091582298279,0.7654340267181396,0.11259684711694717
12448,-0.008985850028693676,0.02466999553143978,0.024284297600388527,-0.7126500010490417,0.712502658367157,0.11250311136245728
12458,-0.009280617348849773,0.02487874962389469,0.024258950725197792,-0.7118470668792725,0.7132284045219421,0.11303234100341797
12468,-0.008941607549786568,0.025872858241200447,0.02422855980694294,-0.7463878393173218,0.6835801005363464,0.1120106652379036
12478,-0.008099861443042755,0.02452341467142105,0.024322591722011566,-0.6730719208717346,0.6305882930755615,0.11088715493679047
12488,-0.006524589378386736,0.030090974643826485,0.02408001944422722,-0.9203999638557434,0.5459753274917603,0.11206326633691788
12498,-0.009271224960684776,0.033758897334337234,0.023825054988265038,-1.067621111869812,0.6659649014472961,0.11524781584739685
12508,-0.00848226435482502,0.03338572382926941,0.023910891264677048,-1.0168852806091309,0.617857813835144,0.11441249400377274
12518,-0.00918487086892128,0.03474510461091995,0.023783326148986816,-1.052660346031189,0.6404907703399658,0.11539369076490402
12528,-0.009149706922471523,0.032926902174949646,0.024024834856390953,-0.9330008029937744,0.6281809210777283,0.11288049072027206
12538,-0.009355631656944752,0.033445876091718674,0.02399716153740883,-0.9321601390838623,0.6268396377563477,0.11174464970827103
12548,-0.00981886126101017,0.033835578709840775,0.023972051218152046,-0.9234136939048767,0.6377156972885132,0.11207578331232071
12558,-0.009488007985055447,0.03314787149429321,0.024045011028647423,-0.8595820069313049,0.6088014245033264,0.11129327118396759
12568,-0.008963525295257568,0.033798448741436005,0.024027448147535324,-0.8668396472930908,0.5716444849967957,0.11148296296596527
12578,-0.007959248498082161,0.03276551514863968,0.023623455315828323,-0.7919527292251587,0.5158100724220276,0.1103188768029213
12588,-0.008045665919780731,0.03315097838640213,0.023583725094795227,-0.7904322147369385,0.5149996876716614,0.1107400506734848
12598,-0.007766341790556908,0.032802313566207886,0.023572666570544243,-0.7544026374816895,0.49632537364959717,0.11140589416027069
12608,-0.007753278594464064,0.03196132555603981,0.023576868698000908,-0.6948954463005066,0.4921424686908722,0.11174881458282471
12618,-0.0027413680218160152,0.026689661666750908,0.024220135062932968,-0.42062118649482727,0.24529118835926056,0.11158808320760727
12628,-0.002515849657356739,0.02667105570435524,0.024226604029536247,-0.4201028347015381,0.2434503436088562,0.112460196018219
12638,0.001109750708565116,0.02222283184528351,0.02398180589079857,-0.20397664606571198,0.07780634611845016,0.11323611438274384
12648,-3.327801823616028e-05,0.023587288334965706,0.024196429178118706,-0.28161731362342834,0.15296581387519836,0.11335676163434982
12658,0.0019286555470898747,0.02285926602780819,0.024064114317297935,-0.25538256764411926,0.07435464859008789,0.11411526054143906
12668,0.0023152369540184736,0.03301044553518295,0.02484426647424698,-0.7572978138923645,0.0753055140376091,0.11263611167669296
12678,0.002763921394944191,0.03334799408912659,0.024876296520233154,-0.7551705241203308,0.07392214983701706,0.11210845410823822
12688,0.0029210741631686687,0.03249411657452583,0.02497909963130951,-0.6980044841766357,0.08727287501096725,0.11403270810842514
12698,0.0033700414933264256,0.03276827931404114,0.02501682937145233,-0.6971972584724426,0.08713454008102417,0.11389243602752686
12708,0.004049532115459442,0.03351939842104912,0.025429408997297287,-0.7185935378074646,0.07621053606271744,0.1138107180595398
12718,0.004526299424469471,0.033818602561950684,0.025485480204224586,-0.7170590162277222,0.0754624754190445,0.1149558424949646
12728,0.004633820615708828,0.03398922458291054,0.025563322007656097,-0.708548903465271,0.09370176494121552,0.115691177546978
12738,0.00559807987883687,0.0336119569838047,0.025614075362682343,-0.6753427386283875,0.06931199133396149,0.11625516414642334
12748,0.0054416051134467125,0.03325596824288368,0.025731856003403664,-0.6457511782646179,0.09811252355575562,0.11671148985624313
12758,0.009603001177310944,0.03477593511343002,0.024489354342222214,-0.707095205783844,-0.0770467072725296,0.11599394679069519
12768,0.008617403917014599,0.035218965262174606,0.02459155023097992,-0.7118110656738281,0.0015276517951861024,0.11448369175195694
12778,0.009509775787591934,0.03487623110413551,0.02458864077925682,-0.6781818270683289,-0.012827658094465733,0.11562028527259827
12788,0.009353133849799633,0.03584975376725197,0.024622343480587006,-0.7105680108070374,0.02426900528371334,0.11554580926895142
12798,0.00894295983016491,0.035752661526203156,0.02401014417409897,-0.6906870603561401,0.06961411982774734,0.11740878224372864
12808,0.012868584133684635,0.029402798041701317,0.0239773727953434,-0.3819643557071686,-0.08643162250518799,0.1269967257976532
12818,0.013627282343804836,0.029294811189174652,0.02394230291247368,-0.37981629371643066,-0.08703324943780899,0.12844635546207428
12828,0.012645935639739037,0.029589315876364708,0.024082845076918602,-0.39754676818847656,-0.005876221228390932,0.12910199165344238
12838,0.014783548191189766,0.028815779834985733,0.023534148931503296,-0.3666914403438568,-0.07363380491733551,0.12901195883750916
12848,0.015556160360574722,0.028673600405454636,0.023479383438825607,-0.3648315668106079,-0.07357580959796906,0.12852142751216888
12858,0.016339566558599472,0.028525743633508682,0.023423761129379272,-0.3644818365573883,-0.07495249807834625,0.12912485003471375
12868,0.014902501367032528,0.0291494969278574,0.023579498752951622,-0.3995376229286194,0.02666548080742359,0.12822586297988892
12878,0.015517791733145714,0.029468422755599022,0.023553218692541122,-0.41774508357048035,0.028109367936849594,0.12831851840019226
12888,0.010156111791729927,0.022890157997608185,0.02524387091398239,-0.12490218132734299,0.3029962182044983,0.14102889597415924
12898,0.012508967891335487,0.025474485009908676,0.025482354685664177,-0.2599629759788513,0.21047623455524445,0.1352892965078354
12908,0.013986900448799133,0.029552167281508446,0.025710659101605415,-0.45455658435821533,0.16213230788707733,0.12780416011810303
12918,0.014122374355793,0.027730649337172508,0.025810087099671364,-0.37421396374702454,0.18014320731163025,0.13268209993839264
12928,0.013978948816657066,0.028800878673791885,0.02553918957710266,-0.4273134768009186,0.20751768350601196,0.13151560723781586
12938,0.010575405322015285,0.025000665336847305,0.02570364810526371,-0.26064443588256836,0.3798241913318634,0.13936497271060944
12948,0.00926283746957779,0.025310669094324112,0.02580849826335907,-0.289031982421875,0.4505460262298584,0.13976231217384338
12958,0.010478389449417591,0.025118684396147728,0.025897564366459846,-0.29103729128837585,0.40170812606811523,0.13852499425411224
12968,0.008963743224740028,0.026386061683297157,0.02605179138481617,-0.36078745126724243,0.479938805103302,0.13775284588336945
12978,0.01008603721857071,0.024257788434624672,0.024284446612000465,-0.27169516682624817,0.4306669533252716,0.13942159712314606
12988,0.010060425847768784,0.024780884385108948,0.024289531633257866,-0.30913230776786804,0.43992796540260315,0.1387081742286682
12998,0.010239827446639538,0.02449561096727848,0.02426503784954548,-0.30818241834640503,0.43741747736930847,0.13835103809833527
13008,0.011215513572096825,0.025059785693883896,0.02426726184785366,-0.34670382738113403,0.3997117877006531,0.13664200901985168
13018,0.017887964844703674,0.019917797297239304,0.023503471165895462,-0.12073785811662674,0.10281717777252197,0.13362225890159607
13028,0.018508005887269974,0.01937166042625904,0.023429706692695618,-0.11986510455608368,0.10102200508117676,0.13377004861831665
13038,0.01758037693798542,0.018206560984253883,0.02343892678618431,-0.09205981343984604,0.17118535935878754,0.1372993141412735
13048,0.018739046528935432,0.01936468668282032,0.023483412340283394,-0.1726057380437851,0.14178882539272308,0.13609246909618378
13058,0.017614668235182762,0.019460411742329597,0.023792345076799393,-0.2006242424249649,0.21921135485172272,0.1390477418899536
13068,0.018114807084202766,0.018973201513290405,0.02375791221857071,-0.19908520579338074,0.2170969396829605,0.1393665373325348
13078,0.017451060935854912,0.017777500674128532,0.023747572675347328,-0.16367202997207642,0.27238962054252625,0.1434902548789978
13088,0.017867371439933777,0.018428903073072433,0.023795871064066887,-0.21975170075893402,0.2721506953239441,0.14133740961551666
13098,0.01750822365283966,0.018280979245901108,0.023836394771933556,-0.23220667243003845,0.3090512156486511,0.14227625727653503
13108,0.017922567203640938,0.017802555114030838,0.023891203105449677,-0.22987067699432373,0.308798611164093,0.1436418741941452
13118,0.018339641392230988,0.017319049686193466,0.023878250271081924,-0.22671230137348175,0.3089894652366638,0.1440214216709137
13128,0.017905358225107193,0.017502984032034874,0.023938868194818497,-0.2606821358203888,0.34870174527168274,0.1450333297252655
13138,0.01782263070344925,0.018432892858982086,0.024020636454224586,-0.32652127742767334,0.3713657557964325,0.14430610835552216
13148,0.018181338906288147,0.018040040507912636,0.024013321846723557,-0.32621532678604126,0.3695399761199951,0.1449410319328308
13158,0.017464125528931618,0.01934386044740677,0.024088064208626747,-0.4048498868942261,0.4190980792045593,0.14651811122894287
13168,0.01706842891871929,0.01944790594279766,0.024117572233080864,-0.4224604666233063,0.45254388451576233,0.1482791006565094
13178,0.01697155088186264,0.020931676030158997,0.0241654384881258,-0.5042608976364136,0.46924933791160583,0.14720182120800018
13188,0.016902420669794083,0.019904104992747307,0.024174697697162628,-0.4644589126110077,0.48288607597351074,0.14792197942733765
13199,0.021702732890844345,0.014869842678308487,0.024009328335523605,-0.24065595865249634,0.27142637968063354,0.14360103011131287
13208,0.02218923531472683,0.014355260878801346,0.024003323167562485,-0.23982279002666473,0.2707146406173706,0.14521045982837677
13219,0.022577786818146706,0.014536689035594463,0.024038203060626984,-0.27236777544021606,0.2756897211074829,0.1467294543981552
13228,0.0210597962141037,0.01494876854121685,0.024187492206692696,-0.31296685338020325,0.3663285970687866,0.1488894671201706
13238,0.023094771429896355,0.014275044202804565,0.02406948246061802,-0.30207934975624084,0.2910304069519043,0.14704486727714539
13249,0.022169170901179314,0.011475869454443455,0.024043314158916473,-0.19453993439674377,0.35551416873931885,0.14974984526634216
13258,0.022578272968530655,0.010877826251089573,0.02404463291168213,-0.19378747045993805,0.3530721962451935,0.14918290078639984
13268,0.02244596928358078,0.011347954161465168,0.024133209139108658,-0.2420356571674347,0.37694209814071655,0.14958181977272034
13278,0.02233288250863552,0.012326785363256931,0.0242532417178154,-0.3116193115711212,0.3992900252342224,0.1518014818429947
13288,0.022683756425976753,0.011864909902215004,0.023752279579639435,-0.3090910017490387,0.3970714211463928,0.15253645181655884
13298,0.02305048145353794,0.011375293135643005,0.02374405786395073,-0.3067401349544525,0.395401269197464,0.15328173339366913
13308,0.022580290213227272,0.011588419787585735,0.023790234699845314,-0.33871331810951233,0.4336642026901245,0.15438896417617798
13318,0.023613110184669495,0.01265069842338562,0.023834366351366043,-0.40522056818008423,0.4009317457675934,0.15359801054000854
13328,0.021779056638479233,0.013048199936747551,0.02478550374507904,-0.4411201477050781,0.49854856729507446,0.15695804357528687
13338,0.022277506068348885,0.006452943664044142,0.02472287230193615,-0.1631784737110138,0.4862571060657501,0.15643110871315002
13348,0.022540096193552017,0.005749816540628672,0.024769915267825127,-0.1626655012369156,0.48472845554351807,0.1568857729434967
13358,0.022431770339608192,0.004871543496847153,0.024811552837491035,-0.1552184373140335,0.5026036500930786,0.15646608173847198
13368,0.022630345076322556,0.00399643462151289,0.024847427383065224,-0.14689815044403076,0.5031203031539917,0.15734927356243134
13378,0.022864069789648056,0.0032634567469358444,0.024521971121430397,-0.14499962329864502,0.5010388493537903,0.1567339450120926
13388,0.023106899112462997,0.0025063208304345608,0.024548141285777092,-0.14383447170257568,0.4991441071033478,0.1566178947687149
13398,0.02360544353723526,0.00257497257553041,0.024632250890135765,-0.17878618836402893,0.48637476563453674,0.15627583861351013
13408,0.023482149466872215,0.001997333951294422,0.024680372327566147,-0.18476015329360962,0.5021510124206543,0.15794552862644196
13418,0.02372550219297409,0.0012631304562091827,0.02484780363738537,-0.18320268392562866,0.4994511008262634,0.1572490930557251
13428,0.0239701010286808,0.0005256305448710918,0.024885430932044983,-0.1809009313583374,0.4978640377521515,0.1581379622220993
13438,0.023817017674446106,0.0019585161935538054,0.025076434016227722,-0.2737463414669037,0.514717161655426,0.16090074181556702
13448,0.02401287853717804,0.0010118173668161035,0.025108490139245987,-0.26012903451919556,0.5142081379890442,0.16033793985843658
13458,0.023569919168949127,0.001412066980265081,0.023819945752620697,-0.30016571283340454,0.5401412844657898,0.16173410415649414
13468,0.030176917091012,-0.004666180815547705,0.023510469123721123,-0.07159875333309174,0.27198103070259094,0.15212398767471313
13478,0.03023870289325714,-0.003091047517955303,0.02369127795100212,-0.17581164836883545,0.29040539264678955,0.15349043905735016
13488,0.030034944415092468,-0.003948995377868414,0.023690298199653625,-0.169840008020401,0.31949105858802795,0.15504354238510132
13498,0.029287299141287804,-0.004802669398486614,0.02372322976589203,-0.16555555164813995,0.3705788254737854,0.15613053739070892
13508,0.0352802611887455,-0.00754948053508997,0.023071259260177612,-0.08393573760986328,0.13677194714546204,0.14888858795166016
13518,0.032306402921676636,-0.00183099287096411,0.023838523775339127,-0.36449483036994934,0.29382628202438354,0.1562182605266571
13528,0.03214847669005394,-0.0024701179936528206,0.023862164467573166,-0.36025333404541016,0.32202738523483276,0.1573653519153595
13538,0.03200951963663101,-0.0015311127062886953,0.023959213867783546,-0.4229274392127991,0.3486630320549011,0.15904289484024048
13548,0.030112896114587784,-0.00667272973805666,0.02484133653342724,-0.2235829085111618,0.44948822259902954,0.16093209385871887
13558,0.03003362938761711,-0.00624138442799449,0.024980343878269196,-0.2746029198169708,0.46665310859680176,0.1621527522802353
13568,0.029711447656154633,-0.006093960255384445,0.02510843612253666,-0.30992913246154785,0.4933057427406311,0.16316233575344086
13578,0.029656510800123215,-0.006707060616463423,0.025181898847222328,-0.3092775344848633,0.5081217885017395,0.16382642090320587
13588,0.029934871941804886,-0.007372039370238781,0.02524520456790924,-0.30874061584472656,0.5066309571266174,0.16422441601753235
13598,0.030197180807590485,-0.008011925965547562,0.024722231552004814,-0.30608832836151123,0.5050685405731201,0.16416308283805847
13608,0.02901097573339939,-0.007525204215198755,0.024841362610459328,-0.3577580451965332,0.5687690377235413,0.16698914766311646
13618,0.03030453436076641,-0.007877799682319164,0.02488063834607601,-0.37051188945770264,0.518804132938385,0.16517309844493866
13628,0.029959432780742645,-0.007703746203333139,0.024976424872875214,-0.40617984533309937,0.5467157363891602,0.16578596830368042
13638,0.026720775291323662,-0.002015909645706415,0.024402711540460587,-0.6884646415710449,0.7026737928390503,0.1732596457004547
13648,0.026765359565615654,-0.002255604136735201,0.024415820837020874,-0.6863338947296143,0.7022417783737183,0.17220324277877808
13658,0.02680717222392559,-0.0024963708128780127,0.02442999556660652,-0.683563232421875,0.7004328370094299,0.172451913356781
13668,0.026789704337716103,-0.0035549202002584934,0.024442529305815697,-0.6446563601493835,0.7037609815597534,0.1719212681055069
13678,0.02067474089562893,-0.0025921964552253485,0.024659596383571625,-0.7011455297470093,0.985015332698822,0.1764875203371048
13688,0.020219245925545692,-0.0039009712636470795,0.024674396961927414,-0.6509766578674316,0.9919354915618896,0.17656905949115753
13698,0.02058497443795204,-0.0049057346768677235,0.024724014103412628,-0.6164609789848328,0.9602214694023132,0.17472748458385468
13708,0.02011498436331749,-0.001060002134181559,0.024830996990203857,-0.8068886995315552,0.9646387696266174,0.1823592483997345
13718,0.02019539847970009,-0.0026253836695104837,0.02490455098450184,-0.7383772134780884,0.9463352560997009,0.18034230172634125
13728,0.019902843981981277,-0.002812592312693596,0.025424186140298843,-0.7358558773994446,0.9436440467834473,0.1808641403913498
13738,0.02106454037129879,0.00301084341481328,0.025555694475769997,-1.012761116027832,0.8724730014801025,0.1904039978981018
13748,0.02192757837474346,0.002701973542571068,0.025669636204838753,-0.9872153997421265,0.8187419772148132,0.19122770428657532
13758,0.021974505856633186,0.0023977328091859818,0.025757841765880585,-0.9641422033309937,0.8073694109916687,0.1902521401643753
13768,0.01993999443948269,0.0065740859135985374,0.024546219035983086,-1.1520270109176636,0.893794596195221,0.19799722731113434
13778,0.019675811752676964,0.006906673777848482,0.0245475172996521,-1.1507439613342285,0.8915712833404541,0.19850702583789825
13788,0.018404897302389145,0.008157610893249512,0.024464227259159088,-1.1907814741134644,0.935331404209137,0.19828125834465027
13798,0.020621465519070625,0.006715685594826937,0.02470150589942932,-1.1022803783416748,0.8145775198936462,0.19760321080684662
13808,0.018583130091428757,0.00664334325119853,0.024691609665751457,-1.0830332040786743,0.8987958431243896,0.1949903964996338
13818,0.018277600407600403,0.006939527578651905,0.024836616590619087,-1.0807960033416748,0.8981094360351562,0.19426864385604858
13828,0.017972785979509354,0.007238844875246286,0.02485329657793045,-1.0781718492507935,0.897311270236969,0.19424863159656525
13838,0.018091918900609016,0.007701420225203037,0.02487688884139061,-1.0839470624923706,0.8757051229476929,0.19635243713855743
13848,0.018189461901783943,0.006171966902911663,0.024990856647491455,-0.9954699277877808,0.8591315150260925,0.19264820218086243
13858,0.017181837931275368,0.007471495307981968,0.024563578888773918,-1.0457628965377808,0.8923681974411011,0.19442933797836304
13868,0.016862589865922928,0.007758722640573978,0.024560239166021347,-1.0425466299057007,0.8918696641921997,0.19480548799037933
13878,0.016538161784410477,0.008050774224102497,0.024557821452617645,-1.0420472621917725,0.890222430229187,0.19575168192386627
13888,0.017884738743305206,0.007616443559527397,0.024642622098326683,-1.0064841508865356,0.8147980570793152,0.19641362130641937
13898,0.016522778198122978,0.001881814794614911,0.024813557043671608,-0.7351971864700317,0.8658414483070374,0.17976099252700806
13908,0.016955535858869553,-0.004752891603857279,0.024826228618621826,-0.43971920013427734,0.8310505747795105,0.16686005890369415
13918,0.016687193885445595,-0.005195152014493942,0.024833237752318382,-0.4375879764556885,0.8308502435684204,0.16651281714439392
13928,0.016801510006189346,-0.004102353006601334,0.02495131641626358,-0.5043754577636719,0.811662495136261,0.17120687663555145
13938,0.016547545790672302,-0.004467087332159281,0.02496671862900257,-0.5022211074829102,0.8100405931472778,0.17135091125965118
13948,0.01507448498159647,0.002832395490258932,0.025685345754027367,-0.8325122594833374,0.8602034449577332,0.1873183399438858
13958,0.014743058010935783,0.002897331491112709,0.02574116922914982,-0.8309490084648132,0.8581477403640747,0.188346728682518
13968,0.014920688234269619,0.0031776237301528454,0.025811821222305298,-0.8384467363357544,0.8332646489143372,0.1905824989080429
13978,0.01506706140935421,0.0034484160132706165,0.025882475078105927,-0.8440791964530945,0.81314617395401,0.19199487566947937
13988,0.0161249041557312,0.003095823572948575,0.025564290583133698,-0.8240247368812561,0.7566665410995483,0.19245319068431854
13998,0.024150554090738297,-0.0033640507608652115,0.025748547166585922,-0.5436251759529114,0.4067292809486389,0.19222822785377502
14008,0.02317805401980877,-0.003246948355808854,0.025869950652122498,-0.5605595707893372,0.4598544239997864,0.18965400755405426
14018,0.02396089769899845,-0.003142445581033826,0.025916436687111855,-0.5757846832275391,0.4335436224937439,0.19165655970573425
14028,0.021406125277280807,-0.005559686105698347,0.026018042117357254,-0.48248064517974854,0.5512655377388,0.1841130256652832
14038,0.022744588553905487,-0.0027206900995224714,0.025737781077623367,-0.6197383999824524,0.4952167570590973,0.19128412008285522
14048,0.024039532989263535,-0.003991910722106695,0.025733865797519684,-0.5740538239479065,0.4461420178413391,0.1900353729724884
14058,0.023984646424651146,-0.0028682188130915165,0.02582656219601631,-0.633411705493927,0.4553002119064331,0.19205111265182495
14068,0.02394235134124756,-0.003854642389342189,0.025861825793981552,-0.5972779989242554,0.4651812016963959,0.19146008789539337
14078,0.0185566209256649,-0.0002627295325510204,0.025270061567425728,-0.7634185552597046,0.7055701017379761,0.1915806382894516
14088,0.01842106692492962,-0.0002796875487547368,0.02527277171611786,-0.7610743641853333,0.7054786086082458,0.19126881659030914
14098,0.018719077110290527,-1.2216521099617239e-05,0.025284258648753166,-0.7732513546943665,0.6852744221687317,0.1923907995223999
14108,0.019276397302746773,-0.0002655022544786334,0.02530687302350998,-0.7618460059165955,0.6534608602523804,0.19241385161876678
14118,0.019569458439946175,-0.0005255008582025766,0.023849274963140488,-0.7507226467132568,0.6365401148796082,0.19249704480171204
14128,0.018833966925740242,-0.0012821636628359556,0.023755671456456184,-0.717070996761322,0.6646668910980225,0.19218797981739044
14138,0.01885138265788555,-1.7388065316481516e-05,0.02367057278752327,-0.7750255465507507,0.6584524512290955,0.19341228902339935
14148,0.019121548160910606,-0.0012490019435063004,0.0235978364944458,-0.7168506979942322,0.6408637166023254,0.19128774106502533
14158,0.01962188631296158,-1.919179157994222e-05,0.023521453142166138,-0.776310920715332,0.6143524050712585,0.1933625340461731
14168,0.014791692607104778,0.001892311847768724,0.024964570999145508,-0.8641336560249329,0.834061324596405,0.19114825129508972
14178,0.014477032236754894,0.002012871438637376,0.024963628500699997,-0.8619092702865601,0.8319200873374939,0.19218599796295166
14188,0.014157913625240326,0.002136716153472662,0.02496340125799179,-0.8594015836715698,0.8300080895423889,0.1922907531261444
14198,0.013833890669047832,0.0022636677604168653,0.024964086711406708,-0.8601236343383789,0.8277775049209595,0.1927122175693512
14208,0.014789700508117676,-0.005104385316371918,0.024284727871418,-0.5074920058250427,0.7659718990325928,0.18598192930221558
14218,0.015699101611971855,-0.002250039018690586,0.024387795478105545,-0.6537910103797913,0.7076402306556702,0.19181868433952332
14228,0.016577456146478653,-0.0011248260270804167,0.024399222806096077,-0.7107580900192261,0.6550270915031433,0.19440019130706787
14239,0.017185399308800697,-0.0019358501303941011,0.02438448742032051,-0.6725364923477173,0.6184793710708618,0.1937219649553299
14248,0.01695503480732441,-0.0019165738485753536,0.024361256510019302,-0.675471305847168,0.6220883727073669,0.19439063966274261
14259,0.01685892976820469,-0.002002331428229809,0.023723287507891655,-0.6725689768791199,0.6219446659088135,0.19398723542690277
14268,0.017712265253067017,-0.001974658342078328,0.02367839217185974,-0.6757127642631531,0.5759168267250061,0.19584804773330688
14278,0.017527272924780846,-0.0018800641410052776,0.023678725585341454,-0.6804839968681335,0.5851593017578125,0.19580186903476715
14288,0.017748044803738594,-0.0019306641770526767,0.02357351966202259,-0.6811431050300598,0.5668346881866455,0.1974240243434906
14298,0.011915801092982292,-0.007037089206278324,0.024125490337610245,-0.4258359670639038,0.8596212863922119,0.18762211501598358
14308,0.011157318949699402,-0.007755188271403313,0.024074777960777283,-0.42199772596359253,0.8549745678901672,0.18812382221221924
14318,0.011880956590175629,-0.007305801846086979,0.024131715297698975,-0.4444141983985901,0.8185518383979797,0.18909625709056854
14328,0.012426359578967094,-0.007552269380539656,0.024172300472855568,-0.46073001623153687,0.7584048509597778,0.19030725955963135
14338,0.010923550464212894,-0.006181387696415186,0.024192048236727715,-0.5391489863395691,0.8154550790786743,0.19142155349254608
14348,0.010584250092506409,-0.006416968069970608,0.023657770827412605,-0.539731502532959,0.8149346113204956,0.19275574386119843
14358,0.010584250092506409,-0.006416968069970608,0.023657770827412605,-0.539731502532959,0.8149346113204956,0.19275574386119843
14369,0.01036917231976986,-0.007430395111441612,0.02358035370707512,-0.5129255056381226,0.7859114408493042,0.19360345602035522
14378,0.01048510242253542,-0.0053733037784695625,0.023631539195775986,-0.6198067665100098,0.7615172863006592,0.19667257368564606
14389,0.010148497298359871,-0.005527112632989883,0.024164842441678047,-0.618999719619751,0.7614218592643738,0.19594450294971466
14398,0.017257077619433403,-0.015594350174069405,0.024271737784147263,-0.15581941604614258,0.4158634841442108,0.18732059001922607
14408,0.016942698508501053,-0.015345052815973759,0.024353232234716415,-0.19787101447582245,0.4325351417064667,0.18690328299999237
14418,0.016934484243392944,-0.016517026349902153,0.02431377023458481,-0.17315512895584106,0.4337233603000641,0.18728476762771606
14428,0.011917386204004288,-0.014379951171576977,0.024617493152618408,-0.27792829275131226,0.6770023107528687,0.18988309800624847
14438,0.011485016904771328,-0.015494588762521744,0.023511214181780815,-0.2783002257347107,0.6730655431747437,0.1887487918138504
14448,0.012141071259975433,-0.015284706838428974,0.02353079803287983,-0.31323951482772827,0.6313578486442566,0.18986643850803375
14458,0.011643672361969948,-0.014001036062836647,0.023584699258208275,-0.39441075921058655,0.6426706314086914,0.19161070883274078
14468,0.011897241696715355,-0.014222938567399979,0.02358097955584526,-0.38373830914497375,0.6305574774742126,0.19129835069179535
14478,0.011528324335813522,-0.01516167912632227,0.02371046505868435,-0.3793696165084839,0.6251794695854187,0.19115354120731354
14488,0.011346613056957722,-0.015636486932635307,0.02369420789182186,-0.37893912196159363,0.6262454986572266,0.19098597764968872
14498,0.011165007017552853,-0.016115879639983177,0.023679092526435852,-0.3760198652744293,0.6253151893615723,0.19088952243328094
14508,0.011262059211730957,-0.01712811179459095,0.02364673838019371,-0.3529619872570038,0.6127063035964966,0.19041426479816437
14518,0.010299336165189743,-0.012368625029921532,0.02433128096163273,-0.5740110874176025,0.6562466621398926,0.19406579434871674
14528,0.009846922010183334,-0.012830698862671852,0.02439873106777668,-0.5695405006408691,0.656243622303009,0.19482377171516418
14538,0.009971280582249165,-0.01367004495114088,0.0244352538138628,-0.541217029094696,0.6389657855033875,0.19348077476024628
14548,0.008838241919875145,-0.013236192986369133,0.024460487067699432,-0.5696341395378113,0.6775310039520264,0.19466304779052734
14558,0.003832791233435273,-0.00622999994084239,0.024430111050605774,-0.8775771260261536,0.8758963942527771,0.20095381140708923
14568,0.0032857321202754974,-0.006056575104594231,0.024718152359128,-0.8752305507659912,0.8739667534828186,0.2013058215379715
14578,0.004789464641362429,-0.0067648254334926605,0.02491321787238121,-0.8363431096076965,0.7855998873710632,0.19965098798274994
14588,0.004986886866390705,-0.006521895527839661,0.024995431303977966,-0.839337170124054,0.75788414478302,0.20043720304965973
14598,0.004586365073919296,-0.006378759164363146,0.025054819881916046,-0.8378403186798096,0.7593806385993958,0.20087678730487823
14608,0.008549378253519535,-0.010807765647768974,0.024880720302462578,-0.6422136425971985,0.5763934850692749,0.19743382930755615
14618,0.007718299049884081,-0.011975686065852642,0.02491741254925728,-0.5962055921554565,0.6030950546264648,0.1964193880558014
14628,0.014022168703377247,-0.015139896422624588,0.024990737438201904,-0.46723711490631104,0.3307735025882721,0.19385433197021484
14638,0.01419929787516594,-0.015483295544981956,0.0250372476875782,-0.46603909134864807,0.3298190236091614,0.19245129823684692
14648,0.01394644845277071,-0.015286463312804699,0.025059400126338005,-0.4748138189315796,0.34100431203842163,0.19257117807865143
14658,0.014070501551032066,-0.021436961367726326,0.02494136430323124,-0.24029898643493652,0.34920254349708557,0.19259463250637054
14668,0.014231312088668346,-0.022092971950769424,0.02497282437980175,-0.23935668170452118,0.3466869592666626,0.19364456832408905
14678,0.014164062216877937,-0.023316677659749985,0.024964453652501106,-0.21505936980247498,0.35497793555259705,0.194284588098526
14688,0.014998653903603554,-0.02179950475692749,0.0251928698271513,-0.3097044825553894,0.3234102725982666,0.1939127892255783
14698,0.02018946409225464,-0.02123580127954483,0.0246365275233984,-0.35653868317604065,0.1134740486741066,0.1911705583333969
14708,0.019736023619771004,-0.02390521764755249,0.024596795439720154,-0.26444199681282043,0.15320101380348206,0.19230948388576508
14718,0.020173225551843643,-0.024561550468206406,0.024598948657512665,-0.2659173011779785,0.15304270386695862,0.19236980378627777
14728,0.01998397335410118,-0.02339848503470421,0.024790175259113312,-0.34413182735443115,0.1800583153963089,0.1914573758840561
14738,0.020403511822223663,-0.02398349717259407,0.025338031351566315,-0.34185275435447693,0.1804957091808319,0.19128072261810303
14748,0.022050272673368454,-0.029802344739437103,0.025079013779759407,-0.11527486890554428,0.12882842123508453,0.19494600594043732
14758,0.021843139082193375,-0.028534768149256706,0.025338787585496902,-0.20623208582401276,0.15665481984615326,0.19261112809181213
14768,0.023117322474718094,-0.029682312160730362,0.025301752611994743,-0.1874750703573227,0.12167596817016602,0.19215168058872223
14778,0.022929901257157326,-0.02882462926208973,0.02555435709655285,-0.2580626904964447,0.1521444469690323,0.19141070544719696
14788,0.022912580519914627,-0.02879323624074459,0.02488260716199875,-0.2580626904964447,0.1521444469690323,0.19141070544719696
14798,0.021622266620397568,-0.02715340070426464,0.025115318596363068,-0.36543115973472595,0.2313348352909088,0.19057178497314453
14808,0.022901859134435654,-0.027029547840356827,0.02515372447669506,-0.40005093812942505,0.19056671857833862,0.18795983493328094
14818,0.02335236966609955,-0.02758106216788292,0.02518368512392044,-0.39847853779792786,0.18966661393642426,0.18747729063034058
14828,0.021744897589087486,-0.027355944737792015,0.024808036163449287,-0.4322865605354309,0.2829993665218353,0.1884457767009735
14838,0.02466225065290928,-0.02411937154829502,0.024877144023776054,-0.6055118441581726,0.16087158024311066,0.1790025234222412
14848,0.025156371295452118,-0.024442190304398537,0.024889258667826653,-0.6054932475090027,0.1603958010673523,0.18019670248031616
14858,0.025244025513529778,-0.02317846566438675,0.0249441247433424,-0.6789295673370361,0.17888502776622772,0.1777074933052063
14868,0.02990357019007206,-0.020074881613254547,0.024785250425338745,-0.8349480032920837,0.014018595218658447,0.16649258136749268
14878,0.028734151273965836,-0.02109893225133419,0.02495906874537468,-0.787436306476593,0.06916213780641556,0.16954351961612701
14888,0.02936682663857937,-0.02120926044881344,0.02497624233365059,-0.7870076894760132,0.06872342526912689,0.16980019211769104
14898,0.028859436511993408,-0.022462451830506325,0.025131674483418465,-0.7383602857589722,0.14485187828540802,0.17264233529567719
14908,0.029796713963150978,-0.0215221606194973,0.025135956704616547,-0.7857467532157898,0.12758083641529083,0.17170166969299316
14918,0.029772955924272537,-0.02150910533964634,0.024685969576239586,-0.7857467532157898,0.12758083641529083,0.17170166969299316
14928,0.03398159146308899,-0.02452298253774643,0.024565596133470535,-0.6579763889312744,-0.007208799012005329,0.17409950494766235
14938,0.03368260711431503,-0.025895673781633377,0.02461523748934269,-0.6049025654792786,0.039928607642650604,0.1781572699546814
14948,0.033125072717666626,-0.024920418858528137,0.024731965735554695,-0.6602640748023987,0.09657063335180283,0.17620837688446045
14958,0.033125072717666626,-0.024920418858528137,0.024731965735554695,-0.6602640748023987,0.09657063335180283,0.17620837688446045
14968,0.04076121747493744,-0.03157305344939232,0.02366173081099987,-0.372511088848114,-0.2133653461933136,0.18939469754695892
14978,0.04180125147104263,-0.032152965664863586,0.02359120361506939,-0.3679424226284027,-0.21391764283180237,0.1882963627576828
14988,0.04285635054111481,-0.03273807838559151,0.023521356284618378,-0.3651430308818817,-0.21354253590106964,0.18861623108386993
14998,0.043925389647483826,-0.033328987658023834,0.02345128543674946,-0.3643288016319275,-0.21286709606647491,0.18862000107765198
15008,0.04508044943213463,-0.03393881022930145,0.0248124860227108,-0.3634330630302429,-0.2131005823612213,0.1884157359600067
15018,0.04618149995803833,-0.03454182669520378,0.024821845814585686,-0.36440950632095337,-0.21130217611789703,0.18777789175510406
15028,0.04729560390114784,-0.035149965435266495,0.024829018861055374,-0.4087291359901428,-0.07991763949394226,0.18711061775684357
15038,0.04743831977248192,-0.034226808696985245,0.025181114673614502,-0.4480060040950775,-0.13085821270942688,0.18513016402721405
15048,0.04313066601753235,-0.033756766468286514,0.025663509964942932,-0.4689173698425293,0.05785273388028145,0.18608464300632477
15058,0.04343552514910698,-0.037983112037181854,0.025426067411899567,-0.3326528072357178,0.10852501541376114,0.19480879604816437
15068,0.04343552514910698,-0.037983112037181854,0.025426067411899567,-0.3326528072357178,0.10852501541376114,0.19480879604816437
15078,0.042645059525966644,-0.036633431911468506,0.025768063962459564,-0.43477898836135864,0.19584272801876068,0.1912577599287033
15088,0.04510567709803581,-0.030789215117692947,0.026060357689857483,-0.6952712535858154,0.11848717927932739,0.1750992089509964
15098,0.044179223477840424,-0.029500687494874,0.02661779336631298,-0.7556906342506409,0.18899109959602356,0.17308907210826874
15108,0.044179223477840424,-0.029500687494874,0.02661779336631298,-0.7556906342506409,0.18899109959602356,0.17308907210826874
15118,0.044504404067993164,-0.028312478214502335,0.026869501918554306,-0.8097305297851562,0.2278638780117035,0.17059016227722168
15128,0.044504404067993164,-0.028312478214502335,0.026869501918554306,-0.8097305297851562,0.2278638780117035,0.17059016227722168
15139,0.043274570256471634,-0.027685189619660378,0.026632335036993027,-0.8348562121391296,0.30577483773231506,0.17003977298736572
15148,0.043241728097200394,-0.02923254668712616,0.026872577145695686,-0.7672411203384399,0.3489580452442169,0.1738647073507309
15158,0.04422691464424133,-0.02828492783010006,0.026950208470225334,-0.8080434799194336,0.32904741168022156,0.17219392955303192
15168,0.044019732624292374,-0.029459943994879723,0.027085673063993454,-0.7587409019470215,0.3565997779369354,0.1742745190858841
15178,0.044019732624292374,-0.029459943994879723,0.027085673063993454,-0.7587409019470215,0.3565997779369354,0.1742745190858841
15188,0.0446653813123703,-0.029426030814647675,0.02665795385837555,-0.7620398998260498,0.3495449423789978,0.17396479845046997
15199,0.051043324172496796,-0.03490019217133522,0.02679913118481636,-0.5500645637512207,0.14214573800563812,0.18185308575630188
15209,0.05162496119737625,-0.03479241952300072,0.02689431980252266,-0.5685884952545166,0.14800824224948883,0.18064725399017334
15218,0.05162496119737625,-0.03479241952300072,0.02689431980252266,-0.5685884952545166,0.14800824224948883,0.18064725399017334
15229,0.04983166605234146,-0.03146727383136749,0.026410862803459167,-0.7375496625900269,0.285430908203125,0.1742817610502243
15238,0.04983166605234146,-0.03146727383136749,0.026410862803459167,-0.7375496625900269,0.285430908203125,0.1742817610502243
15248,0.05043181777000427,-0.03158154338598251,0.026442863047122955,-0.7352940440177917,0.28201860189437866,0.17457892000675201
15258,0.05105412006378174,-0.03181074559688568,0.026474658399820328,-0.7333548665046692,0.28253623843193054,0.17358224093914032
15269,0.046839579939842224,-0.025931062176823616,0.02686605043709278,-1.0100104808807373,0.5040152072906494,0.16509932279586792
15279,0.04594676196575165,-0.024406054988503456,0.026999032124876976,-1.0516189336776733,0.5700181722640991,0.16504210233688354
15288,0.04594676196575165,-0.024406054988503456,0.026999032124876976,-1.0516189336776733,0.5700181722640991,0.16504210233688354
15299,0.044379476457834244,-0.023649044334888458,0.027129456400871277,-1.0538276433944702,0.6591228246688843,0.1638297289609909
15309,0.04686397686600685,-0.024587923660874367,0.027302976697683334,-0.9946215748786926,0.5531118512153625,0.1651775985956192
15318,0.04675498232245445,-0.024637823924422264,0.024211402982473373,-0.9946215748786926,0.5531118512153625,0.1651775985956192
15329,0.04604388400912285,-0.024487268179655075,0.02400483936071396,-0.9760168194770813,0.6025660037994385,0.16431556642055511
15339,0.04824751615524292,-0.025136245414614677,0.023912213742733,-0.9345220327377319,0.513679027557373,0.16625884175300598
15348,0.04824751615524292,-0.025136245414614677,0.023912213742733,-0.9345220327377319,0.513679027557373,0.16625884175300598
15359,0.04855711758136749,-0.024926191195845604,0.024283384904265404,-0.9324632287025452,0.5136094689369202,0.1656869351863861
15369,0.04885740205645561,-0.024724332615733147,0.02419266849756241,-0.9306026697158813,0.5114858150482178,0.16536930203437805
15379,0.048416197299957275,-0.02605288103222847,0.02415163815021515,-0.8555471301078796,0.5469184517860413,0.165899395942688
15389,0.04831751435995102,-0.02370510622859001,0.02403203584253788,-0.9583542346954346,0.5644339919090271,0.16610677540302277
15399,0.046739693731069565,-0.02089645154774189,0.02388788014650345,-1.0776002407073975,0.6484834551811218,0.16378583014011383
15409,0.04068458080291748,-0.021598588675260544,0.025200091302394867,-1.022560715675354,0.9404321312904358,0.15614289045333862
15418,0.04049083963036537,-0.02126164548099041,0.025188496336340904,-1.0218441486358643,0.938207745552063,0.1580560803413391
15429,0.04039473459124565,-0.02231287956237793,0.025246817618608475,-0.9383745789527893,0.9199614524841309,0.15673868358135223
15439,0.04067020118236542,-0.02095123939216137,0.025222143158316612,-1.0025355815887451,0.9068562388420105,0.1584067940711975
15448,0.04048307612538338,-0.020603269338607788,0.025530634447932243,-1.001688003540039,0.902855634689331,0.15936847031116486
15459,0.0404045470058918,-0.021678216755390167,0.0256238654255867,-0.9174090623855591,0.8853483200073242,0.15836337208747864
15469,0.0404885932803154,-0.022100908681750298,0.025665737688541412,-0.8867654800415039,0.8704922199249268,0.15855078399181366
15479,0.0404885932803154,-0.022100908681750298,0.025665737688541412,-0.8867654800415039,0.8704922199249268,0.15855078399181366
15489,0.04237351939082146,-0.02312534675002098,0.0258510522544384,-0.8198248744010925,0.7667650580406189,0.1619904339313507
15499,0.04099167883396149,-0.026614243164658546,0.02552621066570282,-0.6573370695114136,0.8254340291023254,0.15383711457252502
15509,0.04020092263817787,-0.026324672624468803,0.025533396750688553,-0.6703962683677673,0.8525353074073792,0.15344959497451782
15518,0.04020092263817787,-0.026324672624468803,0.025533396750688553,-0.6703962683677673,0.8525353074073792,0.15344959497451782
15528,0.040024127811193466,-0.026341134682297707,0.0255462396889925,-0.6680150628089905,0.8507190942764282,0.15262387692928314
