timestamp (ms),stateEstimate.x,stateEstimate.y,stateEstimate.z,stabilizer.roll,stabilizer.pitch,stabilizer.yaw
12826,0.0001819070166675374,-5.679817149939481e-06,-3.179156919941306e-06,0.0012509161606431007,-0.0014672941761091352,-0.0007897313334979117
12836,0.0005572374211624265,-0.001582250464707613,0.030060987919569016,107.3330078125,-5.721310138702393,7.773273944854736
12846,8.40035227156477e-07,-4.6699150857421046e-07,-5.820475053042173e-07,-3.090981408604421e-05,-0.00013604440027847886,-0.0008456512587144971
12856,9.639251402404625e-06,1.1461168469395489e-05,0.026808423921465874,-0.00041125004645437,-0.001131230965256691,-0.0010633942438289523
12866,-7.779004954500124e-05,0.00012107097427360713,0.372170090675354,-0.03497439622879028,0.03256945684552193,-0.002397958654910326
12876,-8.552178042009473e-05,0.00015978387091308832,0.030983256176114082,-0.03503507375717163,0.02268058992922306,-0.0025154256727546453
12886,0.00017079127428587526,-7.592068868689239e-05,0.03097566030919552,0.07378127425909042,-0.08046575635671616,-0.004168217536062002
12896,0.00024176482111215591,-0.00011815311154350638,0.030943311750888824,0.07433846592903137,-0.08063644170761108,-0.004215759690850973
12906,-2.523286093492061e-05,-0.00014942559937480837,0.030928848311305046,0.0658794566988945,0.05859364941716194,-0.005573200061917305
12916,-3.097464286838658e-06,-0.0002031397889368236,0.030880745500326157,0.06664786487817764,0.058980267494916916,-0.006232097744941711
12926,-0.000537419633474201,-0.0019908170215785503,0.02979995124042034,0.721238374710083,0.27461186051368713,-0.009391967207193375
12936,-0.0005564319435507059,-0.0015419460833072662,0.029808886349201202,0.42504310607910156,0.2611711323261261,-0.0091948127374053
12946,-0.0005711070261895657,-0.0021627526730298996,0.029691709205508232,0.5532171130180359,0.2528941035270691,-0.01041506975889206
12956,-0.0011432637693360448,-0.0022691714111715555,0.02960251085460186,0.4786839485168457,0.43529579043388367,-0.01093649584800005
12966,-0.0007159390370361507,-0.0023468586150556803,0.028448527678847313,0.4037516415119171,0.2623082101345062,-0.011795256286859512
12976,-0.000744870281778276,-0.0026391628198325634,0.028291186317801476,0.4036087095737457,0.26200729608535767,-0.012835728004574776
12986,-0.000740529503673315,-0.0028651070315390825,0.028130024671554565,0.3801192343235016,0.25182807445526123,-0.013542881235480309
12996,-0.0007398360758088529,-0.0019470833940431476,0.028019942343235016,0.03462863713502884,0.247562438249588,-0.013351191766560078
13006,-0.0005405197734944522,-0.0033275187015533447,0.02741975523531437,0.35947996377944946,0.192377969622612,-0.016811711713671684
13016,-0.0005405197734944522,-0.0033275187015533447,0.02741975523531437,0.35947996377944946,0.192377969622612,-0.016811711713671684
13026,-0.0005140145076438785,-0.004766351077705622,0.02696024253964424,0.5490660071372986,0.19650855660438538,-0.019239632412791252
13036,0.0004938531783409417,-0.003922170028090477,0.02700977772474289,0.3292834162712097,-0.06561080366373062,-0.01848808117210865
13046,-0.0003533786511979997,-0.0037013355176895857,0.026851525530219078,0.18924576044082642,0.18080635368824005,-0.01810876466333866
13056,0.002625823952257633,-0.004968997556716204,0.026752466335892677,0.42038771510124207,-0.5144078731536865,-0.019918860867619514
13066,0.007924963720142841,-0.0041353642009198666,0.026128431782126427,0.08242206275463104,-1.4508211612701416,-0.02592594176530838
13076,0.007055806927382946,-0.0036390265449881554,0.026266658678650856,-0.02594073675572872,-1.261497139930725,-0.026861609891057014
13086,0.007705632597208023,-0.003588348627090454,0.025949694216251373,-0.12302654981613159,-1.0888482332229614,-0.029762636870145798
13096,0.006522239185869694,-0.002762165619060397,0.02735544741153717,-0.29333439469337463,-0.8472000360488892,-0.031020406633615494
13106,0.004395709838718176,0.0012527582002803683,0.027336429804563522,-1.0452170372009277,-0.24031491577625275,-0.03511587902903557
13116,0.007343954872339964,-0.0036979143042117357,0.02759888768196106,-0.11761380732059479,-0.7932174801826477,-0.02902085892856121
13126,0.00812569446861744,-0.0036139867734164,0.02747378870844841,-0.1980166882276535,-0.7044288516044617,-0.03217853978276253
13136,0.002742177341133356,-0.0016501203645020723,0.027999378740787506,-0.54228276014328,0.24145542085170746,-0.03318743780255318
13146,0.0033990221563726664,-0.0016512342263013124,0.02795414626598358,-0.5386239290237427,0.15732069313526154,-0.034025464206933975
13156,0.0017981819109991193,-0.00706621166318655,0.02800717018544674,0.35468390583992004,0.45537081360816956,-0.03361795097589493
13166,0.0018659583292901516,-0.007511990610510111,0.027956802397966385,0.35550040006637573,0.45610281825065613,-0.03484219312667847
13176,0.0019347314955666661,-0.00797117967158556,0.02790680155158043,0.35479292273521423,0.4564594328403473,-0.03562358766794205
13186,-0.003932135179638863,-0.004988608416169882,0.027982542291283607,-0.15649278461933136,1.339208722114563,-0.035958729684352875
13196,-0.00301602715626359,-0.0041435956954956055,0.028055256232619286,-0.3068363070487976,1.1474040746688843,-0.035381730645895004
13206,-0.0029253303073346615,-0.0038499704096466303,0.028046714141964912,-0.3646060526371002,1.0899370908737183,-0.03514375910162926
13216,-0.0031058252789080143,-0.0027883490547537804,0.028015580028295517,-0.5201354622840881,1.072270154953003,-0.0344964936375618
13226,-0.0027710688300430775,-0.00407429039478302,0.028048502281308174,-0.3544694185256958,0.9901020526885986,-0.03690142184495926
13236,-0.00780304754152894,-0.0017460511298850179,0.02783285640180111,-0.6597330570220947,1.5890291929244995,-0.03239818289875984
13246,-0.008426300249993801,-0.0016643933486193419,0.02778218686580658,-0.6605995297431946,1.5889133214950562,-0.03277029097080231
13256,-0.008213985711336136,-0.0014261665055528283,0.027810538187623024,-0.6799566745758057,1.4875781536102295,-0.03245273977518082
13266,-0.00802355632185936,-0.00038230695645324886,0.027811914682388306,-0.7877864241600037,1.3950254917144775,-0.031365279108285904
13276,-0.0065437983721494675,-0.003102893941104412,0.028456365689635277,-0.4661259651184082,1.1655817031860352,-0.04132490232586861
13286,-0.008792788721621037,-0.001250543282367289,0.028371408581733704,-0.669739305973053,1.3632892370224,-0.03641951456665993
13296,-0.00787776242941618,-0.0012825409648939967,0.0284604299813509,-0.6530795097351074,1.2051138877868652,-0.037421464920043945
13306,-0.008531279861927032,-0.0010498453630134463,0.02844582498073578,-0.6655692458152771,1.2221869230270386,-0.038438744843006134
13316,-0.007623499259352684,-0.0016017050947993994,0.028547924011945724,-0.5988113880157471,1.0795992612838745,-0.04082382097840309
13326,-0.008540729992091656,-0.0013662821147590876,0.028720922768115997,-0.6131191253662109,1.1273291110992432,-0.04247536137700081
13336,-0.006939958315342665,-0.0011304965009912848,0.02881075255572796,-0.6264545917510986,0.9278165698051453,-0.04055017605423927
13346,-0.00712538929656148,-0.0014015607303008437,0.028841715306043625,-0.5927348732948303,0.9143224954605103,-0.042596276849508286
13356,-0.00808675866574049,-0.0016622532857581973,0.028859712183475494,-0.560369610786438,0.9696462750434875,-0.04620230570435524
13366,-0.007236734498292208,-0.0014435318298637867,0.028166096657514572,-0.5737860202789307,0.8625335693359375,-0.04419208690524101
13376,-0.01205943338572979,-0.00072276167338714,0.028085308149456978,-0.626986563205719,1.2566888332366943,-0.048398230224847794
13386,-0.012191848829388618,-0.0007505728863179684,0.028094464913010597,-0.6130477786064148,1.2147892713546753,-0.04891781136393547
13396,-0.011851990595459938,-0.0007694621453993022,0.028135284781455994,-0.5995929837226868,1.1359543800354004,-0.049136657267808914
13406,-0.016787804663181305,-6.32271112408489e-05,0.02829044498503208,-0.6480567455291748,1.4937772750854492,-0.05297292396426201
13416,-0.017832888290286064,0.0027569460216909647,0.028215225785970688,-0.861628532409668,1.5067471265792847,-0.04380600526928902
13426,-0.014200998470187187,0.001530888257548213,0.028704939410090446,-0.7351282238960266,1.1474014520645142,-0.046632274985313416
13436,-0.01759997010231018,0.00851860735565424,0.028349049389362335,-1.2570745944976807,1.3645602464675903,-0.025657936930656433
13446,-0.017984317615628242,0.007270453497767448,0.028628138825297356,-1.1065524816513062,1.331441044807434,-0.03291429579257965
13456,-0.02439422905445099,0.00790141150355339,0.028848983347415924,-1.1075999736785889,1.7484900951385498,-0.04002280533313751
13466,-0.024491528049111366,0.008980391547083855,0.028959710150957108,-1.141121506690979,1.6668041944503784,-0.03913208097219467
13476,-0.017217179760336876,0.0007395975990220904,0.03088313527405262,-0.490865558385849,1.0503863096237183,-0.060614410787820816
13486,-0.017772018909454346,0.0007870653062127531,0.031048109754920006,-0.49061885476112366,1.0483994483947754,-0.060349732637405396
13496,-0.017618900164961815,-0.0004669751215260476,0.030718091875314713,-0.398360937833786,0.9994701743125916,-0.06482633948326111
13506,-0.017528319731354713,0.00027138550649397075,0.030888257548213005,-0.4518755376338959,0.9559395909309387,-0.06253109872341156
13516,-0.01745636947453022,0.0007534215110354125,0.03104924038052559,-0.48423177003860474,0.9159976840019226,-0.06125345453619957
13526,-0.017386434599757195,0.0005105226882733405,0.031201688572764397,-0.46425071358680725,0.8804367184638977,-0.06370576471090317
13536,-0.017088526859879494,0.0012132229749113321,0.03137493133544922,-0.5087234377861023,0.8309670686721802,-0.06169021874666214
13546,-0.01741616800427437,0.001261708210222423,0.030850538983941078,-0.5072729587554932,0.829326331615448,-0.06298123300075531
13556,-0.017801538109779358,0.0013324815081432462,0.030954202637076378,-0.507631242275238,0.8269092440605164,-0.06405948102474213
13566,-0.01768505573272705,0.002652588998898864,0.0310698039829731,-0.5880447030067444,0.7934963703155518,-0.0609661266207695
13576,-0.01864003948867321,0.0018117740983143449,0.03117874264717102,-0.5252227783203125,0.8290582299232483,-0.06483328342437744
13586,-0.026554837822914124,0.0056818509474396706,0.030140213668346405,-0.7566918134689331,1.2941312789916992,-0.06374064832925797
13596,-0.027452323585748672,0.006027005612850189,0.03015480376780033,-0.7564520239830017,1.2930107116699219,-0.06548891961574554
13606,-0.027697423473000526,0.005912671331316233,0.03025720827281475,-0.7272604703903198,1.2527648210525513,-0.0665004700422287
13616,-0.026902906596660614,0.005013764835894108,0.030514493584632874,-0.6547547578811646,1.150905966758728,-0.07065944373607635
13626,-0.026588480919599533,0.005700333975255489,0.029544025659561157,-0.683870255947113,1.090409517288208,-0.06879502534866333
13636,-0.02666209451854229,0.005618556868284941,0.02957276813685894,-0.6624030470848083,1.052303433418274,-0.07114491611719131
13646,-0.02673935703933239,0.006582722067832947,0.02957698330283165,-0.7014939785003662,1.0162819623947144,-0.06884763389825821
13656,-0.027404431253671646,0.006901310756802559,0.029563507065176964,-0.7011484503746033,1.0138651132583618,-0.07173246145248413
13666,-0.027734016999602318,0.0068025426007807255,0.02959463745355606,-0.6769645810127258,0.9925553798675537,-0.07366439700126648
13676,-0.02768894098699093,0.0069207907654345036,0.028035985305905342,-0.67027747631073,0.9591811299324036,-0.07469268888235092
13686,-0.026457009837031364,0.006044108886271715,0.028051413595676422,-0.602449893951416,0.8533357977867126,-0.07597706466913223
13696,-0.026319073513150215,0.005721681285649538,0.02799263969063759,-0.5712077021598816,0.815727174282074,-0.07705835998058319
13706,-0.026190955191850662,0.006437593139708042,0.027915077283978462,-0.6006481647491455,0.7810931205749512,-0.07654938101768494
13716,-0.025572380051016808,0.00638318108394742,0.027925338596105576,-0.5841940641403198,0.7184879183769226,-0.07648295909166336
13726,-0.02698996663093567,0.006587112322449684,0.027821335941553116,-0.5836820006370544,0.7736735939979553,-0.0781860202550888
13736,-0.025897029787302017,0.005545498803257942,0.02780507318675518,-0.5121723413467407,0.6863918900489807,-0.08078162372112274
13746,-0.026042534038424492,0.006267253775149584,0.027724411338567734,-0.5434597134590149,0.6718195676803589,-0.08198420703411102
13757,-0.026393374428153038,0.006448730360716581,0.027386700734496117,-0.5435609221458435,0.6717029809951782,-0.08291763067245483
13767,-0.0260490532964468,0.005381077527999878,0.027320334687829018,-0.4734232723712921,0.6320772171020508,-0.08631893247365952
13777,-0.02622324228286743,0.006372538395226002,0.027229834347963333,-0.5194058418273926,0.6220170855522156,-0.08506132662296295
13787,-0.026147935539484024,0.005830293986946344,0.027158144861459732,-0.4813857972621918,0.5994943976402283,-0.08506009727716446
13797,-0.026085397228598595,0.005303910467773676,0.02708333358168602,-0.4444703161716461,0.5775588154792786,-0.08674280345439911
13807,-0.02480292320251465,0.0028239996172487736,0.027019409462809563,-0.303617388010025,0.4912436604499817,-0.08980268985033035
13817,-0.02599186636507511,0.005022937897592783,0.02697775512933731,-0.4256686568260193,0.5456041097640991,-0.08942142874002457
13827,-0.02571144513785839,0.005245680920779705,0.02690570428967476,-0.4314187169075012,0.517417848110199,-0.09004198759794235
13837,-0.025932639837265015,0.005337046459317207,0.026829713955521584,-0.43002602458000183,0.5172234773635864,-0.09075348824262619
13847,-0.026975056156516075,0.006617514882236719,0.028416607528924942,-0.4915222227573395,0.5561333298683167,-0.09093757718801498
13857,-0.03366593271493912,0.013099181465804577,0.028269579634070396,-0.8295799493789673,0.9007195234298706,-0.08977355062961578
13867,-0.03380430489778519,0.013003770262002945,0.028336653485894203,-0.7984684109687805,0.8730102777481079,-0.09095324575901031
13877,-0.032465916126966476,0.01315202098339796,0.028493959456682205,-0.7787834405899048,0.7692012190818787,-0.09081387519836426
13886,-0.033111121505498886,0.013068171218037605,0.028534410521388054,-0.7484309077262878,0.7760993838310242,-0.09182397276163101
13896,-0.03724221885204315,0.011394435539841652,0.029507873579859734,-0.6283653378486633,0.9631001353263855,-0.09900547564029694
13906,-0.0376160629093647,0.0060888733714818954,0.0297579076141119,-0.3290458917617798,0.9465233087539673,-0.10584481060504913
13916,-0.03831103444099426,0.006101697683334351,0.029835648834705353,-0.3294190764427185,0.9441473484039307,-0.10662919282913208
13926,-0.03866254910826683,0.007356998510658741,0.02996576391160488,-0.3947990834712982,0.9250115156173706,-0.10590624809265137
13936,-0.03824662044644356,0.005084177479147911,0.029686717316508293,-0.2729286253452301,0.8661198616027832,-0.10844828933477402
13946,-0.03887369483709335,0.006312903016805649,0.02977369911968708,-0.3376929759979248,0.8639300465583801,-0.10841763764619827
13956,-0.040217433124780655,0.006073188502341509,0.029790423810482025,-0.3228059411048889,0.9015595316886902,-0.1094578355550766
13966,-0.03939424455165863,0.007029393687844276,0.02997269667685032,-0.37195608019828796,0.8240813612937927,-0.10982616990804672
13976,-0.03907293826341629,0.0046579125337302685,0.030098579823970795,-0.24698509275913239,0.7758350968360901,-0.11170549690723419
13986,-0.037334125488996506,0.0037249596789479256,0.029750948771834373,-0.20576322078704834,0.6603578329086304,-0.11230482161045074
13996,-0.03773557394742966,0.0035768381785601377,0.02980470098555088,-0.20742136240005493,0.6596922278404236,-0.11380571126937866
14006,-0.03813792020082474,0.003426043316721916,0.029858430847525597,-0.20723344385623932,0.6596907377243042,-0.11464931815862656
14016,-0.03803151845932007,0.0021547346841543913,0.029891982674598694,-0.15179157257080078,0.6352891325950623,-0.11653012037277222
14026,-0.03895116224884987,0.004531282931566238,0.029622193425893784,-0.2790850102901459,0.6621733903884888,-0.11542537808418274
14036,-0.04062889516353607,0.007842814549803734,0.029650475829839706,-0.44656267762184143,0.7247714400291443,-0.11475712060928345
14046,-0.03802314028143883,0.011548365466296673,0.029736483469605446,-0.6238795518875122,0.5716947317123413,-0.11502046138048172
14056,-0.03796044737100601,0.0124658839777112,0.0297418013215065,-0.651080310344696,0.5538589358329773,-0.11613278090953827
14066,-0.04276365041732788,0.015080349519848824,0.02952985092997551,-0.759373664855957,0.7740113139152527,-0.1153583824634552
14076,-0.04290049523115158,0.015466872602701187,0.029341375455260277,-0.7513695359230042,0.7525694370269775,-0.11632626503705978
14086,-0.0378449410200119,0.01252469327300787,0.029912350699305534,-0.5806176662445068,0.47716617584228516,-0.11875170469284058
14096,-0.03803538903594017,0.012852568179368973,0.029957324266433716,-0.5803559422492981,0.4762096703052521,-0.11965196579694748
14106,-0.038495197892189026,0.013534743338823318,0.02998402714729309,-0.5970537066459656,0.48884332180023193,-0.1203143373131752
14116,-0.03890155255794525,0.011715147644281387,0.028766976669430733,-0.49285686016082764,0.5004316568374634,-0.12202073633670807
14126,-0.037887636572122574,0.012404891662299633,0.028732631355524063,-0.5144385695457458,0.44008684158325195,-0.12295009195804596
14136,-0.03786172345280647,0.012837754562497139,0.028691256418824196,-0.5236230492591858,0.43079254031181335,-0.12397737056016922
14146,-0.03760695084929466,0.012553595006465912,0.028670869767665863,-0.4954664707183838,0.4102017879486084,-0.12495547533035278
14156,-0.03781852498650551,0.01250871829688549,0.028368918225169182,-0.4800899624824524,0.4161655604839325,-0.12636622786521912
14166,-0.0378030464053154,0.012722445651888847,0.028314122930169106,-0.47908106446266174,0.4102669954299927,-0.12815314531326294
14176,-0.0384800024330616,0.012698236852884293,0.0282658189535141,-0.4693945348262787,0.4376063942909241,-0.1288873851299286
14186,-0.03800438717007637,0.01267178077250719,0.028223315253853798,-0.45667368173599243,0.4042348265647888,-0.12978176772594452
14196,-0.04229579493403435,0.01946515031158924,0.028022969141602516,-0.783498227596283,0.6117371916770935,-0.13384930789470673
14206,-0.043409205973148346,0.02033436857163906,0.028824441134929657,-0.7972068190574646,0.6493366956710815,-0.13365651667118073
14216,-0.04404560849070549,0.020514359697699547,0.02883674018085003,-0.7729175686836243,0.6621137261390686,-0.13376548886299133
14226,-0.04445188492536545,0.021122077479958534,0.028827572241425514,-0.7744823098182678,0.6608831882476807,-0.13427840173244476
14236,-0.03526913374662399,0.017759855836629868,0.029826516285538673,-0.5698786973953247,0.17002242803573608,-0.1307259202003479
14246,-0.03085862100124359,0.018618153408169746,0.02978529967367649,-0.5946822166442871,-0.047405797988176346,-0.1304897665977478
14256,-0.031141052022576332,0.017888586968183517,0.029936103150248528,-0.5348043441772461,-0.013391480781137943,-0.13110174238681793
14266,-0.023637717589735985,0.017801513895392418,0.029512561857700348,-0.5140237212181091,-0.3794810473918915,-0.12714248895645142
14276,-0.023720163851976395,0.018457036465406418,0.02966923452913761,-0.5289539098739624,-0.3328927755355835,-0.1290503442287445
14286,-0.022959230467677116,0.018808579072356224,0.029707761481404305,-0.5289276838302612,-0.3336707055568695,-0.13082927465438843
14296,-0.023084666579961777,0.018986716866493225,0.029518021270632744,-0.5194661617279053,-0.2847549319267273,-0.1316601037979126
14306,-0.023254822939634323,0.017943916842341423,0.02967597171664238,-0.4477696120738983,-0.23659037053585052,-0.13063570857048035
14316,-0.02255072444677353,0.018207978457212448,0.029712295159697533,-0.44732996821403503,-0.23704858124256134,-0.13151659071445465
14326,-0.021704176440835,0.018156766891479492,0.029742015525698662,-0.43091320991516113,-0.24173001945018768,-0.13130152225494385
14336,-0.02161562070250511,0.0185759998857975,0.02910696715116501,-0.43899771571159363,-0.20839740335941315,-0.13379602134227753
14346,-0.023153390735387802,0.01807553321123123,0.029296431690454483,-0.4004940390586853,-0.09211661666631699,-0.13333284854888916
14356,-0.023248858749866486,0.019001128152012825,0.029350092634558678,-0.4383842647075653,-0.05565384402871132,-0.13648533821105957
14366,-0.02239312417805195,0.017786573618650436,0.029382256790995598,-0.36390528082847595,-0.06917230039834976,-0.13445371389389038
14376,-0.022233013063669205,0.017761344090104103,0.029439177364110947,-0.353517085313797,-0.0472334660589695,-0.1347377598285675
14386,-0.022346649318933487,0.01886022463440895,0.02847355045378208,-0.40278303623199463,-0.0155598483979702,-0.13922369480133057
14396,-0.023548901081085205,0.018844762817025185,0.028531691059470177,-0.39146703481674194,0.07406030595302582,-0.13977612555027008
14406,-0.023151595145463943,0.017913514748215675,0.028525447472929955,-0.3316587805747986,0.07656645774841309,-0.13685500621795654
14416,-0.02251841314136982,0.01768258400261402,0.02849714271724224,-0.31188610196113586,0.06778967380523682,-0.1361498087644577
14426,-0.023443620651960373,0.018810730427503586,0.02872689999639988,-0.36513447761535645,0.1412346512079239,-0.13957428932189941
14436,-0.01796300895512104,0.03152933344244957,0.02847098372876644,-1.0175516605377197,-0.12110734730958939,-0.17561385035514832
14446,-0.01800904981791973,0.03235260397195816,0.028498219326138496,-1.016165018081665,-0.08082102239131927,-0.17659470438957214
14456,-0.017815159633755684,0.03208709508180618,0.02866181917488575,-0.9558656215667725,-0.05406889319419861,-0.17266617715358734
14466,-0.01784341037273407,0.03247779235243797,0.0287608802318573,-0.9325174689292908,-0.020483018830418587,-0.17286992073059082
14476,-0.022438742220401764,0.03458131104707718,0.0281931534409523,-0.998059868812561,0.2494182139635086,-0.17790551483631134
14486,-0.018090642988681793,0.03246906027197838,0.028437359258532524,-0.8358791470527649,0.040117066353559494,-0.16775630414485931
14496,-0.017896832898259163,0.03244345262646675,0.02850322611629963,-0.7973603010177612,0.05960966646671295,-0.16636483371257782
14506,-0.01732882298529148,0.0331278070807457,0.02848794497549534,-0.7973271012306213,0.060373224318027496,-0.1669784039258957
14516,-0.016469508409500122,0.03262316808104515,0.02873956598341465,-0.7346811294555664,0.04645417630672455,-0.16483017802238464
14526,-0.015864845365285873,0.03324193134903908,0.02874017506837845,-0.7337465882301331,0.045939475297927856,-0.16541101038455963
14536,-0.016663331538438797,0.033383630216121674,0.028856763616204262,-0.7088912725448608,0.11927218735218048,-0.1657240390777588
14546,-0.016739653423428535,0.03353622183203697,0.028930658474564552,-0.6835724711418152,0.14940966665744781,-0.16526813805103302
14556,-0.01726241409778595,0.033464886248111725,0.02902960777282715,-0.6504536867141724,0.20328770577907562,-0.1668262481689453
14566,-0.016819145530462265,0.0340038426220417,0.0290558822453022,-0.6504877805709839,0.20256146788597107,-0.1683489978313446
14576,-0.017389539629220963,0.03463895618915558,0.029115192592144012,-0.653698742389679,0.25424182415008545,-0.1707276701927185
14586,-0.017217792570590973,0.03382743522524834,0.029232019558548927,-0.5859710574150085,0.264846533536911,-0.16735829412937164
14596,-0.01609077863395214,0.034464381635189056,0.029237471520900726,-0.5944280624389648,0.2282736599445343,-0.16947467625141144
14606,-0.014485356397926807,0.033728815615177155,0.030017148703336716,-0.5319442749023438,0.17295484244823456,-0.16704979538917542
14616,-0.017096303403377533,0.03369063138961792,0.03026132844388485,-0.5082224607467651,0.3267274796962738,-0.16933336853981018
14626,-0.016775071620941162,0.03407401591539383,0.03035891428589821,-0.5079471468925476,0.32588300108909607,-0.17080901563167572
14636,-0.016598373651504517,0.032791465520858765,0.030517160892486572,-0.4253607988357544,0.33319076895713806,-0.16695651412010193
14646,-0.01632086932659149,0.033013198524713516,0.02952735126018524,-0.42632219195365906,0.3326584994792938,-0.16922399401664734
14656,-0.016148295253515244,0.0321786068379879,0.02957891672849655,-0.37255069613456726,0.33998697996139526,-0.16634653508663177
14666,-0.015966907143592834,0.03187985345721245,0.029621507972478867,-0.3470388650894165,0.3472455143928528,-0.16613245010375977
14676,-0.01700708456337452,0.03333364054560661,0.0296890027821064,-0.40733662247657776,0.4110969603061676,-0.1690913885831833
14686,-0.015349064953625202,0.03207031637430191,0.0297388918697834,-0.33351755142211914,0.34063705801963806,-0.16863420605659485
14696,-0.010842793621122837,0.030815090984106064,0.02935289777815342,-0.2677513659000397,0.13807857036590576,-0.1658092737197876
14706,-0.010919729247689247,0.0327095165848732,0.029428701847791672,-0.3546909987926483,0.17049409449100494,-0.16949030756950378
14716,-0.01498392689973116,0.0317634753882885,0.029803184792399406,-0.3003695011138916,0.3916943371295929,-0.1689912974834442
14726,-0.010368888266384602,0.03174732252955437,0.02975345216691494,-0.2961134612560272,0.18035784363746643,-0.1698315441608429
14736,-0.012701091356575489,0.03567401319742203,0.030478650704026222,-0.48143696784973145,0.3193560540676117,-0.17351935803890228
14746,-0.012325773946940899,0.036012087017297745,0.030557293444871902,-0.48069578409194946,0.32022610306739807,-0.1748863011598587
14756,-0.012386266142129898,0.03692356497049332,0.030626144260168076,-0.5086181163787842,0.342773973941803,-0.17569412291049957
14766,-0.012031825259327888,0.03730124607682228,0.030703825876116753,-0.5104400515556335,0.3405935764312744,-0.17675718665122986
14776,-0.01594260334968567,0.03770352900028229,0.029699716717004776,-0.5109779834747314,0.5457868576049805,-0.17602503299713135
14786,-0.016201840713620186,0.038875218480825424,0.029680203646421432,-0.5511977076530457,0.563678503036499,-0.1778390258550644
14796,-0.011807374656200409,0.03510896861553192,0.02995932660996914,-0.34815287590026855,0.3503372073173523,-0.1775946170091629
14806,-0.012840544804930687,0.0350787453353405,0.030044278129935265,-0.3385399580001831,0.41665878891944885,-0.17884157598018646
14817,-0.012159864418208599,0.03505762293934822,0.030069097876548767,-0.3282771408557892,0.3959326148033142,-0.18103067576885223
14826,-0.0170903317630291,0.0345163494348526,0.028845172375440598,-0.2955571711063385,0.6497623920440674,-0.18014119565486908
14836,-0.017068130895495415,0.03759358078241348,0.028799382969737053,-0.44096308946609497,0.6466929316520691,-0.18247012794017792
14846,-0.01247172337025404,0.032944176346063614,0.02903144806623459,-0.19570361077785492,0.4147825539112091,-0.1836274266242981
14856,-0.012274853885173798,0.032036423683166504,0.028991784900426865,-0.15017639100551605,0.4170989692211151,-0.18420220911502838
14866,-0.011374271474778652,0.034781791269779205,0.02943328768014908,-0.2906665503978729,0.3842550218105316,-0.18721461296081543
14876,-0.012307786382734776,0.03275436535477638,0.029475493356585503,-0.18396836519241333,0.4441900849342346,-0.18628668785095215
14886,-0.012314407154917717,0.0338619165122509,0.02950030006468296,-0.24184876680374146,0.45542770624160767,-0.18748509883880615
14896,-0.012338274158537388,0.032092880457639694,0.029500199481844902,-0.1493588089942932,0.4653259217739105,-0.1877615600824356
14906,-0.01322859711945057,0.03297722712159157,0.029551830142736435,-0.1984049677848816,0.5203930735588074,-0.1882634162902832
14916,-0.010386592708528042,0.03733647242188454,0.02808123268187046,-0.4252510070800781,0.3810386657714844,-0.19159656763076782
14926,-0.005835553165525198,0.037096261978149414,0.02788688801229,-0.40256354212760925,0.16021913290023804,-0.19705815613269806
14936,-0.005642566364258528,0.03602074086666107,0.02786278910934925,-0.33525311946868896,0.17655253410339355,-0.19889652729034424
14946,-0.004809319041669369,0.03601459786295891,0.027758121490478516,-0.3272011876106262,0.15981967747211456,-0.19934241473674774
14956,-0.005669755395501852,0.036652784794569016,0.02788238413631916,-0.3541772663593292,0.23415741324424744,-0.1979394257068634
14967,-0.005688429344445467,0.036010902374982834,0.027852851897478104,-0.3112194538116455,0.2596552073955536,-0.1984184980392456
14977,-0.006107382941991091,0.03663748875260353,0.027831552550196648,-0.3367582857608795,0.3062014579772949,-0.19737355411052704
14987,-0.00569577282294631,0.036010291427373886,0.027784205973148346,-0.2950923442840576,0.3056304454803467,-0.19797617197036743
14996,-0.00568897370249033,0.036831799894571304,0.02774275280535221,-0.33600664138793945,0.32639583945274353,-0.19789445400238037
15006,-0.005263496655970812,0.036972396075725555,0.029049942269921303,-0.3352736234664917,0.32677000761032104,-0.19914910197257996
15016,-0.004860381130129099,0.03710062429308891,0.029067041352391243,-0.33683645725250244,0.32798802852630615,-0.20025405287742615
15026,-0.005831777583807707,0.03731745854020119,0.029141459614038467,-0.34260329604148865,0.39840203523635864,-0.19880862534046173
15036,-0.00514358002692461,0.0373263880610466,0.029157305136322975,-0.3346271812915802,0.38068902492523193,-0.20024938881397247
15046,-0.003829803317785263,0.0377589650452137,0.028684750199317932,-0.35471707582473755,0.328033983707428,-0.20185604691505432
15056,-0.005892786663025618,0.03820330649614334,0.02876536175608635,-0.3695877194404602,0.4583129286766052,-0.19942931830883026
15066,-0.005466630682349205,0.03818681463599205,0.02876392938196659,-0.3601621389389038,0.4486076533794403,-0.20082873106002808
15076,-0.004161081742495298,0.03817286342382431,0.028740832582116127,-0.35064777731895447,0.39379703998565674,-0.2028864622116089
15086,-0.005273550283163786,0.03817132115364075,0.028793253004550934,-0.34315112233161926,0.46873509883880615,-0.20328308641910553
15096,-0.005963652860373259,0.037505362182855606,0.028073199093341827,-0.3030138313770294,0.5126796364784241,-0.2047533094882965
15106,-0.005318807438015938,0.03793138265609741,0.02802766114473343,-0.3212797939777374,0.4901846647262573,-0.2045993208885193
15116,-0.005328020546585321,0.03750128671526909,0.02799583598971367,-0.2929195165634155,0.5009828805923462,-0.20586290955543518
15126,-0.005329832434654236,0.03728047385811806,0.027961984276771545,-0.27781012654304504,0.5098095536231995,-0.20645520091056824
15136,-0.005968061741441488,0.037704430520534515,0.02796439453959465,-0.29629579186439514,0.5492714643478394,-0.20581769943237305
15146,-0.005129777826368809,0.03749363124370575,0.027930568903684616,-0.28211620450019836,0.5133516788482666,-0.20776556432247162
15156,-0.0051324134692549706,0.037078600376844406,0.027900904417037964,-0.25815898180007935,0.5222334265708923,-0.20808006823062897
15166,-0.004955780692398548,0.03709220513701439,0.02786882407963276,-0.25826096534729004,0.5212535262107849,-0.2088800072669983
15176,-0.003866106504574418,0.0377492792904377,0.027482634410262108,-0.2913954257965088,0.4756161868572235,-0.21157929301261902
15186,-0.003624839009717107,0.037802111357450485,0.027423815801739693,-0.2914389669895172,0.4752141237258911,-0.21200278401374817
15196,-0.0001890184939838946,0.03360613435506821,0.027301084250211716,-0.07200179994106293,0.3077292740345001,-0.21814554929733276
15206,-0.00023167037579696625,0.0341009646654129,0.02730688452720642,-0.10869389027357101,0.3340277671813965,-0.21864478290081024
15216,-4.730405635200441e-05,0.034120410680770874,0.02727494388818741,-0.12150558829307556,0.34467244148254395,-0.2210742086172104
15226,0.0005898332456126809,0.033237628638744354,0.02798210084438324,-0.08536860346794128,0.33295974135398865,-0.22240184247493744
15236,-0.0005613735411316156,0.032371886074543,0.02803155407309532,-0.05434677004814148,0.41516876220703125,-0.22191926836967468
15246,-0.00023273556143976748,0.03208521753549576,0.028031330555677414,-0.05499131605029106,0.4142042100429535,-0.22251370549201965
15256,0.00042798498179763556,0.03212343528866768,0.0280354805290699,-0.07105953246355057,0.3978652358055115,-0.22383639216423035
15266,0.0015605996595695615,0.03446117043495178,0.028505010530352592,-0.2037854790687561,0.35758665204048157,-0.2245350331068039
15276,-0.00033156786230392754,0.03219481185078621,0.028614193201065063,-0.09222890436649323,0.4725459814071655,-0.22345836460590363
15286,-0.00035273071262054145,0.03244873881340027,0.02867739461362362,-0.1195240244269371,0.48671451210975647,-0.22305931150913239
15296,-0.0003851873625535518,0.03134622424840927,0.028698023408651352,-0.0744505301117897,0.4989789128303528,-0.22567015886306763
15306,-0.001287022023461759,0.032707978039979935,0.028844255954027176,-0.1575428545475006,0.5569207668304443,-0.22349634766578674
15316,-0.00326256500557065,0.03559776768088341,0.029466044157743454,-0.3139432370662689,0.6652304530143738,-0.2192809134721756
15326,-0.0023655935656279325,0.03888313099741936,0.029519861564040184,-0.4839242100715637,0.6180785894393921,-0.2177419662475586
15336,-0.002373124472796917,0.03865830972790718,0.029629481956362724,-0.46167802810668945,0.618698239326477,-0.2193492203950882
15346,-0.0023096564691513777,0.03884550556540489,0.02971588633954525,-0.4635012149810791,0.6191417574882507,-0.22021867334842682
15356,-0.0022459065075963736,0.039032891392707825,0.029888667166233063,-0.4610953629016876,0.619316041469574,-0.22220782935619354
15366,-0.002964688464999199,0.0438566654920578,0.02981286495923996,-0.7017574906349182,0.6594198942184448,-0.21739207208156586
15376,-0.0029506953433156013,0.04432889446616173,0.02988959290087223,-0.7048149704933167,0.658614993095398,-0.21677300333976746
15386,-0.004213239997625351,0.04574262723326683,0.029867000877857208,-0.7510559558868408,0.7250273823738098,-0.21525762975215912
15396,-0.003202954540029168,0.04437127709388733,0.030175818130373955,-0.6526171565055847,0.668562650680542,-0.22039850056171417
15406,-0.003205600194633007,0.044794004410505295,0.029303213581442833,-0.6509507298469543,0.6681360602378845,-0.22072955965995789
15416,0.0005365890101529658,0.03900475800037384,0.029702240601181984,-0.34974631667137146,0.48376354575157166,-0.23029184341430664
15426,0.0004891719436272979,0.039746858179569244,0.029758227989077568,-0.380444198846817,0.4961738884449005,-0.23134233057498932
15436,0.0006780695402994752,0.03987009450793266,0.029811490327119827,-0.3817477226257324,0.4953977167606354,-0.23307456076145172
15446,-0.0005901532131247222,0.03746820241212845,0.02953255921602249,-0.2584049701690674,0.5677631497383118,-0.2341906577348709
15456,0.0001327338832197711,0.03870096802711487,0.029575927183032036,-0.3215000629425049,0.534130334854126,-0.23389415442943573
15466,0.000276867242064327,0.038749195635318756,0.029610037803649902,-0.3214130103588104,0.5324838757514954,-0.23546534776687622
15476,-0.0002694065624382347,0.03874530643224716,0.02965233474969864,-0.31936463713645935,0.564410924911499,-0.23532238602638245
15486,0.0004667071916628629,0.03871724754571915,0.02820681221783161,-0.31682753562927246,0.5314760804176331,-0.2362159937620163
15496,0.0006101400358602405,0.0387544259428978,0.02815660834312439,-0.31905031204223633,0.5307528972625732,-0.235307976603508
15506,-0.0002187356149079278,0.03875052556395531,0.028118781745433807,-0.317829430103302,0.5783020853996277,-0.23669998347759247
15516,-0.00012747765867970884,0.03878291696310043,0.02807009592652321,-0.3188522160053253,0.5773873329162598,-0.2393452674150467
15526,0.0006659653736278415,0.03986005485057831,0.028016364201903343,-0.3691716492176056,0.5436482429504395,-0.23896260559558868
15536,0.0019640896935015917,0.03606220707297325,0.027565160766243935,-0.18638835847377777,0.48604118824005127,-0.24480237066745758
15546,-0.0004398245655465871,0.03873245418071747,0.027593789622187614,-0.3191111385822296,0.6085875630378723,-0.24154192209243774
15556,0.0006053168326616287,0.0397784598171711,0.02752852998673916,-0.3689616918563843,0.5599992871284485,-0.24208299815654755
15566,0.0007158184889703989,0.03985515609383583,0.027464445680379868,-0.367256224155426,0.5606117844581604,-0.24169637262821198
15576,-0.00021155676222406328,0.03924519568681717,0.02807511016726494,-0.339190274477005,0.611136794090271,-0.24176618456840515
15586,-0.00015913658717181534,0.0392879955470562,0.02805057354271412,-0.3376029431819916,0.6093859672546387,-0.24262383580207825
15596,-0.00010101527004735544,0.039334435015916824,0.028023289516568184,-0.33574438095092773,0.6091040372848511,-0.2440272718667984
15606,0.0001619046670384705,0.03987467661499977,0.027995407581329346,-0.35797807574272156,0.6004668474197388,-0.24474847316741943
15616,0.000324079766869545,0.03978303074836731,0.028786171227693558,-0.35366663336753845,0.5988109111785889,-0.24600568413734436
15626,0.00038670661160722375,0.039844706654548645,0.0288045946508646,-0.3523869812488556,0.5980474948883057,-0.24712508916854858
15636,0.0016992844175547361,0.039025504142045975,0.02882704697549343,-0.31244006752967834,0.5406067371368408,-0.24981340765953064
15646,0.0008742118952795863,0.03902266547083855,0.02885800041258335,-0.3098753094673157,0.5835959911346436,-0.24969342350959778
15656,-0.0001816157455323264,0.0390276163816452,0.028882618993520737,-0.3095114231109619,0.6349157094955444,-0.24882641434669495
15666,6.739873788319528e-05,0.03978671878576279,0.028943059965968132,-0.34238123893737793,0.6258940696716309,-0.2502411901950836
15676,0.0015836735256016254,0.03977387771010399,0.028965206816792488,-0.3400099575519562,0.5566710233688354,-0.2512252628803253
15686,0.0008085498120635748,0.03977081552147865,0.028992589563131332,-0.33788585662841797,0.5969205498695374,-0.2512081265449524
15696,0.0008670974639244378,0.039811987429857254,0.02901238016784191,-0.33928942680358887,0.5949600338935852,-0.2517481744289398
15706,0.001515085226856172,0.03926807641983032,0.029034292325377464,-0.31481656432151794,0.5635877251625061,-0.2525978684425354
15716,0.0016117857303470373,0.039273038506507874,0.029053620994091034,-0.31500282883644104,0.5612858533859253,-0.25320279598236084
15726,0.0008227933431044221,0.0397820845246315,0.029080910608172417,-0.33847007155418396,0.6016343832015991,-0.2537122666835785
15736,0.0008015118655748665,0.03801633045077324,0.029107632115483284,-0.2576359510421753,0.6047488451004028,-0.2562025785446167
15746,0.0008070971816778183,0.039770711213350296,0.029155174270272255,-0.3408524990081787,0.6034948229789734,-0.25474947690963745
15756,0.0017661195015534759,0.03877878934144974,0.029541529715061188,-0.2927180528640747,0.5630395412445068,-0.2566339671611786
15766,0.0007803757907822728,0.039032742381095886,0.02959466353058815,-0.30624720454216003,0.6106051206588745,-0.25685060024261475
15776,-0.00018077586719300598,0.039281897246837616,0.029638590291142464,-0.3191964030265808,0.6533148884773254,-0.2569301724433899
15786,0.0005347100086510181,0.03808988630771637,0.02969283238053322,-0.26492616534233093,0.6177419424057007,-0.25774455070495605
15796,-0.0001577638613525778,0.03880150616168976,0.028105266392230988,-0.3009587228298187,0.6503437161445618,-0.257537305355072
15806,0.0017253132537007332,0.0416020005941391,0.02807089500129223,-0.432064414024353,0.5630379319190979,-0.25625357031822205
15816,-0.00014090922195464373,0.039048533886671066,0.028096938505768776,-0.3065754473209381,0.6500369906425476,-0.25805118680000305
15826,0.0007824646309018135,0.03904513269662857,0.028056783601641655,-0.3072777986526489,0.6043916940689087,-0.2593725919723511
15837,0.000989423831924796,0.03992525860667229,0.028012357652187347,-0.35266920924186707,0.5934367775917053,-0.2590812146663666
15846,0.0010196245275437832,0.03995322808623314,0.02750386670231819,-0.35197654366493225,0.5918849110603333,-0.25887224078178406
15856,0.00012007444456685334,0.03972827270627022,0.027429206296801567,-0.3383370637893677,0.6351004242897034,-0.26033586263656616
15866,0.0016862829215824604,0.03882838785648346,0.027368634939193726,-0.2963981628417969,0.5573577284812927,-0.26310428977012634
15876,0.00035810418194159865,0.03995026275515556,0.027318602427840233,-0.3524915874004364,0.6214656233787537,-0.26168498396873474
15886,0.00032897916389629245,0.03998126462101936,0.028030280023813248,-0.3524828851222992,0.6231070160865784,-0.26207849383354187
15896,-0.00011717477173078805,0.043722957372665405,0.02798202633857727,-0.5314450263977051,0.6432498693466187,-0.2589755058288574
15906,0.004759559407830238,0.04366989806294441,0.028010472655296326,-0.5173940062522888,0.40342530608177185,-0.2615971267223358
15916,0.005649864207953215,0.04272221401333809,0.02800469473004341,-0.4589090645313263,0.37086302042007446,-0.2639037072658539
15927,0.0029893831815570593,0.04319293051958084,0.027646230533719063,-0.47625845670700073,0.5199392437934875,-0.2634916603565216
15936,0.003103109309449792,0.04338002949953079,0.027598608285188675,-0.47502902150154114,0.51979660987854,-0.26454395055770874
15946,0.0055695283226668835,0.04245312139391899,0.02754984237253666,-0.419360488653183,0.400951087474823,-0.2662945091724396
15956,0.004430998582392931,0.042445436120033264,0.02755645662546158,-0.4110841751098633,0.4696376323699951,-0.26660439372062683
15966,0.00553072988986969,0.04220724105834961,0.027492379769682884,-0.3923763036727905,0.42251086235046387,-0.2671338617801666
15977,0.004861227236688137,0.04352680593729019,0.02724502794444561,-0.4534924626350403,0.467451810836792,-0.2668197751045227
15986,0.003727951319888234,0.04942559078335762,0.02709522657096386,-0.7445926070213318,0.5330647230148315,-0.2643944323062897
15997,0.0038326657377183437,0.049926161766052246,0.02702951617538929,-0.7440136075019836,0.5325803160667419,-0.2657950222492218
16006,0.0038240409921854734,0.04918650910258293,0.027076348662376404,-0.679366409778595,0.5366491675376892,-0.2695661783218384
16017,0.003924011252820492,0.04965375363826752,0.028269484639167786,-0.679307758808136,0.5373319387435913,-0.2698076665401459
16027,0.008706430904567242,0.048126932233572006,0.02835450880229473,-0.5785040259361267,0.2951470911502838,-0.26903027296066284
16037,0.008183017373085022,0.04926653578877449,0.028378060087561607,-0.6169126629829407,0.3409026563167572,-0.2695091962814331
16047,0.007600465323776007,0.04993479698896408,0.028414294123649597,-0.6313270926475525,0.38776955008506775,-0.27087944746017456
16057,0.007873588241636753,0.050342343747615814,0.02842874825000763,-0.6296087503433228,0.385669082403183,-0.27237147092819214
16067,0.0067145368084311485,0.05404167249798775,0.029424253851175308,-0.7941246628761292,0.4595355689525604,-0.2724710702896118
16076,0.007618437055498362,0.05327705293893814,0.02957484871149063,-0.7230817079544067,0.4206029176712036,-0.2731746435165405
16086,0.007854737341403961,0.05380527675151825,0.029644301161170006,-0.722309947013855,0.4215826392173767,-0.2728857100009918
16096,0.008094343356788158,0.05433893948793411,0.02971332147717476,-0.7239607572555542,0.42065539956092834,-0.27395665645599365
16107,0.009326014667749405,0.05774933472275734,0.028890596702694893,-0.876557469367981,0.36737391352653503,-0.2735207676887512
16117,0.009630594402551651,0.05846133828163147,0.028906727209687233,-0.8751903772354126,0.3659108579158783,-0.2743205726146698
16127,0.010611767880618572,0.059590715914964676,0.028870223090052605,-0.8956246376037598,0.3326621949672699,-0.274119108915329
16137,0.009757798165082932,0.05995071679353714,0.028962738811969757,-0.8763760924339294,0.3917226791381836,-0.27664250135421753
16147,0.010725357569754124,0.06029120832681656,0.028995554894208908,-0.8577877283096313,0.35742896795272827,-0.27481886744499207
16157,0.00962926261126995,0.05937806889414787,0.02833119034767151,-0.7753108739852905,0.428401917219162,-0.2793486416339874
16167,0.010843958705663681,0.05948526784777641,0.02832961082458496,-0.749574601650238,0.3814069330692291,-0.2790914475917816
16177,0.01078151073306799,0.06011263653635979,0.02832774817943573,-0.7500033974647522,0.3997389078140259,-0.2799096405506134
16186,0.009474696591496468,0.05951279401779175,0.0284429918974638,-0.692592203617096,0.47804394364356995,-0.2826806306838989
16197,0.009675831533968449,0.06008143350481987,0.028671754524111748,-0.6921551823616028,0.4777926802635193,-0.2835283577442169
16207,0.008577823638916016,0.05994938686490059,0.028726689517498016,-0.6598484516143799,0.5398363471031189,-0.2869148552417755
16217,0.010337247513234615,0.0595620796084404,0.02877974510192871,-0.6159340739250183,0.4628507196903229,-0.28533291816711426
16226,0.009529197588562965,0.059209179133176804,0.02885248325765133,-0.5769650340080261,0.5092495083808899,-0.2870662212371826
16237,0.002769232029095292,0.06415019184350967,0.028774196282029152,-0.7959968447685242,0.8505550622940063,-0.29639485478401184
16247,0.0024968599900603294,0.06487816572189331,0.02888193354010582,-0.7946731448173523,0.8490481972694397,-0.2977876663208008
16257,0.002296556020155549,0.06340186297893524,0.02905615046620369,-0.6923319101333618,0.8448237180709839,-0.2997497320175171
16267,0.002623573411256075,0.06352093070745468,0.029147503897547722,-0.6700555682182312,0.8152052760124207,-0.30093419551849365
16277,0.0026911573950201273,0.06491601467132568,0.029149862006306648,-0.7064193487167358,0.7982566952705383,-0.2996721565723419
16287,0.0029727225191891193,0.06252525746822357,0.029257286339998245,-0.568196177482605,0.7742243409156799,-0.3010922372341156
16297,0.003513735020533204,0.0644187331199646,0.02927732840180397,-0.6327276229858398,0.7411490082740784,-0.30027735233306885
16307,0.0028107252437621355,0.0643213540315628,0.029332946985960007,-0.6020744442939758,0.7650649547576904,-0.30203384160995483
16316,0.002835499355569482,0.06326543539762497,0.029456010088324547,-0.5284243822097778,0.7535356283187866,-0.30457085371017456
16326,0.0026498816441744566,0.06367166340351105,0.029292404651641846,-0.5291179418563843,0.7524970769882202,-0.30559292435646057
16336,0.002457964001223445,0.0640929564833641,0.029326165094971657,-0.5290790796279907,0.7512174248695374,-0.30603092908859253
16346,0.002262381138280034,0.06451720744371414,0.029359711334109306,-0.5281957983970642,0.750766396522522,-0.30813607573509216
16356,0.0020632692612707615,0.06494471430778503,0.029393432661890984,-0.5299773216247559,0.750088095664978,-0.30907848477363586
16368,0.0046135359443724155,0.06807850301265717,0.029386108741164207,-0.6569299101829529,0.620855450630188,-0.3039077818393707
16377,0.004602747969329357,0.06862668693065643,0.028362469747662544,-0.6554207801818848,0.6210141181945801,-0.304019957780838
16387,0.000870112213306129,0.06803467124700546,0.02838708460330963,-0.6034299731254578,0.781782329082489,-0.30877259373664856
16397,0.002185575431212783,0.06472267955541611,0.02859417349100113,-0.43670910596847534,0.7129747271537781,-0.3129428029060364
16407,0.00314907543361187,0.06487629562616348,0.028607619926333427,-0.42882364988327026,0.6640684008598328,-0.3125910460948944
16417,0.002326555782929063,0.0656193345785141,0.028323529288172722,-0.44805628061294556,0.6950300931930542,-0.3141982853412628
16427,-0.0035846629180014133,0.068387970328331,0.028184058144688606,-0.5541465282440186,0.9420967698097229,-0.31566935777664185
16437,-0.0034209631849080324,0.0685032531619072,0.028200602158904076,-0.5386321544647217,0.9133612513542175,-0.31621745228767395
16447,-0.003290951019152999,0.06725863367319107,0.028279747813940048,-0.4638540744781494,0.887626588344574,-0.319347620010376
16458,-0.0014472497859969735,0.06877611577510834,0.02906099706888199,-0.5177170634269714,0.7826366424560547,-0.3169988989830017
16467,-0.0017436494817957282,0.06920387595891953,0.029089324176311493,-0.5171049237251282,0.7818831205368042,-0.3182820975780487
16477,-0.0027204323559999466,0.06804612278938293,0.02916022762656212,-0.44479265809059143,0.8106707334518433,-0.32104963064193726
16487,-0.002888134913519025,0.06873787939548492,0.02919122762978077,-0.45964759588241577,0.8004370927810669,-0.32211512327194214
16497,-0.0020515769720077515,0.06789574027061462,0.02931785397231579,-0.40853577852249146,0.745471715927124,-0.3233177959918976
16507,-0.003985815681517124,0.06655300408601761,0.028782693669199944,-0.33451956510543823,0.8199498057365417,-0.32748353481292725
16516,-0.00017297144222538918,0.06823679804801941,0.028925146907567978,-0.4017302095890045,0.6290446519851685,-0.32452210783958435
16526,-0.0021203914657235146,0.06745623797178268,0.028963671997189522,-0.35235390067100525,0.7101907730102539,-0.32672804594039917
16536,-0.0023153554648160934,0.06863713264465332,0.028968239203095436,-0.3956609070301056,0.7071194052696228,-0.32542884349823
16546,-0.002493256237357855,0.06630581617355347,0.028611576184630394,-0.27483510971069336,0.7030982971191406,-0.3303852677345276
16556,-0.0015318547375500202,0.0598381832242012,0.02863767184317112,0.03763904422521591,0.6427467465400696,-0.3401048183441162
16568,0.0034338077530264854,0.061012428253889084,0.02876070700585842,-0.030241351574659348,0.39719533920288086,-0.3383004367351532
16578,0.0020334082655608654,0.061040058732032776,0.028829826042056084,-0.03977006673812866,0.4664982259273529,-0.3369233310222626
16586,0.0022669865284115076,0.06104912608861923,0.028842447325587273,-0.04641040414571762,0.4549013674259186,-0.33764439821243286
16596,0.0013224596623331308,0.06176958978176117,0.02938280813395977,-0.08792966604232788,0.5017090439796448,-0.3380584418773651
16606,0.0022363837342709303,0.06131475046277046,0.029407700523734093,-0.07153157889842987,0.45568913221359253,-0.3383386731147766
16616,0.0026943928096443415,0.06132080405950546,0.029443837702274323,-0.07755076885223389,0.43278825283050537,-0.340082585811615
16626,0.0020160446874797344,0.06133808568120003,0.02950114756822586,-0.08595924824476242,0.4681028127670288,-0.33954310417175293
16636,0.003350191982463002,0.061332207173109055,0.029524344950914383,-0.09143418073654175,0.4030860662460327,-0.34132272005081177
16648,0.0028929458931088448,0.05932745710015297,0.029308415949344635,0.004402297083288431,0.42931365966796875,-0.3414251208305359
16656,0.0028989866841584444,0.06022146716713905,0.029373709112405777,-0.05073300004005432,0.4301948547363281,-0.3411884605884552
16666,0.003542994847521186,0.05824599787592888,0.029336342588067055,0.03781509771943092,0.40188372135162354,-0.3437405228614807
16676,0.003639685455709696,0.057963501662015915,0.02935677021741867,0.03691871091723442,0.401839017868042,-0.34490111470222473
16686,0.003728184849023819,0.057668570429086685,0.03005850687623024,0.03627697005867958,0.4013972580432892,-0.3454917371273041
16698,0.0036167434882372618,0.05869915708899498,0.030224552378058434,-0.037707895040512085,0.4167509078979492,-0.3450048565864563
16706,0.003706526942551136,0.05847720056772232,0.030291078612208366,-0.03709455579519272,0.4138665795326233,-0.34667110443115234
16716,0.0036933207884430885,0.05776260048151016,0.030352668836712837,-0.013057591393589973,0.4196634888648987,-0.34745463728904724
16726,0.0041531650349497795,0.05684695392847061,0.030228696763515472,0.019307468086481094,0.40022164583206177,-0.34914663434028625
16736,0.0024720337241888046,0.05618841201066971,0.03029790148139,0.036322589963674545,0.4901626706123352,-0.3469870090484619
16746,0.0038909639697521925,0.057622216641902924,0.03042701631784439,-0.053006332367658615,0.4200507700443268,-0.34947487711906433
16756,0.0036555465776473284,0.058579426258802414,0.030524402856826782,-0.11219445616006851,0.4355787932872772,-0.3505946695804596
16766,0.002948247129097581,0.057909827679395676,0.030588917434215546,-0.08767394721508026,0.4742836058139801,-0.3494316339492798
16776,0.002058587269857526,0.06254199892282486,0.030057644471526146,-0.32541972398757935,0.5201259255409241,-0.348439484834671
16786,0.0011332887224853039,0.06027459725737572,0.0301422867923975,-0.21010112762451172,0.5642582774162292,-0.3483316898345947
16796,-0.0013825208880007267,0.05555284768342972,0.030142823234200478,0.019242003560066223,0.6818777322769165,-0.34406405687332153
16806,-0.0024855628143996,0.0562560111284256,0.030188845470547676,-0.031551163643598557,0.7255810499191284,-0.3438318967819214
16816,-0.0015914932591840625,0.05448533222079277,0.030555780977010727,0.03757861256599426,0.6674180626869202,-0.34752127528190613
16826,-0.001777340890839696,0.057820770889520645,0.03077591396868229,-0.14473922550678253,0.6654900908470154,-0.3491878807544708
16836,-0.0015483892057090998,0.055366721004247665,0.030835311859846115,-0.03333516791462898,0.6435418128967285,-0.3514982759952545
16846,-0.0015462012961506844,0.05558515340089798,0.030930303037166595,-0.05987894535064697,0.6341494917869568,-0.3528158366680145
16856,-0.0015440791612491012,0.054725222289562225,0.030983470380306244,-0.03077099099755287,0.625449001789093,-0.3548608422279358
16866,-0.00587327079847455,0.05673271045088768,0.030619241297245026,-0.14387229084968567,0.8304495811462402,-0.3454805314540863
16876,-0.0063078999519348145,0.05655147507786751,0.03066142275929451,-0.1439562439918518,0.8293673992156982,-0.34604766964912415
16886,-0.006252666935324669,0.05748414248228073,0.030754536390304565,-0.19924333691596985,0.8023580312728882,-0.3470217287540436
16896,-0.006210977211594582,0.056811053305864334,0.030829330906271935,-0.17223092913627625,0.7775084972381592,-0.34935009479522705
16906,-0.0070458147674798965,0.057762373238801956,0.029629312455654144,-0.22339531779289246,0.800576388835907,-0.3478832244873047
16916,-0.007681482937186956,0.05799588933587074,0.02958713285624981,-0.23890332877635956,0.8081016540527344,-0.34668469429016113
16926,-0.006537202745676041,0.057102181017398834,0.02965458855032921,-0.2004903107881546,0.7290197014808655,-0.35020944476127625
16936,-0.005175007041543722,0.0566515251994133,0.029709026217460632,-0.18338234722614288,0.6436641812324524,-0.35516244173049927
16946,-0.005418243817985058,0.056500159204006195,0.0298275388777256,-0.1828269064426422,0.6427682638168335,-0.3572640120983124
16956,-0.0075007532723248005,0.05747427046298981,0.029795439913868904,-0.23682348430156708,0.7330625653266907,-0.354236900806427
16966,-0.006992113310843706,0.05748036876320839,0.02982214093208313,-0.23975984752178192,0.6886532306671143,-0.35666969418525696
16977,-0.00650205509737134,0.05679478496313095,0.029844166710972786,-0.21049383282661438,0.6482910513877869,-0.35900530219078064
16986,-0.006795238237828016,0.056697335094213486,0.02983403019607067,-0.21033227443695068,0.6478485465049744,-0.3597732186317444
16996,-0.005458927247673273,0.060135047882795334,0.02860253117978573,-0.3834778964519501,0.5716840624809265,-0.3604268431663513
17006,-0.007076309062540531,0.06517478823661804,0.028363442048430443,-0.6252293586730957,0.6428833603858948,-0.3544497489929199
17016,-0.00797885749489069,0.06559886038303375,0.02825266867876053,-0.6254368424415588,0.6708539128303528,-0.3561628758907318
17026,-0.0072339847683906555,0.06530541926622391,0.028283102437853813,-0.5903081893920898,0.6167437434196472,-0.3602537214756012
17036,-0.006244509480893612,0.06524312496185303,0.027718260884284973,-0.5671792030334473,0.5539973378181458,-0.36169806122779846
17046,-0.011756493709981441,0.06986817717552185,0.027293002232909203,-0.7739472985267639,0.8164166212081909,-0.3545282781124115
17056,-0.013111240230500698,0.06683272868394852,0.02746347337961197,-0.5885230302810669,0.8540723919868469,-0.3599297106266022
17066,-0.0125815961509943,0.06861765682697296,0.02735610492527485,-0.656309187412262,0.7970794439315796,-0.3586574196815491
17077,-0.012982770800590515,0.06880582123994827,0.02728557027876377,-0.6398511528968811,0.7873244285583496,-0.3631450831890106
17088,-0.010484747588634491,0.07292693853378296,0.027987413108348846,-0.8155182003974915,0.6354195475578308,-0.35776713490486145
17097,-0.010888935066759586,0.07368051260709763,0.027918914332985878,-0.8150670528411865,0.6330047249794006,-0.36341825127601624
17107,-0.010873597115278244,0.07341767102479935,0.027981344610452652,-0.7638058662414551,0.6128929853439331,-0.3598252534866333
17116,-0.009728503413498402,0.07447678595781326,0.027954617515206337,-0.7814633250236511,0.5300071239471436,-0.36619871854782104
17126,-0.010656490921974182,0.0726153552532196,0.028528349474072456,-0.6476197838783264,0.563656210899353,-0.3637754023075104
17136,-0.01625564880669117,0.07674392312765121,0.028129952028393745,-0.8278920650482178,0.8300590515136719,-0.3660164177417755
17146,-0.01817682571709156,0.07674793154001236,0.02805647812783718,-0.7879591584205627,0.8965402841567993,-0.3684813380241394
17156,-0.01794702373445034,0.07759097218513489,0.028116639703512192,-0.7908838391304016,0.8474283814430237,-0.3621557652950287
17166,-0.019018614664673805,0.07674087584018707,0.028556928038597107,-0.6999184489250183,0.8615503311157227,-0.36616596579551697
17176,-0.01858394779264927,0.076738640666008,0.0286874882876873,-0.6647931933403015,0.8014966249465942,-0.3705146908760071
17186,-0.018162688240408897,0.07672199606895447,0.028822964057326317,-0.6250262260437012,0.7439472079277039,-0.3620234727859497
17196,-0.018812257796525955,0.07739093154668808,0.028829114511609077,-0.6247557401657104,0.7420953512191772,-0.36075687408447266
17206,-0.017878180369734764,0.07734989374876022,0.029030758887529373,-0.5869676470756531,0.656613290309906,-0.36457908153533936
17216,-0.018480300903320312,0.0768214762210846,0.02867729403078556,-0.5264765024185181,0.6587721109390259,-0.3650394678115845
17227,-0.023269543424248695,0.08189243078231812,0.028229745104908943,-0.7638490796089172,0.8816743493080139,-0.35892900824546814
17237,-0.018863067030906677,0.08296076953411102,0.028716780245304108,-0.7764502167701721,0.6046501398086548,-0.3469463884830475
17246,-0.01885533146560192,0.08207733929157257,0.028948144987225533,-0.6855374574661255,0.5741112232208252,-0.34965217113494873
17256,-0.019390422850847244,0.08287309110164642,0.02896183356642723,-0.6861034035682678,0.5728046298027039,-0.35268130898475647
17266,-0.02251872420310974,0.08414919674396515,0.028422288596630096,-0.7116498351097107,0.7079379558563232,-0.35756194591522217
17276,-0.023296300321817398,0.08508215844631195,0.028399351984262466,-0.7137593030929565,0.7084149122238159,-0.3543136417865753
17286,-0.0234372578561306,0.08493884652853012,0.02851731702685356,-0.6598170399665833,0.6803675889968872,-0.3525325357913971
17296,-0.024134643375873566,0.08575272560119629,0.028499577194452286,-0.6596416234970093,0.681516170501709,-0.34856754541397095
17306,-0.023950664326548576,0.08683508634567261,0.028306538239121437,-0.6761770248413086,0.6353368163108826,-0.34338900446891785
17316,-0.024617886170744896,0.08768749237060547,0.028280332684516907,-0.676566481590271,0.6369709372520447,-0.34191134572029114
17326,-0.025513818487524986,0.08638627827167511,0.028428932651877403,-0.5689123868942261,0.6465333700180054,-0.3427949547767639
17336,-0.02480490505695343,0.0867263525724411,0.02856258489191532,-0.5506948828697205,0.5767399668693542,-0.33878934383392334
17346,-0.024877185001969337,0.08597545325756073,0.028014561161398888,-0.48174798488616943,0.5526790022850037,-0.3396981656551361
17356,-0.03193439543247223,0.08304490149021149,0.02787157893180847,-0.3069656491279602,0.862572968006134,-0.35218262672424316
17366,-0.03473399952054024,0.0877821072936058,0.02756434865295887,-0.5096246600151062,0.9503692388534546,-0.3470730483531952
17376,-0.0335407555103302,0.0869075208902359,0.027937529608607292,-0.43523696064949036,0.8395583629608154,-0.34541386365890503
17386,-0.03385806083679199,0.08680284768342972,0.028048034757375717,-0.4013420343399048,0.8079320192337036,-0.34465721249580383
17396,-0.02789723500609398,0.09139257669448853,0.02929064817726612,-0.5896027088165283,0.4788619875907898,-0.3318118453025818
17406,-0.02273978479206562,0.09024472534656525,0.029693827033042908,-0.498319536447525,0.20949684083461761,-0.3272358179092407
17416,-0.022957229986786842,0.09096869081258774,0.02979479916393757,-0.4993683993816376,0.2099171280860901,-0.3245423138141632
17426,-0.022916417568922043,0.0918043926358223,0.029887409880757332,-0.5020004510879517,0.20024728775024414,-0.3115675151348114
17436,-0.02229592390358448,0.08776576071977615,0.029022950679063797,-0.28174489736557007,0.17079487442970276,-0.2895676791667938
17446,-0.02350444905459881,0.0914008840918541,0.029012784361839294,-0.42336660623550415,0.22592052817344666,-0.24567337334156036
