timestamp (ms),stateEstimate.x,stateEstimate.y,stateEstimate.z,stabilizer.roll,stabilizer.pitch,stabilizer.yaw
38885,0.0,0.0,0.0,0.0,0.0,0.0
38895,0.0,0.0,0.0,0.0,0.0,0.0
38905,0.0,0.0,0.0,0.0,0.0,0.0
38915,0.0,0.0,0.0,0.0,0.0,0.0
38925,0.0,0.0,0.0,0.0,0.0,0.0
38935,0.0,0.0,0.0,0.0,0.0,0.0
38945,0.0,0.0,0.0,0.0,0.0,0.0
38955,0.0,0.0,0.0,0.0,0.0,0.0
38965,0.0,0.0,0.0,0.0,0.0,0.0
38975,0.0,0.0,0.0,0.0,0.0,0.0
38985,0.0,0.0,0.0,0.0,0.0,0.0
38995,0.0,0.0,0.0,0.0,0.0,0.0
39005,0.0,0.0,0.0,0.0,0.0,0.0
39015,0.0,0.0,0.0,0.0,0.0,0.0
39025,0.0,0.0,0.0,0.0,0.0,0.0
39035,0.0,0.0,0.0,0.0,0.0,0.0
39045,0.0,0.0,0.0,0.0,0.0,0.0
39055,0.0,0.0,0.0,0.0,0.0,0.0
39065,0.0,0.0,0.0,0.0,0.0,0.0
39075,0.0,0.0,0.0,0.0,0.0,0.0
39085,0.0,0.0,0.0,0.0,0.0,0.0
39095,0.0,0.0,0.0,0.0,0.0,0.0
39105,0.0,0.0,0.0,0.0,0.0,0.0
39115,0.0,0.0,0.0,0.0,0.0,0.0
39125,0.0,0.0,0.0,0.0,0.0,0.0
39135,0.0,0.0,0.0,0.0,0.0,0.0
39145,0.0,0.0,0.0,0.0,0.0,0.0
39155,0.0,0.0,0.0,0.0,0.0,0.0
39165,0.0,0.0,0.0,0.0,0.0,0.0
39175,0.0,0.0,0.0,0.0,0.0,0.0
39185,0.0,0.0,0.0,0.0,0.0,0.0
39195,0.0,0.0,0.0,0.0,0.0,0.0
39205,0.0,0.0,0.0,0.0,0.0,0.0
39215,0.0,0.0,0.0,0.0,0.0,0.0
39225,0.0,0.0,0.0,0.0,0.0,0.0
39235,0.0,0.0,0.0,0.0,0.0,0.0
39245,0.0,0.0,0.0,0.0,0.0,0.0
39255,0.0,0.0,0.0,0.0,0.0,0.0
39265,0.0,0.0,0.0,0.0,0.0,0.0
39275,0.0,0.0,0.0,0.0,0.0,0.0
39285,0.0,0.0,0.0,0.0,0.0,0.0
39295,0.0,0.0,0.0,0.0,0.0,0.0
39305,0.0,0.0,0.0,0.0,0.0,0.0
39315,0.0,0.0,0.0,0.0,0.0,0.0
39325,0.0,0.0,0.0,0.0,0.0,0.0
39335,0.0,0.0,0.0,0.0,0.0,0.0
39345,0.0,0.0,0.0,0.0,0.0,0.0
39355,0.0,0.0,0.0,0.0,0.0,0.0
39365,0.0,0.0,0.0,0.0,0.0,0.0
39375,0.0,0.0,0.0,0.0,0.0,0.0
39385,0.0,0.0,0.0,0.0,0.0,0.0
39395,0.0,0.0,0.0,0.0,0.0,0.0
39405,0.0,0.0,0.0,0.0,0.0,0.0
39415,0.0,0.0,0.0,0.0,0.0,0.0
39425,0.0,0.0,0.0,0.0,0.0,0.0
39435,0.0,0.0,0.0,0.0,0.0,0.0
39445,0.0,0.0,0.0,0.0,0.0,0.0
39455,0.0,0.0,0.0,0.0,0.0,0.0
39465,0.0,0.0,0.0,0.0,0.0,0.0
39475,0.0,0.0,0.0,0.0,0.0,0.0
39485,0.0,0.0,0.0,0.0,0.0,0.0
39495,0.0,0.0,0.0,0.0,0.0,0.0
39505,0.0,0.0,0.0,0.0,0.0,0.0
39515,0.0,0.0,0.0,0.0,0.0,0.0
39525,0.0,0.0,0.0,0.0,0.0,0.0
39535,0.0,0.0,0.0,0.0,0.0,0.0
39545,0.0,0.0,0.0,0.0,0.0,0.0
39555,0.0,0.0,0.0,0.0,0.0,0.0
39565,0.0,0.0,0.0,0.0,0.0,0.0
39575,0.0,0.0,0.0,0.0,0.0,0.0
39585,0.0,0.0,0.0,0.0,0.0,0.0
39595,0.0,0.0,0.0,0.0,0.0,0.0
39605,0.0,0.0,0.0,0.0,0.0,0.0
39615,0.0,0.0,0.0,0.0,0.0,0.0
39625,0.0,0.0,0.0,0.0,0.0,0.0
39635,0.0,0.0,0.0,0.0,0.0,0.0
39645,0.0,0.0,0.0,0.0,0.0,0.0
39655,0.0,0.0,0.0,0.0,0.0,0.0
39665,0.0,0.0,0.0,0.0,0.0,0.0
39675,0.0,0.0,0.0,0.0,0.0,0.0
39685,0.0,0.0,0.0,0.0,0.0,0.0
39695,0.0,0.0,0.0,0.0,0.0,0.0
39705,0.0,0.0,0.0,0.0,0.0,0.0
39715,0.0,0.0,0.0,0.0,0.0,0.0
39725,0.0,0.0,0.0,0.0,0.0,0.0
39735,0.0,0.0,0.0,0.0,0.0,0.0
39745,0.0,0.0,0.0,0.0,0.0,0.0
39755,0.0,0.0,0.0,0.0,0.0,0.0
39765,0.0,0.0,0.0,0.0,0.0,0.0
39775,0.0,0.0,0.0,0.0,0.0,0.0
39785,0.0,0.0,0.0,0.0,0.0,0.0
39795,0.0,0.0,0.0,0.0,0.0,0.0
39805,0.0,0.0,0.0,0.0,0.0,0.0
39815,0.0,0.0,0.0,0.0,0.0,0.0
39825,0.0,0.0,0.0,0.0,0.0,0.0
39835,0.0,0.0,0.0,0.0,0.0,0.0
39845,0.0,0.0,0.0,0.0,0.0,0.0
39855,0.0,0.0,0.0,0.0,0.0,0.0
39865,0.0,0.0,0.0,0.0,0.0,0.0
39875,0.0,0.0,0.0,0.0,0.0,0.0
39885,0.0,0.0,0.0,0.0,0.0,0.0
39895,0.0,0.0,0.0,0.0,0.0,0.0
39905,0.0,0.0,0.0,0.0,0.0,0.0
39915,0.0,0.0,0.0,0.0,0.0,0.0
39925,0.0,0.0,0.0,0.0,0.0,0.0
39935,0.0,0.0,0.0,0.0,0.0,0.0
39945,0.0,0.0,0.0,0.0,0.0,0.0
39955,0.0,0.0,0.0,0.0,0.0,0.0
39965,0.0,0.0,0.0,0.0,0.0,0.0
39975,0.0,0.0,0.0,0.0,0.0,0.0
39985,0.0,0.0,0.0,0.0,0.0,0.0
39995,0.0,0.0,0.0,0.0,0.0,0.0
40005,0.0,0.0,0.0,0.0,0.0,0.0
40015,0.0,0.0,0.0,0.0,0.0,0.0
40025,0.0,0.0,0.0,0.0,0.0,0.0
40035,0.0,0.0,0.0,0.0,0.0,0.0
40045,0.0,0.0,0.0,0.0,0.0,0.0
40055,0.0,0.0,0.0,0.0,0.0,0.0
40065,0.0,0.0,0.0,0.0,0.0,0.0
40075,0.0,0.0,0.0,0.0,0.0,0.0
40085,0.0,0.0,0.0,0.0,0.0,0.0
40095,0.0,0.0,0.0,0.0,0.0,0.0
40105,0.0,0.0,0.0,0.0,0.0,0.0
40115,0.0,0.0,0.0,0.0,0.0,0.0
40125,0.0,0.0,0.0,0.0,0.0,0.0
40135,0.0,0.0,0.0,0.0,0.0,0.0
40145,0.0,0.0,0.0,0.0,0.0,0.0
40155,0.0,0.0,0.0,0.0,0.0,0.0
40165,0.0,0.0,0.0,0.0,0.0,0.0
40175,0.0,0.0,0.0,0.0,0.0,0.0
40185,0.0,0.0,0.0,0.0,0.0,0.0
40195,0.0,0.0,0.0,0.0,0.0,0.0
40205,0.0,0.0,0.0,0.0,0.0,0.0
40215,0.0,0.0,0.0,0.0,0.0,0.0
40225,0.0,0.0,0.0,0.0,0.0,0.0
40235,0.0,0.0,0.0,0.0,0.0,0.0
40245,0.0,0.0,0.0,0.0,0.0,0.0
40255,0.0,0.0,0.0,0.0,0.0,0.0
40265,0.0,0.0,0.0,0.0,0.0,0.0
40275,0.0,0.0,0.0,0.0,0.0,0.0
40285,0.0,0.0,0.0,0.0,0.0,0.0
40295,0.0,0.0,0.0,0.0,0.0,0.0
40305,0.0,0.0,0.0,0.0,0.0,0.0
40315,0.0,0.0,0.0,0.0,0.0,0.0
40325,0.0,0.0,0.0,0.0,0.0,0.0
40335,0.0,0.0,0.0,0.0,0.0,0.0
40345,0.0,0.0,0.0,0.0,0.0,0.0
40355,0.0,0.0,0.0,0.0,0.0,0.0
40365,0.0,0.0,0.0,0.0,0.0,0.0
40375,0.0,0.0,0.0,0.0,0.0,0.0
40385,0.0,0.0,0.0,0.0,0.0,0.0
40395,0.0,0.0,0.0,0.0,0.0,0.0
40405,0.0,0.0,0.0,0.0,0.0,0.0
40415,0.0,0.0,0.0,0.0,0.0,0.0
40425,0.0,0.0,0.0,0.0,0.0,0.0
40435,0.0,0.0,0.0,0.0,0.0,0.0
40445,0.0,0.0,0.0,0.0,0.0,0.0
40455,0.0,0.0,0.0,0.0,0.0,0.0
40465,0.0,0.0,0.0,0.0,0.0,0.0
40475,0.0,0.0,0.0,0.0,0.0,0.0
40485,0.0,0.0,0.0,0.0,0.0,0.0
40495,0.0,0.0,0.0,0.0,0.0,0.0
40505,0.0,0.0,0.0,0.0,0.0,0.0
40515,0.0,0.0,0.0,0.0,0.0,0.0
40525,0.0,0.0,0.0,0.0,0.0,0.0
40535,0.0,0.0,0.0,0.0,0.0,0.0
40545,0.0,0.0,0.0,0.0,0.0,0.0
40555,0.0,0.0,0.0,0.0,0.0,0.0
40565,0.0,0.0,0.0,0.0,0.0,0.0
40575,0.0,0.0,0.0,0.0,0.0,0.0
40585,0.0,0.0,0.0,0.0,0.0,0.0
40595,0.0,0.0,0.0,0.0,0.0,0.0
40605,0.0,0.0,0.0,0.0,0.0,0.0
40615,0.0,0.0,0.0,0.0,0.0,0.0
40625,0.0,0.0,0.0,0.0,0.0,0.0
40635,0.0,0.0,0.0,0.0,0.0,0.0
40645,0.0,0.0,0.0,0.0,0.0,0.0
40655,0.0,0.0,0.0,0.0,0.0,0.0
40665,0.0,0.0,0.0,0.0,0.0,0.0
40675,0.0,0.0,0.0,0.0,0.0,0.0
40685,0.0,0.0,0.0,0.0,0.0,0.0
40695,0.0,0.0,0.0,0.0,0.0,0.0
40705,0.0,0.0,0.0,0.0,0.0,0.0
40715,0.0,0.0,0.0,0.0,0.0,0.0
40725,0.0,0.0,0.0,0.0,0.0,0.0
40735,0.0,0.0,0.0,0.0,0.0,0.0
40745,0.0,0.0,0.0,0.0,0.0,0.0
40755,0.0,0.0,0.0,0.0,0.0,0.0
40765,0.0,0.0,0.0,0.0,0.0,0.0
40775,0.0,0.0,0.0,0.0,0.0,0.0
40785,0.0,0.0,0.0,0.0,0.0,0.0
40795,0.0,0.0,0.0,0.0,0.0,0.0
40805,0.0,0.0,0.0,0.0,0.0,0.0
40815,0.0,0.0,0.0,0.0,0.0,0.0
40825,0.0,0.0,0.0,0.0,0.0,0.0
40835,0.0,0.0,0.0,0.0,0.0,0.0
40845,0.0,0.0,0.0,0.0,0.0,0.0
40855,0.0,0.0,0.0,0.0,0.0,0.0
40865,0.0,0.0,0.0,0.0,0.0,0.0
40875,0.0,0.0,0.0,0.0,0.0,0.0
40885,0.0,0.0,0.0,0.0,0.0,0.0
40895,0.0,0.0,0.0,0.0,0.0,0.0
40905,0.0,0.0,0.0,0.0,0.0,0.0
40915,0.0,0.0,0.0,0.0,0.0,0.0
40925,0.0,0.0,0.0,0.0,0.0,0.0
40935,0.0,0.0,0.0,0.0,0.0,0.0
40945,0.0,0.0,0.0,0.0,0.0,0.0
40955,0.0,0.0,0.0,0.0,0.0,0.0
40965,0.0,0.0,0.0,0.0,0.0,0.0
40975,0.0,0.0,0.0,0.0,0.0,0.0
40985,0.0,0.0,0.0,0.0,0.0,0.0
40995,0.0,0.0,0.0,0.0,0.0,0.0
41005,0.0,0.0,0.0,0.0,0.0,0.0
41015,0.0,0.0,0.0,0.0,0.0,0.0
41025,0.0,0.0,0.0,0.0,0.0,0.0
41035,0.0,0.0,0.0,0.0,0.0,0.0
41045,0.0,0.0,0.0,0.0,0.0,0.0
41055,0.0,0.0,0.0,0.0,0.0,0.0
41065,0.0,0.0,0.0,0.0,0.0,0.0
41075,0.0,0.0,0.0,0.0,0.0,0.0
41085,0.0,0.0,0.0,0.0,0.0,0.0
41095,0.0,0.0,0.0,0.0,0.0,0.0
41105,0.0,0.0,0.0,0.0,0.0,0.0
41115,0.0,0.0,0.0,0.0,0.0,0.0
41125,0.0,0.0,0.0,0.0,0.0,0.0
41135,0.0,0.0,0.0,0.0,0.0,0.0
41145,0.0,0.0,0.0,0.0,0.0,0.0
41155,0.0,0.0,0.0,0.0,0.0,0.0
41165,0.0,0.0,0.0,0.0,0.0,0.0
41175,0.0,0.0,0.0,0.0,0.0,0.0
41185,0.0,0.0,0.0,0.0,0.0,0.0
41195,0.0,0.0,0.0,0.0,0.0,0.0
41205,0.0,0.0,0.0,0.0,0.0,0.0
41215,0.0,0.0,0.0,0.0,0.0,0.0
41225,0.0,0.0,0.0,0.0,0.0,0.0
41235,0.0,0.0,0.0,0.0,0.0,0.0
41245,0.0,0.0,0.0,0.0,0.0,0.0
41255,0.0,0.0,0.0,0.0,0.0,0.0
41265,0.0,0.0,0.0,0.0,0.0,0.0
41275,0.0,0.0,0.0,0.0,0.0,0.0
41285,0.0,0.0,0.0,0.0,0.0,0.0
41295,0.0,0.0,0.0,0.0,0.0,0.0
41305,0.0,0.0,0.0,0.0,0.0,0.0
41315,0.0,0.0,0.0,0.0,0.0,0.0
41325,0.0,0.0,0.0,0.0,0.0,0.0
41335,0.0,0.0,0.0,0.0,0.0,0.0
41345,0.0,0.0,0.0,0.0,0.0,0.0
41355,0.0,0.0,0.0,0.0,0.0,0.0
41365,0.0,0.0,0.0,0.0,0.0,0.0
41375,0.0,0.0,0.0,0.0,0.0,0.0
41385,0.0,0.0,0.0,0.0,0.0,0.0
41395,0.0,0.0,0.0,0.0,0.0,0.0
41405,0.0,0.0,0.0,0.0,0.0,0.0
41415,0.0,0.0,0.0,0.0,0.0,0.0
41425,0.0,0.0,0.0,0.0,0.0,0.0
41435,0.0,0.0,0.0,0.0,0.0,0.0
41445,0.0,0.0,0.0,0.0,0.0,0.0
41455,0.0,0.0,0.0,0.0,0.0,0.0
41465,0.0,0.0,0.0,0.0,0.0,0.0
41475,0.0,0.0,0.0,0.0,0.0,0.0
41485,0.0,0.0,0.0,0.0,0.0,0.0
41495,0.0,0.0,0.0,0.0,0.0,0.0
41505,0.0,0.0,0.0,0.0,0.0,0.0
41515,0.0,0.0,0.0,0.0,0.0,0.0
41525,0.0,0.0,0.0,0.0,0.0,0.0
41535,0.0,0.0,0.0,0.0,0.0,0.0
41545,0.0,0.0,0.0,0.0,0.0,0.0
41555,0.0,0.0,0.0,0.0,0.0,0.0
41565,0.0,0.0,0.0,0.0,0.0,0.0
41575,0.0,0.0,0.0,0.0,0.0,0.0
41585,0.0,0.0,0.0,0.0,0.0,0.0
41595,0.0,0.0,0.0,0.0,0.0,0.0
41605,0.0,0.0,0.0,0.0,0.0,0.0
41615,0.0,0.0,0.0,0.0,0.0,0.0
41625,0.0,0.0,0.0,0.0,0.0,0.0
41635,0.0,0.0,0.0,0.0,0.0,0.0
41645,0.0,0.0,0.0,0.0,0.0,0.0
41655,0.0,0.0,0.0,0.0,0.0,0.0
41665,0.0,0.0,0.0,0.0,0.0,0.0
41675,0.0,0.0,0.0,0.0,0.0,0.0
41685,0.0,0.0,0.0,0.0,0.0,0.0
41695,0.0,0.0,0.0,0.0,0.0,0.0
41705,0.0,0.0,0.0,0.0,0.0,0.0
41715,0.0,0.0,0.0,0.0,0.0,0.0
41725,0.0,0.0,0.0,0.0,0.0,0.0
41735,0.0,0.0,0.0,0.0,0.0,0.0
41745,0.0,0.0,0.0,0.0,0.0,0.0
41755,0.0,0.0,0.0,0.0,0.0,0.0
41765,0.0,0.0,0.0,0.0,0.0,0.0
41775,0.0,0.0,0.0,0.0,0.0,0.0
41785,0.0,0.0,0.0,0.0,0.0,0.0
41795,0.0,0.0,0.0,0.0,0.0,0.0
41805,0.0,0.0,0.0,0.0,0.0,0.0
41815,0.0,0.0,0.0,0.0,0.0,0.0
41825,0.0,0.0,0.0,0.0,0.0,0.0
41835,0.0,0.0,0.0,0.0,0.0,0.0
41845,0.0,0.0,0.0,0.0,0.0,0.0
41855,0.0,0.0,0.0,0.0,0.0,0.0
41865,0.0,0.0,0.0,0.0,0.0,0.0
41875,0.0,0.0,0.0,0.0,0.0,0.0
41885,0.0,0.0,0.0,0.0,0.0,0.0
41895,0.0,0.0,0.0,0.0,0.0,0.0
41905,0.0,0.0,0.0,0.0,0.0,0.0
41915,0.0,0.0,0.0,0.0,0.0,0.0
41925,0.0,0.0,0.0,0.0,0.0,0.0
41935,0.0,0.0,0.0,0.0,0.0,0.0
41945,0.0,0.0,0.0,0.0,0.0,0.0
41955,0.0,0.0,0.0,0.0,0.0,0.0
41965,0.0,0.0,0.0,0.0,0.0,0.0
41975,0.0,0.0,0.0,0.0,0.0,0.0
41985,0.0,0.0,0.0,0.0,0.0,0.0
41995,0.0,0.0,0.0,0.0,0.0,0.0
42005,0.0,0.0,0.0,0.0,0.0,0.0
42015,0.0,0.0,0.0,0.0,0.0,0.0
42025,0.0,0.0,0.0,0.0,0.0,0.0
42035,0.0,0.0,0.0,0.0,0.0,0.0
42045,0.0,0.0,0.0,0.0,0.0,0.0
42055,0.0,0.0,0.0,0.0,0.0,0.0
42065,0.0,0.0,0.0,0.0,0.0,0.0
42075,0.0,0.0,0.0,0.0,0.0,0.0
42085,0.0,0.0,0.0,0.0,0.0,0.0
42095,0.0,0.0,0.0,0.0,0.0,0.0
42105,0.0,0.0,0.0,0.0,0.0,0.0
42115,0.0,0.0,0.0,0.0,0.0,0.0
42125,0.0,0.0,0.0,0.0,0.0,0.0
42135,0.0,0.0,0.0,0.0,0.0,0.0
42145,0.0,0.0,0.0,0.0,0.0,0.0
42155,0.0,0.0,0.0,0.0,0.0,0.0
42165,0.0,0.0,0.0,0.0,0.0,0.0
42175,0.0,0.0,0.0,0.0,0.0,0.0
42185,0.0,0.0,0.0,0.0,0.0,0.0
42195,0.0,0.0,0.0,0.0,0.0,0.0
42205,0.0,0.0,0.0,0.0,0.0,0.0
42215,0.0,0.0,0.0,0.0,0.0,0.0
42225,0.0,0.0,0.0,0.0,0.0,0.0
42235,0.0,0.0,0.0,0.0,0.0,0.0
42245,0.0,0.0,0.0,0.0,0.0,0.0
42255,0.0,0.0,0.0,0.0,0.0,0.0
42265,0.0,0.0,0.0,0.0,0.0,0.0
42275,0.0,0.0,0.0,0.0,0.0,0.0
42285,0.0,0.0,0.0,0.0,0.0,0.0
42295,0.0,0.0,0.0,0.0,0.0,0.0
42305,0.0,0.0,0.0,0.0,0.0,0.0
42315,0.0,0.0,0.0,0.0,0.0,0.0
42325,0.0,0.0,0.0,0.0,0.0,0.0
42335,0.0,0.0,0.0,0.0,0.0,0.0
42345,0.0,0.0,0.0,0.0,0.0,0.0
42355,0.0,0.0,0.0,0.0,0.0,0.0
42365,0.0,0.0,0.0,0.0,0.0,0.0
42375,0.0,0.0,0.0,0.0,0.0,0.0
42385,0.0,0.0,0.0,0.0,0.0,0.0
42395,0.0,0.0,0.0,0.0,0.0,0.0
42405,0.0,0.0,0.0,0.0,0.0,0.0
42415,0.0,0.0,0.0,0.0,0.0,0.0
42425,0.0,0.0,0.0,0.0,0.0,0.0
42435,0.0,0.0,0.0,0.0,0.0,0.0
42445,0.0,0.0,0.0,0.0,0.0,0.0
42455,0.0,0.0,0.0,0.0,0.0,0.0
42465,0.0,0.0,0.0,0.0,0.0,0.0
42475,0.0,0.0,0.0,0.0,0.0,0.0
42485,0.0,0.0,0.0,0.0,0.0,0.0
42495,0.0,0.0,0.0,0.0,0.0,0.0
42505,0.0,0.0,0.0,0.0,0.0,0.0
42515,0.0,0.0,0.0,0.0,0.0,0.0
42525,0.0,0.0,0.0,0.0,0.0,0.0
42535,0.0,0.0,0.0,0.0,0.0,0.0
42545,0.0,0.0,0.0,0.0,0.0,0.0
42555,0.0,0.0,0.0,0.0,0.0,0.0
42565,0.0,0.0,0.0,0.0,0.0,0.0
42575,0.0,0.0,0.0,0.0,0.0,0.0
42585,0.0,0.0,0.0,0.0,0.0,0.0
42595,0.0,0.0,0.0,0.0,0.0,0.0
42605,0.0,0.0,0.0,0.0,0.0,0.0
42615,0.0,0.0,0.0,0.0,0.0,0.0
42625,0.0,0.0,0.0,0.0,0.0,0.0
42635,0.0,0.0,0.0,0.0,0.0,0.0
42645,0.0,0.0,0.0,0.0,0.0,0.0
42655,0.0,0.0,0.0,0.0,0.0,0.0
42665,0.0,0.0,0.0,0.0,0.0,0.0
42675,0.0,0.0,0.0,0.0,0.0,0.0
42685,0.0,0.0,0.0,0.0,0.0,0.0
42695,0.0,0.0,0.0,0.0,0.0,0.0
42705,0.0,0.0,0.0,0.0,0.0,0.0
42715,0.0,0.0,0.0,0.0,0.0,0.0
42725,0.0,0.0,0.0,0.0,0.0,0.0
42735,0.0,0.0,0.0,0.0,0.0,0.0
42745,0.0,0.0,0.0,0.0,0.0,0.0
42755,0.0,0.0,0.0,0.0,0.0,0.0
42765,0.0,0.0,0.0,0.0,0.0,0.0
42775,0.0,0.0,0.0,0.0,0.0,0.0
42785,0.0,0.0,0.0,0.0,0.0,0.0
42795,0.0,0.0,0.0,0.0,0.0,0.0
42805,0.0,0.0,0.0,0.0,0.0,0.0
42815,0.0,0.0,0.0,0.0,0.0,0.0
42825,0.0,0.0,0.0,0.0,0.0,0.0
42835,0.0,0.0,0.0,0.0,0.0,0.0
42845,0.0,0.0,0.0,0.0,0.0,0.0
42855,0.0,0.0,0.0,0.0,0.0,0.0
42865,0.0,0.0,0.0,0.0,0.0,0.0
42875,0.0,0.0,0.0,0.0,0.0,0.0
42885,0.0,0.0,0.0,0.0,0.0,0.0
42895,0.0,0.0,0.0,0.0,0.0,0.0
42905,0.0,0.0,0.0,0.0,0.0,0.0
42915,0.0,0.0,0.0,0.0,0.0,0.0
42925,0.0,0.0,0.0,0.0,0.0,0.0
42935,0.0,0.0,0.0,0.0,0.0,0.0
42945,0.0,0.0,0.0,0.0,0.0,0.0
42955,0.0,0.0,0.0,0.0,0.0,0.0
42965,0.0,0.0,0.0,0.0,0.0,0.0
42975,0.0,0.0,0.0,0.0,0.0,0.0
42985,0.0,0.0,0.0,0.0,0.0,0.0
42995,0.0,0.0,0.0,0.0,0.0,0.0
43005,0.0,0.0,0.0,0.0,0.0,0.0
43015,0.0,0.0,0.0,0.0,0.0,0.0
43025,0.0,0.0,0.0,0.0,0.0,0.0
43035,0.0,0.0,0.0,0.0,0.0,0.0
43045,0.0,0.0,0.0,0.0,0.0,0.0
43055,0.0,0.0,0.0,0.0,0.0,0.0
43065,0.0,0.0,0.0,0.0,0.0,0.0
43075,0.0,0.0,0.0,0.0,0.0,0.0
43085,0.0,0.0,0.0,0.0,0.0,0.0
43095,0.0,0.0,0.0,0.0,0.0,0.0
43105,0.0,0.0,0.0,0.0,0.0,0.0
43115,0.0,0.0,0.0,0.0,0.0,0.0
43125,0.0,0.0,0.0,0.0,0.0,0.0
43135,0.0,0.0,0.0,0.0,0.0,0.0
43145,0.0,0.0,0.0,0.0,0.0,0.0
43155,0.0,0.0,0.0,0.0,0.0,0.0
43165,0.0,0.0,0.0,0.0,0.0,0.0
43175,0.0,0.0,0.0,0.0,0.0,0.0
43185,0.0,0.0,0.0,0.0,0.0,0.0
43195,0.0,0.0,0.0,0.0,0.0,0.0
43205,0.0,0.0,0.0,0.0,0.0,0.0
43215,0.0,0.0,0.0,0.0,0.0,0.0
43225,0.0,0.0,0.0,0.0,0.0,0.0
43235,0.0,0.0,0.0,0.0,0.0,0.0
43245,0.0,0.0,0.0,0.0,0.0,0.0
43255,0.0,0.0,0.0,0.0,0.0,0.0
43265,0.0,0.0,0.0,0.0,0.0,0.0
43275,0.0,0.0,0.0,0.0,0.0,0.0
43285,0.0,0.0,0.0,0.0,0.0,0.0
43295,0.0,0.0,0.0,0.0,0.0,0.0
43305,0.0,0.0,0.0,0.0,0.0,0.0
43315,0.0,0.0,0.0,0.0,0.0,0.0
43325,0.0,0.0,0.0,0.0,0.0,0.0
43335,0.0,0.0,0.0,0.0,0.0,0.0
43345,0.0,0.0,0.0,0.0,0.0,0.0
43355,0.0,0.0,0.0,0.0,0.0,0.0
43365,0.0,0.0,0.0,0.0,0.0,0.0
43375,0.0,0.0,0.0,0.0,0.0,0.0
43385,0.0,0.0,0.0,0.0,0.0,0.0
43395,0.0,0.0,0.0,0.0,0.0,0.0
43405,0.0,0.0,0.0,0.0,0.0,0.0
43415,0.0,0.0,0.0,0.0,0.0,0.0
43425,0.0,0.0,0.0,0.0,0.0,0.0
43435,0.0,0.0,0.0,0.0,0.0,0.0
43445,0.0,0.0,0.0,0.0,0.0,0.0
43455,0.0,0.0,0.0,0.0,0.0,0.0
43465,0.0,0.0,0.0,0.0,0.0,0.0
43475,0.0,0.0,0.0,0.0,0.0,0.0
43485,0.0,0.0,0.0,0.0,0.0,0.0
43495,0.0,0.0,0.0,0.0,0.0,0.0
43505,0.0,0.0,0.0,0.0,0.0,0.0
43515,0.0,0.0,0.0,0.0,0.0,0.0
43525,0.0,0.0,0.0,0.0,0.0,0.0
43535,0.0,0.0,0.0,0.0,0.0,0.0
43545,0.0,0.0,0.0,0.0,0.0,0.0
43555,0.0,0.0,0.0,0.0,0.0,0.0
43565,0.0,0.0,0.0,0.0,0.0,0.0
43575,0.0,0.0,0.0,0.0,0.0,0.0
43585,0.0,0.0,0.0,0.0,0.0,0.0
43595,0.0,0.0,0.0,0.0,0.0,0.0
43605,0.0,0.0,0.0,0.0,0.0,0.0
43615,0.0,0.0,0.0,0.0,0.0,0.0
43625,0.0,0.0,0.0,0.0,0.0,0.0
43635,0.0,0.0,0.0,0.0,0.0,0.0
43645,0.0,0.0,0.0,0.0,0.0,0.0
43655,0.0,0.0,0.0,0.0,0.0,0.0
43665,0.0,0.0,0.0,0.0,0.0,0.0
43675,0.0,0.0,0.0,0.0,0.0,0.0
43685,0.0,0.0,0.0,0.0,0.0,0.0
43695,0.0,0.0,0.0,0.0,0.0,0.0
43705,0.0,0.0,0.0,0.0,0.0,0.0
43715,0.0,0.0,0.0,0.0,0.0,0.0
43725,0.0,0.0,0.0,0.0,0.0,0.0
43735,0.0,0.0,0.0,0.0,0.0,0.0
43745,0.0,0.0,0.0,0.0,0.0,0.0
43755,0.0,0.0,0.0,0.0,0.0,0.0
43765,0.0,0.0,0.0,0.0,0.0,0.0
43775,0.0,0.0,0.0,0.0,0.0,0.0
43785,0.0,0.0,0.0,0.0,0.0,0.0
43795,0.0,0.0,0.0,0.0,0.0,0.0
43805,0.0,0.0,0.0,0.0,0.0,0.0
43815,0.0,0.0,0.0,0.0,0.0,0.0
43825,0.0,0.0,0.0,0.0,0.0,0.0
43835,0.0,0.0,0.0,0.0,0.0,0.0
43845,0.0,0.0,0.0,0.0,0.0,0.0
43855,0.0,0.0,0.0,0.0,0.0,0.0
43865,0.0,0.0,0.0,0.0,0.0,0.0
43875,0.0,0.0,0.0,0.0,0.0,0.0
43886,0.0,0.0,0.0,0.0,0.0,0.0
43895,0.0,0.0,0.0,0.0,0.0,0.0
43905,-4.614732097252272e-05,-4.827257362194359e-05,0.02700614184141159,0.025238705798983574,0.03764549642801285,8.45913018565625e-05
43915,3.8238431443460286e-05,-1.2293295185372699e-05,0.02703726850450039,-0.03002922236919403,-0.04068027436733246,0.0007580781821161509
43925,5.7066441513597965e-05,-2.7615144063020125e-05,0.027016175910830498,-0.029524147510528564,-0.03915445879101753,0.0004899088526144624
43935,7.123684918042272e-05,-9.064247569767758e-05,0.02698446437716484,-0.006412968039512634,-0.03568889573216438,3.499539889162406e-05
43945,8.717902528587729e-05,-0.00013284289161674678,0.027991579845547676,-0.0048331813886761665,-0.03607042133808136,0.0006663859821856022
43955,0.0031173089519143105,-0.003182225162163377,0.0278475284576416,1.497290849685669,-1.5448390245437622,0.02161436527967453
43965,0.003528757020831108,-0.003779888153076172,0.027899403125047684,1.4351119995117188,-1.4136343002319336,0.019789503887295723
43975,0.003890635445713997,-0.004000205080956221,0.02805987372994423,1.2007197141647339,-1.2777599096298218,0.013369599357247353
43985,0.0033907019533216953,-0.005857482086867094,0.02794267050921917,1.7139863967895508,-0.7871774435043335,0.01660367287695408
43995,0.003369357204064727,-0.009820021688938141,0.02724870853126049,2.984816312789917,-0.5916396975517273,0.029028786346316338
44005,0.005950916092842817,-0.009200695902109146,0.02762855961918831,2.168242931365967,-1.45626699924469,0.029669759795069695
44015,0.006678272970020771,-0.010381300002336502,0.02748984843492508,2.1660590171813965,-1.4559996128082275,0.029579414054751396
44025,0.007429094985127449,-0.011607538908720016,0.027344360947608948,2.1635377407073975,-1.4557788372039795,0.030114462599158287
44035,0.0070472476072609425,-0.012870091013610363,0.028769273310899734,2.13847017288208,-1.0520495176315308,0.026417549699544907
44045,0.007136473897844553,-0.011793787591159344,0.02922738529741764,1.366211175918579,-0.8691688179969788,0.013557545840740204
44055,0.007563531864434481,-0.012815442867577076,0.029224062338471413,1.3527116775512695,-0.8167290091514587,0.012970495969057083
44065,0.007801911327987909,-0.012329820543527603,0.029484553262591362,0.8936946392059326,-0.7143698334693909,0.004536585882306099
44075,0.007042286917567253,-0.01176993828266859,0.02948644384741783,0.485757052898407,-0.3535524308681488,0.0018761749379336834
44085,0.008664179593324661,-0.01623736135661602,0.029188206419348717,1.4430793523788452,-0.6664215326309204,0.01137715857475996
44095,0.008882465772330761,-0.016264885663986206,0.02932465262711048,1.146195650100708,-0.5817657709121704,0.007285514380782843
44105,0.008684002794325352,-0.016275322064757347,0.029473163187503815,0.880121648311615,-0.40900757908821106,0.00529317744076252
44115,0.008898938074707985,-0.016279129311442375,0.02958238683640957,0.643517792224884,-0.352559894323349,0.003464672714471817
44125,0.0054992735385894775,-0.014345847070217133,0.02961132302880287,0.017816875129938126,0.48206838965415955,0.005753165110945702
44135,0.007006652653217316,-0.014327386394143105,0.0296569112688303,-0.12917430698871613,0.18260592222213745,0.0032980800606310368
44145,0.004622925538569689,-0.00953719299286604,0.029729479923844337,-1.2137579917907715,0.6974836587905884,0.010860229842364788
44155,0.004577734973281622,-0.009670350700616837,0.02970697358250618,-1.2125040292739868,0.6966959238052368,0.01128509733825922
44165,0.007689162623137236,-0.01223353948444128,0.028827538713812828,-0.7546459436416626,0.10911141335964203,0.004103965125977993
44175,0.007905201986432076,-0.012563650496304035,0.02876371517777443,-0.7533307671546936,0.10783161222934723,0.003472692798823118
44185,0.00704991864040494,-0.012482384219765663,0.028694603592157364,-0.8200550675392151,0.2899060845375061,0.005062749143689871
44195,0.007287269923835993,-0.011623426340520382,0.02860531583428383,-1.0020734071731567,0.2705015242099762,0.006202500779181719
44205,0.00882158987224102,-0.012363430112600327,0.028579769656062126,-0.9146075248718262,0.04975874722003937,0.005898009054362774
44215,0.013135579414665699,-0.01773005537688732,0.029214901849627495,-0.15049518644809723,-0.5579936504364014,0.007002436090260744
44225,0.007815907709300518,-0.012416277080774307,0.029707614332437515,-1.0058151483535767,0.28879889845848083,0.005380257032811642
44235,0.00779580557718873,-0.012131411582231522,0.02970029041171074,-1.0656592845916748,0.3060470223426819,0.005297211464494467
44245,0.008544745855033398,-0.012615110725164413,0.029732458293437958,-1.0183943510055542,0.21719196438789368,0.004744541831314564
44255,0.004490917548537254,-0.009300720877945423,0.029355306178331375,-1.4606027603149414,0.7539348006248474,0.005906617268919945
44265,0.004287783056497574,-0.007589276880025864,0.029250549152493477,-1.654784917831421,0.7492313981056213,0.007569981273263693
44275,0.007091823033988476,-0.011662728153169155,0.029710862785577774,-1.1257615089416504,0.3857210576534271,0.0033370989840477705
44285,0.005851260852068663,-0.007924750447273254,0.02958969585597515,-1.5628461837768555,0.5291832089424133,0.0077376640401780605
44295,0.006872286554425955,-0.009232601150870323,0.02976079285144806,-1.383020281791687,0.4008776843547821,0.006646980997174978
44305,0.0031697344966232777,-0.009499947540462017,0.028578074648976326,-1.331066370010376,0.8022800087928772,-0.00015492910461034626
44315,0.005931885913014412,-0.0075749908573925495,0.028612922877073288,-1.5184155702590942,0.4739779233932495,0.008226223289966583
44325,0.00961228646337986,-0.011772939004004002,0.028914768248796463,-1.053777813911438,0.08242155611515045,0.008264955133199692
44335,0.00958047155290842,-0.01226149220019579,0.02889203652739525,-1.007664442062378,0.10290917754173279,0.006114671938121319
44345,0.009560735896229744,-0.012012999504804611,0.028918957337737083,-1.0357162952423096,0.12120172381401062,0.006264909170567989
44355,0.010019071400165558,-0.012731991708278656,0.028891146183013916,-0.9670118093490601,0.08927571028470993,0.006610190961509943
44365,0.008566888980567455,-0.011774631217122078,0.02889036387205124,-1.0626461505889893,0.24077732861042023,0.0040899342857301235
44375,0.009745943360030651,-0.012973783537745476,0.028883326798677444,-0.9505123496055603,0.13658998906612396,0.00491625489667058
44385,0.008551259525120258,-0.01179618388414383,0.02887526899576187,-1.0579414367675781,0.2551063895225525,0.0024541739840060472
44395,0.01184666994959116,-0.016752926632761955,0.028549114242196083,-0.6205313205718994,-0.03206929937005043,0.00416524475440383
44405,0.01322263851761818,-0.017181215807795525,0.028456132858991623,-0.6103371381759644,-0.12689606845378876,0.008631112053990364
44415,0.01317918673157692,-0.01807466708123684,0.028390157967805862,-0.561305582523346,-0.09663842618465424,0.006832060404121876
44425,0.013145125471055508,-0.01757023297250271,0.028399789705872536,-0.6321251392364502,-0.068771131336689,0.007118576671928167
44435,0.00987312849611044,-0.01544984895735979,0.028791211545467377,-0.8251326084136963,0.21700839698314667,0.001259906799532473
44445,0.005951689090579748,-0.014285711571574211,0.028735332190990448,-0.9266995191574097,0.5295226573944092,-0.006886813789606094
44455,0.005761506035923958,-0.014291232451796532,0.02871248871088028,-0.9285250902175903,0.5223891735076904,-0.007568333763629198
44465,0.005795272067189217,-0.014523239806294441,0.028707409277558327,-0.9092744588851929,0.4971424341201782,-0.007395345252007246
44475,0.006966175511479378,-0.014742047525942326,0.029715465381741524,-0.89277184009552,0.38750582933425903,-0.004017056431621313
44485,0.006797901354730129,-0.014771725982427597,0.029759056866168976,-0.8919028639793396,0.3874150216579437,-0.005060238763689995
44495,0.0068304347805678844,-0.01574554853141308,0.0298151932656765,-0.8189074397087097,0.37066423892974854,-0.006321947555989027
44505,0.006865571718662977,-0.015248670242726803,0.029869234189391136,-0.8600339293479919,0.3555770516395569,-0.004224061965942383
44515,0.005932237487286329,-0.014768178574740887,0.029889186844229698,-0.8969870209693909,0.41091102361679077,-0.00551006430760026
44525,0.005733859725296497,-0.01333948690444231,0.029972350224852562,-0.99562668800354,0.4091351628303528,-0.0034208595752716064
44535,0.00102336541749537,-0.01027608010917902,0.02980470471084118,-1.1982853412628174,0.7190319299697876,-0.008770071901381016
44545,0.0004816313157789409,-0.00995402317494154,0.029834434390068054,-1.197544813156128,0.7177498936653137,-0.00990989152342081
44555,0.0006071465904824436,-0.009778134524822235,0.02994556352496147,-1.1848071813583374,0.6709995865821838,-0.008478126488626003
44565,-0.001029302249662578,-0.015117272734642029,0.02972571551799774,-0.805586040019989,0.7461228370666504,-0.02265697345137596
44575,0.001333099789917469,-0.01014501228928566,0.029996149241924286,-1.1331837177276611,0.5499101281166077,-0.004238624591380358
44585,0.001668678829446435,-0.01020662859082222,0.03009059838950634,-1.1065075397491455,0.4992700517177582,-0.003186879912391305
44595,0.002475084038451314,-0.010499714873731136,0.030220774933695793,-1.0669403076171875,0.4187982976436615,-0.0011800796492025256
44605,0.0008630454540252686,-0.010575266554951668,0.029711022973060608,-1.0458952188491821,0.5017552375793457,-0.00566740520298481
44615,0.00044531936873681843,-0.01032631378620863,0.029727596789598465,-1.0424100160598755,0.4994008243083954,-0.0066548543982207775
44625,0.0013208140153437853,-0.010393715463578701,0.029811907559633255,-1.0188885927200317,0.4149561822414398,-0.0034543697256594896
44635,0.0008967151516117156,-0.010447555221617222,0.029840165749192238,-0.9989436268806458,0.4180094301700592,-0.004263964481651783
44645,-0.0005264297942630947,-0.010251486673951149,0.02981775812804699,-0.9976063966751099,0.4819352924823761,-0.006673200987279415
44655,0.00036390553577803075,-0.016085172072052956,0.02879812940955162,-0.6226925253868103,0.40224912762641907,-0.015351682901382446
44665,0.007090641185641289,-0.022680776193737984,0.028799213469028473,-0.22131983935832977,-0.03671882301568985,-0.007240224629640579
44675,0.0073305582627654076,-0.022841451689600945,0.028782011941075325,-0.23917488753795624,-0.04743032902479172,-0.005225792061537504
44685,0.008293303661048412,-0.022766700014472008,0.028760667890310287,-0.2720124423503876,-0.10526176542043686,-0.0017655394040048122
44695,0.014780795201659203,-0.03015257976949215,0.02868722751736641,0.15208816528320312,-0.49267587065696716,0.003385870950296521
44705,0.02211032807826996,-0.027643967419862747,0.02846505306661129,-0.049915861338377,-0.9064189791679382,0.021151002496480942
44715,0.023160230368375778,-0.027539106085896492,0.028445672243833542,-0.0954432412981987,-0.9159814715385437,0.021483546122908592
44725,0.023033779114484787,-0.027680840343236923,0.028597205877304077,-0.12457340955734253,-0.8542516827583313,0.020187990739941597
44735,0.022694826126098633,-0.028078876435756683,0.02876533940434456,-0.1377837359905243,-0.7841106653213501,0.018548615276813507
44745,0.01956748776137829,-0.02661244571208954,0.02976929023861885,-0.25920167565345764,-0.5510043501853943,0.01116787176579237
44755,0.02158088982105255,-0.02724010869860649,0.029683884233236313,-0.25113609433174133,-0.6373365521430969,0.012927301228046417
44765,0.02265540324151516,-0.027182554826140404,0.029696637764573097,-0.2843509614467621,-0.6610721349716187,0.012445301748812199
44776,0.023357199504971504,-0.02765040658414364,0.029714979231357574,-0.28283005952835083,-0.662323534488678,0.013308300636708736
44786,0.02248995378613472,-0.02803775481879711,0.02913522720336914,-0.2849120795726776,-0.5707199573516846,0.012365429662168026
44796,0.02310360223054886,-0.027483899146318436,0.02916581928730011,-0.34430405497550964,-0.5707473158836365,0.01087450236082077
44806,0.021106431260704994,-0.027427595108747482,0.029361741617321968,-0.3694053888320923,-0.41811472177505493,0.008527298457920551
44815,0.02198079042136669,-0.026425188407301903,0.02939576655626297,-0.4496223032474518,-0.44027894735336304,0.006500029005110264
44825,0.022138310596346855,-0.028265170753002167,0.029387714341282845,-0.3631199300289154,-0.4176226258277893,0.007523372769355774
44835,0.021365679800510406,-0.02681230753660202,0.0293385311961174,-0.46659329533576965,-0.3451620042324066,0.0035517518408596516
44845,0.022751901298761368,-0.027504609897732735,0.029305551201105118,-0.44466862082481384,-0.39603790640830994,0.004606056027114391
44855,0.02222730591893196,-0.027241170406341553,0.02937360107898712,-0.4757533371448517,-0.3392142355442047,0.0031930217519402504
44865,0.022171175107359886,-0.02812950871884823,0.02939337119460106,-0.4393690824508667,-0.3106107711791992,0.002893040655180812
44875,0.022069886326789856,-0.02601035311818123,0.0284718107432127,-0.5717583298683167,-0.2831396460533142,0.00012119849998271093
44885,0.01930725760757923,-0.022363459691405296,0.028513187542557716,-0.78025883436203,-0.11008884012699127,-0.0063545783050358295
44895,0.017924364656209946,-0.019882721826434135,0.028386281803250313,-0.912355899810791,-0.023753954097628593,-0.008591297082602978
44905,0.01792687550187111,-0.021031701937317848,0.028438717126846313,-0.8378502130508423,-0.01801184006035328,-0.007866074331104755
44915,0.022448984906077385,-0.025545349344611168,0.029243484139442444,-0.5864565968513489,-0.25640246272087097,-0.0004159730742685497
44925,0.021543463692069054,-0.02487860806286335,0.029302487149834633,-0.6287848949432373,-0.1881079375743866,-0.0020552612841129303
44935,0.020644905045628548,-0.024653054773807526,0.02934783138334751,-0.6433189511299133,-0.12476413697004318,-0.0024994544219225645
44945,0.021509969606995583,-0.024646826088428497,0.02936410903930664,-0.6456512808799744,-0.1604471057653427,-0.002912265947088599
44955,0.021766386926174164,-0.024710819125175476,0.029387706890702248,-0.644659161567688,-0.16060161590576172,-0.00328413350507617
44965,0.021998947486281395,-0.02476775273680687,0.02882286347448826,-0.6407942175865173,-0.1606101393699646,-0.002479729475453496
44975,0.02225847728550434,-0.0248278696089983,0.028811359778046608,-0.640579104423523,-0.1624261736869812,-0.0027045453898608685
44985,0.02139453962445259,-0.024814411997795105,0.028829429298639297,-0.6431527733802795,-0.10634249448776245,-0.002310723066329956
44995,0.021087858825922012,-0.02454097382724285,0.028830984607338905,-0.658637285232544,-0.08045576512813568,-0.004430247470736504
45005,0.014120813459157944,-0.019932083785533905,0.028070583939552307,-0.8937199115753174,0.28048962354660034,-0.01046066265553236
45015,0.014689517207443714,-0.018738508224487305,0.02802521176636219,-0.9398819208145142,0.23616009950637817,-0.009460107423365116
45025,0.015497724525630474,-0.019814331084489822,0.028106942772865295,-0.8669142127037048,0.18317213654518127,-0.007647172547876835
45035,0.015533528290688992,-0.021096309646964073,0.02814500220119953,-0.7861763834953308,0.1708284169435501,-0.006949068047106266
45045,0.016052482649683952,-0.03013714589178562,0.027820250019431114,-0.32654497027397156,0.136452779173851,-0.003833741880953312
45055,0.015123318880796432,-0.027920344844460487,0.027912570163607597,-0.4568435847759247,0.17649339139461517,-0.006253301631659269
45065,0.008732504211366177,-0.022895745933055878,0.027894647791981697,-0.7190690636634827,0.48488685488700867,-0.009720688685774803
45075,0.00811390858143568,-0.02173275500535965,0.027824856340885162,-0.7717651128768921,0.48678869009017944,-0.009620580822229385
45085,0.009828374721109867,-0.021523067727684975,0.028050953522324562,-0.7746970653533936,0.3711530268192291,-0.007509073242545128
45095,0.009373407810926437,-0.021366633474826813,0.027555033564567566,-0.7722631692886353,0.36997684836387634,-0.006781454663723707
45105,0.008905191905796528,-0.021198587492108345,0.02749646268785,-0.7729413509368896,0.37039998173713684,-0.007808829192072153
45115,0.00843027327209711,-0.021025892347097397,0.02743750438094139,-0.7708621025085449,0.3686550557613373,-0.00924389436841011
45125,0.008319312706589699,-0.019983846694231033,0.027377741411328316,-0.8107563257217407,0.3490794897079468,-0.008537630550563335
45135,0.004933473188430071,-0.01896587386727333,0.027917133644223213,-0.847404420375824,0.4897746443748474,-0.010632848367094994
45145,0.0056513091549277306,-0.019853126257658005,0.02803494781255722,-0.7880824208259583,0.4201873540878296,-0.0118676433339715
45155,0.006332979071885347,-0.02044178731739521,0.028131265193223953,-0.7469639778137207,0.35972702503204346,-0.011694743297994137
45165,0.0056941090151667595,-0.017903955653309822,0.02806086838245392,-0.8603065609931946,0.36487191915512085,-0.008916127495467663
45175,0.006831147707998753,-0.020277392119169235,0.028320452198386192,-0.7276501655578613,0.2837456166744232,-0.010915828868746758
45185,0.00668058218434453,-0.020318642258644104,0.028196746483445168,-0.7161213755607605,0.27056679129600525,-0.009810750372707844
45195,0.0005559733253903687,-0.01662869192659855,0.027928901836276054,-0.8897468447685242,0.5495337247848511,-0.010083777830004692
45205,0.00020574119116645306,-0.015475824475288391,0.027904240414500237,-0.9275587201118469,0.5285853147506714,-0.008287125267088413
45215,-0.0003522068145684898,-0.01609102077782154,0.027970362454652786,-0.8737754821777344,0.5204971432685852,-0.009109827689826488
45225,-0.0014291699044406414,-0.01543724536895752,0.027940494939684868,-0.8866142630577087,0.536206841468811,-0.00968766026198864
45235,0.0019650873728096485,-0.016658950597047806,0.028313232585787773,-0.8035920262336731,0.328156441450119,-0.009128933772444725
45245,0.00086541089694947,-0.016937673091888428,0.028313154354691505,-0.7743254899978638,0.3556794226169586,-0.01031997799873352
45255,0.0009447079501114786,-0.015805600211024284,0.028334837406873703,-0.8183011412620544,0.32328885793685913,-0.008733285591006279
45265,0.00031377628329209983,-0.01700056903064251,0.028408672660589218,-0.7411288022994995,0.3249260485172272,-0.011132227256894112
45275,0.0007861534249968827,-0.01676464080810547,0.02915266714990139,-0.7368117570877075,0.2689542770385742,-0.01072319969534874
45285,0.000840695749502629,-0.015879834070801735,0.029216045513749123,-0.768557608127594,0.23978732526302338,-0.008882236666977406
45295,0.00035307821235619485,-0.015581097453832626,0.029271263629198074,-0.7681182622909546,0.23970390856266022,-0.009248641319572926
45305,0.00042859563836827874,-0.016342179849743843,0.029393479228019714,-0.7138387560844421,0.2110089808702469,-0.0094999298453331
45315,0.00014308039681054652,-0.024083685129880905,0.03107079491019249,-0.30241185426712036,0.19608768820762634,-0.019709311425685883
45325,0.004873506259173155,-0.0312868170440197,0.03106185421347618,0.05569424480199814,-0.07040344178676605,-0.023519625887274742
45335,0.005354184191673994,-0.032144613564014435,0.031170256435871124,0.06932557374238968,-0.10237036645412445,-0.022628990933299065
45345,0.006057301536202431,-0.03184075281023979,0.031415753066539764,0.022201349958777428,-0.14510592818260193,-0.02146151289343834
45355,0.006059545557945967,-0.031321633607149124,0.031701091676950455,-0.034136541187763214,-0.15012848377227783,-0.02144579030573368
45365,0.001845023361966014,-0.030154170468449593,0.0305152740329504,-0.12368842214345932,0.06785399466753006,-0.02112780325114727
45375,0.0009688175050541759,-0.0296675655990839,0.030653610825538635,-0.17073677480220795,0.0966774970293045,-0.01872321590781212
45385,0.0021148910745978355,-0.03008425422012806,0.03080020099878311,-0.1680183708667755,0.019633375108242035,-0.02017269656062126
45395,0.001908977166749537,-0.029161959886550903,0.030989935621619225,-0.23528674244880676,0.015404746867716312,-0.019789334386587143
45405,0.0012577037559822202,-0.029164060950279236,0.030660154297947884,-0.25469905138015747,0.03418589383363724,-0.018868891522288322
45415,0.0021572010591626167,-0.029799701645970345,0.030760280787944794,-0.23922888934612274,-0.02790561318397522,-0.019140329211950302
45425,0.0019558025524020195,-0.029784513637423515,0.03086114302277565,-0.2568276822566986,-0.02932664006948471,-0.01818039081990719
45435,0.001733271055854857,-0.030102187767624855,0.030948719009757042,-0.2550581097602844,-0.03134496510028839,-0.017729582265019417
45445,-0.0012184684164822102,-0.032590050250291824,0.030891835689544678,-0.1435314267873764,0.10912704467773438,-0.016869310289621353
45455,-0.002315133111551404,-0.029811883345246315,0.03114774078130722,-0.3082566261291504,0.14239929616451263,-0.014931955374777317
45465,-0.0027583104092627764,-0.030075199902057648,0.031236715614795685,-0.3076581656932831,0.14108283817768097,-0.015426618047058582
45475,-0.0038777049630880356,-0.029550837352871895,0.03130849823355675,-0.3477238416671753,0.17559628188610077,-0.015445313416421413
45485,-0.0019274135120213032,-0.03023194521665573,0.031558409333229065,-0.3252203166484833,0.05063736066222191,-0.018723370507359505
45495,0.004426553379744291,-0.028572186827659607,0.03200456127524376,-0.4206486940383911,-0.284088134765625,-0.023659203201532364
45505,0.011833416298031807,-0.02924506552517414,0.03188082575798035,-0.3925744295120239,-0.6510873436927795,-0.03149070590734482
45515,0.01176530122756958,-0.0289994478225708,0.032072700560092926,-0.41169852018356323,-0.6197944283485413,-0.03156972676515579
45525,0.012844939716160297,-0.02921312302350998,0.03212910145521164,-0.407718688249588,-0.6453700065612793,-0.03207404538989067
45535,0.011670294217765331,-0.02827748842537403,0.03146767616271973,-0.46047595143318176,-0.5565610527992249,-0.029403172433376312
45545,0.010528013110160828,-0.016709640622138977,0.03161989524960518,-1.0430247783660889,-0.4746544063091278,-0.0368688739836216
45555,0.009394033811986446,-0.01675581932067871,0.03187122941017151,-1.007584571838379,-0.3990646004676819,-0.0342521145939827
45565,0.010034780949354172,-0.016799863427877426,0.03202686458826065,-0.9743913412094116,-0.4161621630191803,-0.03383304923772812
45575,0.010237803682684898,-0.017705246806144714,0.032322660088539124,-0.8968066573143005,-0.4101196825504303,-0.03142927214503288
45585,0.0074038878083229065,-0.016001669690012932,0.031873296946287155,-0.9547623991966248,-0.2531987726688385,-0.03142157569527626
45595,0.007518304977566004,-0.015406939201056957,0.03193971887230873,-0.9550939202308655,-0.25444960594177246,-0.03119797445833683
45605,0.007636399008333683,-0.014804201200604439,0.03200704976916313,-0.9524003267288208,-0.2559361457824707,-0.03050297312438488
45615,0.007863195613026619,-0.015637289732694626,0.03223805874586105,-0.8770797252655029,-0.2617553174495697,-0.029607480391860008
45625,0.010947974398732185,-0.022431891411542892,0.03213561698794365,-0.5124632120132446,-0.41054219007492065,-0.020623717457056046
45635,0.011273917742073536,-0.022377265617251396,0.032205261290073395,-0.5131295919418335,-0.4110127091407776,-0.02061765268445015
45645,0.011451062746345997,-0.022388441488146782,0.03228208050131798,-0.5099292397499084,-0.4046175181865692,-0.020810024812817574
45655,0.011387297883629799,-0.023387493565678596,0.032363977283239365,-0.4571366310119629,-0.38618990778923035,-0.018164727836847305
45665,0.01202332228422165,-0.02292497083544731,0.03139498457312584,-0.48103269934654236,-0.40372607111930847,-0.02029283158481121
45675,0.011731441132724285,-0.022931411862373352,0.03142257779836655,-0.4797531068325043,-0.3732856512069702,-0.0202252846211195
45685,0.011677740141749382,-0.02842092514038086,0.03139827027916908,-0.20702634751796722,-0.3561594486236572,-0.011368867941200733
45695,0.010932821780443192,-0.028138594701886177,0.03148188441991806,-0.23562632501125336,-0.3050268590450287,-0.011467261239886284
45705,0.00949917919933796,-0.03089703433215618,0.031357068568468094,-0.11151254177093506,-0.22219662368297577,-0.006866579409688711
45715,0.008994868956506252,-0.03224223852157593,0.030699938535690308,-0.06582673639059067,-0.1921321004629135,-0.005370780825614929
45725,0.009085448458790779,-0.032755717635154724,0.03066236898303032,-0.06391584128141403,-0.19096656143665314,-0.0044969902373850346
45735,0.00917842984199524,-0.033277060836553574,0.030624814331531525,-0.06356033682823181,-0.1910979002714157,-0.005137793254107237
45745,0.008645846508443356,-0.032380636781454086,0.030729899182915688,-0.13318824768066406,-0.1598798781633377,-0.00607942184433341
45755,0.008697755634784698,-0.03283221647143364,0.03039543144404888,-0.1319449543952942,-0.15983989834785461,-0.005855659022927284
45765,0.014012235216796398,-0.027118811383843422,0.03069915995001793,-0.4381966292858124,-0.42132237553596497,-0.02102569490671158
45775,0.014380404725670815,-0.0272232498973608,0.030672352761030197,-0.4367677867412567,-0.42098039388656616,-0.021736636757850647
45785,0.013362787663936615,-0.027175744995474815,0.030716300010681152,-0.44394978880882263,-0.3523070216178894,-0.020332589745521545
45795,0.012967094779014587,-0.027948731556534767,0.029596557840704918,-0.40888726711273193,-0.3204469382762909,-0.0191161148250103
45805,0.01950756274163723,-0.03241852670907974,0.02933390997350216,-0.19412438571453094,-0.6280738115310669,-0.0168029572814703
45815,0.02012673392891884,-0.032802797853946686,0.029236428439617157,-0.19265738129615784,-0.6274296641349792,-0.014271849766373634
45825,0.020754272118210793,-0.03319280222058296,0.029139546677470207,-0.19130191206932068,-0.626934289932251,-0.01544873509556055
45835,0.01934141479432583,-0.033034294843673706,0.02925937995314598,-0.21784187853336334,-0.5245032906532288,-0.013695700094103813
45845,0.019121814519166946,-0.04085300862789154,0.02890237793326378,0.14505963027477264,-0.4882468283176422,0.0008875348721630871
45855,0.0196211077272892,-0.04163436219096184,0.02880127914249897,0.14517557621002197,-0.4865465760231018,0.0008060915279202163
45865,0.020580660551786423,-0.04188523441553116,0.028727974742650986,0.11965811997652054,-0.5090165734291077,-0.0007125203846953809
45876,0.01923692598938942,-0.040155068039894104,0.028982263058423996,-0.00043606467079371214,-0.4197780191898346,-0.0026582088321447372
45885,0.017401542514562607,-0.04131943732500076,0.028974371030926704,0.02422735095024109,-0.31238365173339844,0.00018706948321778327
45895,0.017601151019334793,-0.04254085198044777,0.028879648074507713,0.044643715023994446,-0.30438151955604553,0.0011527262395247817
45905,0.01995464228093624,-0.04067693650722504,0.02893870882689953,-0.07820574939250946,-0.39850470423698425,-0.0061869071796536446
45915,0.020395612344145775,-0.04126793518662453,0.02887129783630371,-0.07811883091926575,-0.39952361583709717,-0.006595168262720108
45925,0.01939532533288002,-0.040777649730443954,0.028938893228769302,-0.12967994809150696,-0.3300115168094635,-0.0063835433684289455
45935,0.013218371197581291,-0.040895696729421616,0.029504625126719475,-0.1496376246213913,-0.019607778638601303,0.0015984480269253254
45945,0.018634330481290817,-0.03533507511019707,0.029801396653056145,-0.43563035130500793,-0.2741362452507019,-0.016766294836997986
45955,0.019873283803462982,-0.035269711166620255,0.029777156189084053,-0.44686833024024963,-0.3157096207141876,-0.019408894702792168
45965,0.01610245555639267,-0.029716726392507553,0.02989041805267334,-0.7166541218757629,-0.1223384365439415,-0.021591471508145332
45975,0.01316190604120493,-0.02400372177362442,0.028558988124132156,-0.9737061858177185,0.018893897533416748,-0.0247007105499506
45985,0.012135609984397888,-0.017511606216430664,0.028002705425024033,-1.2564533948898315,0.06344549357891083,-0.029527105391025543
45995,0.012409712187945843,-0.018439169973134995,0.02813003771007061,-1.1744215488433838,0.04642209783196449,-0.028777899220585823
46005,0.012424874119460583,-0.01784391701221466,0.028055235743522644,-1.1724148988723755,0.04693014547228813,-0.029045727103948593
46015,0.011232907883822918,-0.017965519800782204,0.028045278042554855,-1.131576418876648,0.0981702134013176,-0.028352750465273857
46025,0.011279359459877014,-0.022857854142785072,0.02882247604429722,-0.8685513734817505,0.08952862024307251,-0.022864926606416702
46035,0.01115627121180296,-0.022505054250359535,0.028788365423679352,-0.8666101098060608,0.08917230367660522,-0.023511840030550957
46045,0.01118454523384571,-0.022832198068499565,0.028793318197131157,-0.8343984484672546,0.08159012347459793,-0.023174019530415535
46055,0.01106353010982275,-0.02250509336590767,0.028762012720108032,-0.8335704803466797,0.08094761520624161,-0.02379835583269596
46065,0.010072043165564537,-0.022049348801374435,0.0296592079102993,-0.8366369009017944,0.1215772032737732,-0.024147873744368553
46075,0.00986448023468256,-0.019833575934171677,0.02961847186088562,-0.9240680932998657,0.12102668732404709,-0.024199267849326134
46085,0.008398492820560932,-0.024948012083768845,0.029923195019364357,-0.6614517569541931,0.17947082221508026,-0.02426653355360031
46095,0.007219410501420498,-0.02398400753736496,0.029918614774942398,-0.6988936066627502,0.2215653508901596,-0.024175260215997696
46105,0.004836233798414469,-0.02524830587208271,0.029852325096726418,-0.6301889419555664,0.31657084822654724,-0.026225265115499496
46115,0.007779764011502266,-0.02503081224858761,0.029707835987210274,-0.6346349120140076,0.1568167805671692,-0.025445861741900444
46125,0.006160466466099024,-0.024100033566355705,0.029686270281672478,-0.6733288764953613,0.21998633444309235,-0.026213079690933228
46135,0.004340886138379574,-0.02178283967077732,0.029599931091070175,-0.7749096751213074,0.28994569182395935,-0.02550795115530491
46145,0.003471661824733019,-0.021358422935009003,0.0295704398304224,-0.7802150249481201,0.31028440594673157,-0.02578430064022541
46155,0.00035423689405433834,-0.02006899192929268,0.028276201337575912,-0.829082727432251,0.4371456503868103,-0.026371341198682785
46165,0.00041113453335128725,-0.02100873365998268,0.02832813188433647,-0.7640831470489502,0.4035341739654541,-0.026967601850628853
46175,0.0024788693990558386,-0.021476907655596733,0.028542160987854004,-0.724443256855011,0.27323445677757263,-0.026243150234222412
46185,0.0038397228345274925,-0.023486923426389694,0.028695521876215935,-0.6121278405189514,0.18471993505954742,-0.028115248307585716
46195,0.0034748727921396494,-0.02334529533982277,0.029255526140332222,-0.611160397529602,0.1839628517627716,-0.027757039293646812
46205,0.009759193286299706,-0.019094908609986305,0.029379308223724365,-0.8004456162452698,-0.12535758316516876,-0.020124411210417747
46215,0.009818622842431068,-0.0187211986631155,0.02939332090318203,-0.8006312251091003,-0.12402622401714325,-0.01928160898387432
46225,0.009812718257308006,-0.01944921165704727,0.02947346679866314,-0.7432730197906494,-0.1226121038198471,-0.020090192556381226
46235,0.009869995526969433,-0.019135894253849983,0.029492266476154327,-0.7415094971656799,-0.12274349480867386,-0.019392063841223717
46245,0.010025717318058014,-0.01882961392402649,0.029742218554019928,-0.7422595620155334,-0.1280316561460495,-0.019136734306812286
46255,0.010087990202009678,-0.018506580963730812,0.029776541516184807,-0.7415372133255005,-0.12935586273670197,-0.019265327602624893
46265,0.01023097150027752,-0.018873637542128563,0.029849112033843994,-0.7064764499664307,-0.13718464970588684,-0.018989088013768196
46275,0.010301521047949791,-0.01858411729335785,0.029886936768889427,-0.7047724723815918,-0.13705113530158997,-0.01908627338707447
46285,0.012384315952658653,-0.019333185628056526,0.02952544204890728,-0.6520148515701294,-0.2419911026954651,-0.017661090940237045
46295,0.012578180059790611,-0.01909971795976162,0.02954048663377762,-0.6516857743263245,-0.24311795830726624,-0.01802813820540905
46305,0.01012121606618166,-0.018406212329864502,0.029649028554558754,-0.6737857460975647,-0.11327211558818817,-0.019089585170149803
46315,0.010169394314289093,-0.01814144290983677,0.02966686151921749,-0.6728680729866028,-0.11383116245269775,-0.020281236618757248
46325,0.010410849004983902,-0.01895703375339508,0.029718326404690742,-0.6201699376106262,-0.12416581809520721,-0.02157006226480007
46335,0.008897743187844753,-0.01901361346244812,0.02942533977329731,-0.6067212224006653,-0.04772027209401131,-0.0230936948210001
46345,0.002535479376092553,-0.014219284988939762,0.02933213859796524,-0.8296558856964111,0.26222318410873413,-0.02501639723777771
46355,0.0021417043171823025,-0.013759809546172619,0.029323140159249306,-0.8280556201934814,0.2623913884162903,-0.025257393717765808
46365,0.0009558474412187934,-0.013862867839634418,0.029296088963747025,-0.7970885038375854,0.2995017468929291,-0.02615858055651188
46375,0.0023185054305940866,-0.014979076571762562,0.02931481972336769,-0.7187213897705078,0.2112889289855957,-0.025122635066509247
46385,0.0025343610905110836,-0.014513034373521805,0.029328694567084312,-0.724372386932373,0.1813640147447586,-0.025387445464730263
46395,0.0022062608040869236,-0.014139688573777676,0.029321294277906418,-0.7204811573028564,0.17999865114688873,-0.02447221614420414
46405,0.0018742824904620647,-0.013760912232100964,0.029313290491700172,-0.7193227410316467,0.18047896027565002,-0.025035981088876724
46415,0.0022255610674619675,-0.01491131167858839,0.028822559863328934,-0.6451312899589539,0.14598201215267181,-0.026172861456871033
46425,0.004565751180052757,-0.012696584686636925,0.028819583356380463,-0.7382270693778992,0.0158698633313179,-0.021550072357058525
46435,0.002077960642054677,-0.014041694812476635,0.02883150242269039,-0.6517186164855957,0.12900473177433014,-0.02361982874572277
46445,0.0021399320103228092,-0.014358911663293839,0.028829634189605713,-0.6193121075630188,0.1111283153295517,-0.024307141080498695
46455,0.002428706269711256,-0.014903643168509007,0.028838811442255974,-0.5768619179725647,0.08489926159381866,-0.02543446235358715
46465,0.0012174858711659908,-0.014624716714024544,0.03052857704460621,-0.573096752166748,0.12858864665031433,-0.02534889243543148
46475,0.0027184649370610714,-0.019022006541490555,0.030709965154528618,-0.3437657952308655,0.037416353821754456,-0.028340278193354607
46485,0.0037085593212395906,-0.019259341061115265,0.03079358860850334,-0.33172696828842163,-0.022674191743135452,-0.027795083820819855
46495,0.003729959949851036,-0.019019389525055885,0.030872268602252007,-0.34384265542030334,-0.030335906893014908,-0.02825029380619526
46505,0.0037755202502012253,-0.01929645799100399,0.029735621064901352,-0.3312489092350006,-0.03822404146194458,-0.02778014726936817
46515,0.0035616522654891014,-0.019992699846625328,0.02972973883152008,-0.29805609583854675,-0.033031947910785675,-0.029726175591349602
46525,0.0031032473780214787,-0.01905716396868229,0.029756903648376465,-0.34754544496536255,-0.02028215117752552,-0.027707934379577637
46535,0.0031237551011145115,-0.01928439363837242,0.029762715101242065,-0.3379371762275696,-0.029861552640795708,-0.02813742682337761
46545,0.00650473777204752,-0.019033348187804222,0.029789265245199203,-0.3517199158668518,-0.21139368414878845,-0.029680302366614342
46555,0.006591619923710823,-0.01906566321849823,0.029047654941678047,-0.35008183121681213,-0.20885370671749115,-0.029194777831435204
46565,0.005911512300372124,-0.020415151491761208,0.029020672664046288,-0.2863006293773651,-0.17261379957199097,-0.02977687120437622
46575,0.00568119902163744,-0.01681293547153473,0.0290734451264143,-0.46733129024505615,-0.1584065705537796,-0.02696710079908371
46585,0.00746913580223918,-0.017938047647476196,0.029044903814792633,-0.405889630317688,-0.24450339376926422,-0.02863740734755993
46595,0.007588701788336039,-0.01788564957678318,0.029828082770109177,-0.4046749472618103,-0.24341675639152527,-0.028723524883389473
46605,0.012516734190285206,-0.01860741898417473,0.02973422035574913,-0.3660462498664856,-0.478328138589859,-0.03137233853340149
46615,0.01876828633248806,-0.01768077351152897,0.029314925894141197,-0.41256052255630493,-0.7633144855499268,-0.033400628715753555
46625,0.020761124789714813,-0.017692532390356064,0.029124215245246887,-0.40867024660110474,-0.8204771876335144,-0.03375488147139549
46635,0.018845759332180023,-0.017462031915783882,0.029604200273752213,-0.41716867685317993,-0.6846250295639038,-0.03233001381158829
46645,0.014940910041332245,-0.01882205717265606,0.030663438141345978,-0.3483641445636749,-0.46091970801353455,-0.028998132795095444
46655,0.019424378871917725,-0.018146416172385216,0.030538447201251984,-0.38192251324653625,-0.6570339798927307,-0.031996168196201324
46665,0.019597820937633514,-0.01882694847881794,0.030657775700092316,-0.3457707166671753,-0.6318085789680481,-0.03169598430395126
46675,0.018890416249632835,-0.018147924914956093,0.030887888744473457,-0.37992170453071594,-0.5635716319084167,-0.032555047422647476
46685,0.018373476341366768,-0.018373146653175354,0.030200937762856483,-0.3693046569824219,-0.5106573700904846,-0.03177112713456154
46695,0.014822006225585938,-0.019470220431685448,0.030467446893453598,-0.3176015615463257,-0.3117085099220276,-0.025803258642554283
46705,0.01510449405759573,-0.019555214792490005,0.03052164427936077,-0.3159238398075104,-0.30991774797439575,-0.027018465101718903
46715,0.016006797552108765,-0.020011931657791138,0.030557073652744293,-0.29722923040390015,-0.3399382531642914,-0.02655141055583954
46725,0.014045700430870056,-0.01953624002635479,0.029060261324048042,-0.3268134593963623,-0.23149052262306213,-0.024638822302222252
46735,0.01426201406866312,-0.012870126403868198,0.02907603606581688,-0.6548927426338196,-0.23331159353256226,-0.03338315337896347
46745,0.015137767419219017,-0.005628602579236031,0.02859329618513584,-0.987209677696228,-0.26743951439857483,-0.042493224143981934
46755,0.014443518593907356,-0.005470060743391514,0.02862977236509323,-0.9557449817657471,-0.2216201275587082,-0.04167390987277031
46766,0.017206324264407158,-0.008557778783142567,0.02909477800130844,-0.7575416564941406,-0.3488553464412689,-0.0370236299932003
46775,0.017562905326485634,-0.008041860535740852,0.029017368331551552,-0.7566733956336975,-0.3508182168006897,-0.03777347505092621
46785,0.015339801087975502,-0.006086600944399834,0.0289823766797781,-0.8253112435340881,-0.22473132610321045,-0.03803090378642082
46795,0.014887578785419464,-0.004807197023183107,0.028893277049064636,-0.8562105894088745,-0.19376815855503082,-0.039362724870443344
46805,0.014445427805185318,-0.005492385942488909,0.02901233173906803,-0.7906815409660339,-0.16344834864139557,-0.036886002868413925
46815,0.015315514989197254,-0.006605746224522591,0.029083531349897385,-0.70350182056427,-0.2006136178970337,-0.03542428836226463
46825,0.01548731978982687,-0.006125403568148613,0.02906348742544651,-0.7027998566627502,-0.20113447308540344,-0.03556868061423302
46835,0.015660781413316727,-0.005640754476189613,0.029042165726423264,-0.7023870348930359,-0.2010594606399536,-0.03515012934803963
46845,0.015631280839443207,-0.0062137022614479065,0.029092848300933838,-0.6461979746818542,-0.190729022026062,-0.033555082976818085
46856,0.014886220917105675,-0.006039921194314957,0.029106678441166878,-0.6328602433204651,-0.14501065015792847,-0.03304605558514595
46865,0.013429115526378155,-0.00873357430100441,0.029159842059016228,-0.47459909319877625,-0.06579215079545975,-0.030679870396852493
46875,0.014135483652353287,-0.013252235017716885,0.029211970046162605,-0.23483416438102722,-0.10195422172546387,-0.025471871718764305
46885,0.014124315232038498,-0.013480771332979202,0.029205890372395515,-0.22424213588237762,-0.09698283672332764,-0.02512338198721409
46896,0.014116831123828888,-0.014404650777578354,0.029171697795391083,-0.18160365521907806,-0.09342266619205475,-0.025088878348469734
46906,0.01815640553832054,-0.018190544098615646,0.02941671572625637,0.004745817743241787,-0.29463085532188416,-0.02269613742828369
46916,0.013360010460019112,-0.015874730423092842,0.029791681095957756,-0.12887591123580933,-0.03610303997993469,-0.023172616958618164
46926,0.014036630280315876,-0.015859628096222878,0.02984192781150341,-0.1391277313232422,-0.07021497935056686,-0.023734351620078087
46935,0.0138090830296278,-0.016745703294873238,0.02984309010207653,-0.10290106385946274,-0.057256538420915604,-0.023500259965658188
46946,0.018023375421762466,-0.020072858780622482,0.02940596081316471,0.06506798416376114,-0.286837637424469,-0.025760307908058167
46956,0.018295330926775932,-0.02049892395734787,0.02941012568771839,0.06531411409378052,-0.285230427980423,-0.024279821664094925
46966,0.020185137167572975,-0.019342295825481415,0.029456011950969696,-0.017399514093995094,-0.36923664808273315,-0.027478931471705437
46976,0.020558077841997147,-0.019696006551384926,0.029460113495588303,-0.019420070573687553,-0.37006115913391113,-0.027488669380545616
46986,0.01961478218436241,-0.020121848210692406,0.02954106219112873,-0.015682034194469452,-0.30301517248153687,-0.024171557277441025
46996,0.019359834492206573,-0.0191667303442955,0.029816817492246628,-0.08345168828964233,-0.2739931046962738,-0.024665843695402145
47006,0.019800253212451935,-0.018230710178613663,0.029880959540605545,-0.14736108481884003,-0.28402116894721985,-0.02691839262843132
47016,0.02000400982797146,-0.018889721482992172,0.029902560636401176,-0.1255868375301361,-0.2786201536655426,-0.026802007108926773
47026,0.019097337499260902,-0.017981473356485367,0.030020371079444885,-0.18682707846164703,-0.2152494639158249,-0.026193615049123764
47036,0.019967107102274895,-0.017961662262678146,0.029615120962262154,-0.19693824648857117,-0.2492046356201172,-0.028242619708180428
47046,0.01953292265534401,-0.017972256988286972,0.029649529606103897,-0.20445269346237183,-0.2126806080341339,-0.02624228224158287
47056,0.022631488740444183,-0.018853772431612015,0.02959088422358036,-0.16800357401371002,-0.3616740107536316,-0.02976612001657486
47066,0.02282802388072014,-0.019062625244259834,0.029608571901917458,-0.1692289113998413,-0.3510936498641968,-0.030472049489617348
47076,0.022585922852158546,-0.01905227079987526,0.029658358544111252,-0.18153946101665497,-0.317099928855896,-0.030329957604408264
47086,0.022550391033291817,-0.022333210334181786,0.029348455369472504,-0.023110179230570793,-0.29585209488868713,-0.02717520296573639
47095,0.022095242515206337,-0.02536664716899395,0.02923446148633957,0.11298727989196777,-0.25559911131858826,-0.022537684068083763
47106,0.0223909392952919,-0.025953058153390884,0.029216565191745758,0.11466579884290695,-0.2545446455478668,-0.02317686937749386
47116,0.023055315017700195,-0.026120604947209358,0.029226701706647873,0.09201006591320038,-0.27379512786865234,-0.02364231087267399
47126,0.022801851853728294,-0.026766156777739525,0.02954096533358097,0.0954035073518753,-0.24401167035102844,-0.02300926111638546
47136,0.02435527741909027,-0.03307586535811424,0.029132582247257233,0.3855828046798706,-0.30890434980392456,-0.022369559854269028
47146,0.028163723647594452,-0.032099660485982895,0.029223131015896797,0.2874080538749695,-0.48142921924591064,-0.030594976618885994
47155,0.02790028601884842,-0.03092014417052269,0.02953634224832058,0.18455329537391663,-0.4388720691204071,-0.030477920547127724
47166,0.02844797633588314,-0.03166351094841957,0.029538678005337715,0.18399333953857422,-0.4395604431629181,-0.029527630656957626
47176,0.0276333037763834,-0.03151272237300873,0.028559498488903046,0.139478862285614,-0.3739657402038574,-0.026612598448991776
47186,0.029451843351125717,-0.033061884343624115,0.028376899659633636,0.18045416474342346,-0.4415479302406311,-0.028312409296631813
47196,0.027766665443778038,-0.03205249831080437,0.028647515922784805,0.0935918465256691,-0.33017122745513916,-0.024644702672958374
47206,0.029108043760061264,-0.031986482441425323,0.02862377092242241,0.059333689510822296,-0.37465137243270874,-0.028112586587667465
47216,0.027463003993034363,-0.031015686690807343,0.02892649732530117,-0.021394824609160423,-0.26983168721199036,-0.024637622758746147
47226,0.028563061729073524,-0.030966036021709442,0.028915002942085266,-0.05068720132112503,-0.30471646785736084,-0.027476482093334198
47236,0.028301699087023735,-0.031148476526141167,0.028942005708813667,-0.06616193056106567,-0.2715311348438263,-0.025877172127366066
47246,0.028271829709410667,-0.03177956864237785,0.028938965871930122,-0.06047818064689636,-0.2517539858818054,-0.024421483278274536
47256,0.028489448130130768,-0.03177078813314438,0.029421526938676834,-0.08688955008983612,-0.24424627423286438,-0.024561883881688118
47266,0.027566732838749886,-0.03173801675438881,0.029494987800717354,-0.11174645274877548,-0.1809750348329544,-0.020965084433555603
47275,0.028215691447257996,-0.0288319643586874,0.02964298613369465,-0.27493441104888916,-0.19981777667999268,-0.0261901393532753
47286,0.028503328561782837,-0.029081320390105247,0.02968023717403412,-0.2750384211540222,-0.2003009170293808,-0.024965912103652954
47297,0.02753116935491562,-0.02859564498066902,0.029872318729758263,-0.3154822289943695,-0.13766489923000336,-0.02202882058918476
47305,0.027737587690353394,-0.028798475861549377,0.029921596869826317,-0.3141099810600281,-0.13867375254631042,-0.02207113429903984
