timestamp (ms),stateEstimate.x,stateEstimate.y,stateEstimate.z,stabilizer.roll,stabilizer.pitch,stabilizer.yaw
11010,5.92686228628736e-05,-2.5031284167198464e-05,-3.013381501659751e-06,-0.0006208937847986817,0.000806342635769397,-0.00010883761569857597
11021,0.00011888679000549018,-5.654956112266518e-05,0.7229987382888794,-0.0020466959103941917,0.00085872394265607,2.127278821717482e-05
11031,0.0001318256981903687,-5.238441372057423e-05,0.02500121481716633,-0.007752385921776295,0.014381770975887775,0.0006293476326391101
11041,-0.0004216953821014613,-0.0003834062663372606,0.025022033601999283,0.11869397014379501,0.27584177255630493,0.0009087675716727972
11051,0.00024150332319550216,-0.00019270213670097291,0.025104470551013947,-0.015486062504351139,-0.08578220754861832,0.00280973338522017
11060,0.00033687922405079007,-0.00025185232516378164,0.02506287582218647,-0.0161382295191288,-0.08634665608406067,0.0016568053979426622
11071,0.00044573232298716903,-0.00031927364761941135,0.025012219324707985,-0.017036620527505875,-0.08798718452453613,0.0025071860291063786
11081,-0.00046615159953944385,-0.0020434653852134943,0.02598518133163452,0.7993465662002563,0.3931572437286377,-0.0003416111576370895
11091,-0.000492122198920697,-0.002147355116903782,0.02596440725028515,0.6703547835350037,0.38314008712768555,-0.00045231491094455123
11101,-0.0005276899319142103,-0.0025038353633135557,0.0258933212608099,0.6702591180801392,0.38474586606025696,0.0005547765758819878
11111,-0.0011543122818693519,-0.0025391867384314537,0.025844603776931763,0.5418436527252197,0.6152561902999878,-0.00022079769405536354
11121,-0.0034391034860163927,-0.00016299331036861986,0.026313861832022667,-0.4574592113494873,1.4123884439468384,0.012804755941033363
11131,-0.0041400110349059105,0.001988220727071166,0.02616516873240471,-1.2060165405273438,1.5145400762557983,0.02609378844499588
11141,-0.004264824092388153,0.0007041983189992607,0.0262261051684618,-0.6808480024337769,1.4027894735336304,0.015401792712509632
11151,-0.0042013442143797874,-0.00023612276709172875,0.02621614933013916,-0.34778526425361633,1.2440885305404663,0.009449522942304611
11161,-0.004337390419095755,-0.0027271497529000044,0.026464559137821198,0.43161338567733765,1.1910743713378906,-0.002781985094770789
11171,-0.0047001102939248085,-0.0030441083945333958,0.026378655806183815,0.43136149644851685,1.1881152391433716,-0.001520901801995933
11181,-0.004745214246213436,-0.0012342067202553153,0.026411516591906548,-0.1537567675113678,1.0978251695632935,0.008391323499381542
11191,-0.0047712018713355064,-0.00105059496127069,0.026341471821069717,-0.22933821380138397,1.014773964881897,0.011271762661635876
11201,-0.003983643371611834,-0.0013597782235592604,0.026558689773082733,-0.16833141446113586,0.7254500985145569,0.009612747468054295
11211,-0.0041843075305223465,-0.0014683702029287815,0.02647487074136734,-0.16831934452056885,0.7226015329360962,0.01151135191321373
11221,-0.006467074155807495,-0.005632989574223757,0.026307234540581703,0.7406949400901794,1.1888116598129272,-0.005985299125313759
11231,-0.007311002351343632,-0.005836432799696922,0.026206929236650467,0.6704028248786926,1.280643343925476,-0.004263849928975105
11241,-0.006425801664590836,-0.005817943252623081,0.026237281039357185,0.5603336095809937,1.0026516914367676,-0.0007172957411967218
11251,-0.007076708599925041,-0.004469514358788729,0.026539381593465805,0.20034834742546082,1.059035301208496,0.006248877849429846
11260,-0.004137915093451738,0.0013865361688658595,0.026764309033751488,-0.9510897994041443,0.4394034445285797,0.0224058348685503
11270,-0.004205707926303148,0.0016350459773093462,0.026712916791439056,-0.9503769278526306,0.43864455819129944,0.022724371403455734
11280,-0.004268811549991369,0.001891237567178905,0.026661431416869164,-0.951574444770813,0.4367455542087555,0.022746698930859566
11291,-0.005358547903597355,-0.004141299985349178,0.026202917098999023,0.10557880252599716,0.6114628911018372,0.010464203543961048
11301,-0.005506341345608234,-0.004443085752427578,0.026121707633137703,0.10641918331384659,0.6085086464881897,0.010005240328609943
11311,-0.00544375367462635,-0.005213082302361727,0.026027990505099297,0.17409594357013702,0.5793976783752441,0.00985121913254261
11321,-0.00420098751783371,0.0008816006011329591,0.026169655844569206,-0.7283563017845154,0.3861127197742462,0.02140868827700615
11331,-0.0041977036744356155,0.001988458912819624,0.026058193296194077,-0.8551303148269653,0.3869495689868927,0.021869350224733353
11340,-0.004200596362352371,0.001032486674375832,0.026003021746873856,-0.7011092901229858,0.38880667090415955,0.02278423123061657
11351,-0.004193607252091169,0.0011863036779686809,0.02593180723488331,-0.7007718682289124,0.3887494206428528,0.024074332788586617
11361,-0.005766792222857475,0.0011060490505769849,0.025885503739118576,-0.6720519065856934,0.5780134797096252,0.023541873320937157
11370,-0.0044977739453315735,0.000736636109650135,0.025837859138846397,-0.6110326647758484,0.42047494649887085,0.023536043241620064
11381,-0.004511130508035421,0.0008514525834470987,0.026321636512875557,-0.6099650263786316,0.41878870129585266,0.023001713678240776
11390,0.002694230992347002,0.0027452714275568724,0.026210688054561615,-0.7971307039260864,-0.3499513268470764,0.025845063850283623
11400,0.003233053721487522,0.0029957920778542757,0.026168890297412872,-0.7986435294151306,-0.3488673269748688,0.02594788558781147
11411,0.0037915233988314867,0.0032520091626793146,0.026128478348255157,-0.7985494136810303,-0.3492955267429352,0.026524420827627182
11422,0.00213435385376215,0.006053931079804897,0.02622409351170063,-1.0540955066680908,-0.1254175305366516,0.026151463389396667
11430,0.002567094983533025,0.006510282400995493,0.026547186076641083,-1.0537360906600952,-0.1258038431406021,0.02709066867828369
11441,0.0030139731243252754,0.0069724805653095245,0.026538075879216194,-1.0519167184829712,-0.12464634329080582,0.026428716257214546
11451,0.002642066916450858,0.01339111290872097,0.026272082701325417,-1.5686650276184082,-0.05334418639540672,0.026136379688978195
11461,0.0005240524187684059,0.0131128104403615,0.026469800621271133,-1.4697339534759521,0.1603272408246994,0.02562655508518219
11471,0.0014020607341080904,0.013272449374198914,0.026721805334091187,-1.4137787818908691,0.1114070788025856,0.02653149701654911
11481,0.003252933034673333,0.01516050100326538,0.02661900408565998,-1.4995688199996948,-0.011323592625558376,0.027842387557029724
11491,0.0020189424976706505,0.012653440237045288,0.02694370038807392,-1.2322946786880493,0.11782488226890564,0.028114981949329376
11501,0.0011911228066310287,0.011624875478446484,0.027093995362520218,-1.0995582342147827,0.20582827925682068,0.02752411551773548
11511,0.0016913727158680558,0.011315546929836273,0.027089668437838554,-1.0318022966384888,0.18904030323028564,0.028200872242450714
11521,-6.217160262167454e-06,0.01198534481227398,0.027138693258166313,-1.0405499935150146,0.33581212162971497,0.02669898420572281
11531,0.0008388531277887523,0.010495261289179325,0.027230272069573402,-0.8888013958930969,0.28671032190322876,0.028144603595137596
11541,0.0007415775908157229,0.01120777428150177,0.02725645899772644,-0.9079928398132324,0.30989009141921997,0.027737492695450783
11550,0.0009513371624052525,0.011020256206393242,0.02730494737625122,-0.8637350797653198,0.30999064445495605,0.029190313071012497
11561,-0.0006064969347789884,0.008187185041606426,0.027267402037978172,-0.6323204040527344,0.4345664083957672,0.02745307795703411
11570,-0.0006534670246765018,0.006064097862690687,0.02728637307882309,-0.4651898145675659,0.4475824236869812,0.02878004126250744
11580,0.0007322911988012493,0.009460506029427052,0.02738010510802269,-0.6900078058242798,0.35980892181396484,0.02965741604566574
11590,-0.0007499769562855363,0.00935319159179926,0.02743159793317318,-0.6630921363830566,0.47590434551239014,0.026952330023050308
11600,0.0014158319681882858,0.009188222698867321,0.02641388215124607,-0.6365603804588318,0.33528468012809753,0.029848385602235794
11610,0.0007935184985399246,0.0032965820282697678,0.02643434703350067,-0.2225310206413269,0.39117974042892456,0.030453160405158997
11622,0.001565502374432981,0.0033309380523860455,0.026407137513160706,-0.2318197786808014,0.3516805171966553,0.02947256527841091
11630,0.00043137275497429073,0.003084511263296008,0.026398194953799248,-0.2216125726699829,0.44212931394577026,0.02971656061708927
11642,0.0005875527276657522,0.00299154338426888,0.0263721514493227,-0.220838263630867,0.44245973229408264,0.02918577753007412
11650,-0.001156728365458548,0.004507409408688545,0.027575604617595673,-0.32235056161880493,0.5680335760116577,0.029087910428643227
11660,0.00022837435244582593,0.0036706712562590837,0.027610167860984802,-0.2685687839984894,0.48071610927581787,0.029611459001898766
11670,0.0003683751856442541,0.0036097210831940174,0.02765103429555893,-0.2694135308265686,0.4811062812805176,0.0298321470618248
11680,0.0006084507331252098,0.003332457970827818,0.027685999870300293,-0.2545238733291626,0.47352033853530884,0.03086097165942192
11690,0.0002408061845926568,0.0018817491363734007,0.02699451707303524,-0.1711055338382721,0.5052652359008789,0.0305019523948431
11700,-8.856906788423657e-05,-0.005772030912339687,0.02679598703980446,0.29045453667640686,0.5331035256385803,0.028461160138249397
11710,-0.002969031222164631,-0.008688145317137241,0.02659420669078827,0.43147823214530945,0.7169149518013,0.02723787911236286
11720,-0.0032236312981694937,-0.008444733917713165,0.02666931226849556,0.3709764778614044,0.7263486981391907,0.02784930355846882
11730,-0.003286617575213313,-0.009126398712396622,0.02664850652217865,0.37048009037971497,0.7257131338119507,0.028290722519159317
11740,-0.003333207219839096,-0.00981382466852665,0.028087319806218147,0.3702664375305176,0.7244849801063538,0.028558399528265
11750,-0.0036084281746298075,-0.012273584492504597,0.028008347377181053,0.4722529649734497,0.7362349033355713,0.02839563973248005
11762,-0.0026793847791850567,-0.012231135740876198,0.028156591579318047,0.4223068952560425,0.6795995831489563,0.02890082262456417
11770,-0.0035762947518378496,-0.011580593883991241,0.028343694284558296,0.33882829546928406,0.7304143309593201,0.03189382329583168
11780,-0.002370498375967145,-0.011334056034684181,0.02792363613843918,0.28122153878211975,0.6587079167366028,0.033433228731155396
11790,-0.001781833590939641,-0.009299216791987419,0.02811705321073532,0.12908075749874115,0.6244059205055237,0.03496269881725311
11800,-0.0017461292445659637,-0.009844740852713585,0.028160447254776955,0.12862209975719452,0.623576283454895,0.03541189432144165
11810,-0.0017076530493795872,-0.010400354862213135,0.028203299269080162,0.12852881848812103,0.6233136653900146,0.036390405148267746
11820,-0.0017382984515279531,-0.009431465528905392,0.02833402156829834,0.04605953022837639,0.6278798580169678,0.038034167140722275
11830,-0.00333460234105587,-0.016446128487586975,0.027610834687948227,0.39145398139953613,0.7147843241691589,0.03614530712366104
11840,-0.003386749653145671,-0.01730746403336525,0.027614612132310867,0.3894682228565216,0.7150902152061462,0.03620540723204613
11850,-0.0033560367301106453,-0.018119122833013535,0.02762417681515217,0.38928523659706116,0.716007649898529,0.035575393587350845
11860,-0.0033288919366896152,-0.016696076840162277,0.027841957286000252,0.27181071043014526,0.710728645324707,0.038123685866594315
11870,-0.0020462817046791315,-0.01627914421260357,0.027568047866225243,0.21143826842308044,0.6442623734474182,0.039509210735559464
11880,0.0019146136473864317,-0.011360750533640385,0.027840960770845413,-0.06743426620960236,0.44935065507888794,0.03718554973602295
11890,0.0005997576517984271,-0.010582764632999897,0.02792990207672119,-0.12593621015548706,0.5253762006759644,0.04104732349514961
11900,0.0014227728825062513,-0.011024586856365204,0.0279406551271677,-0.12151069939136505,0.49284204840660095,0.04095922410488129
11910,0.0027989333029836416,-0.010852773673832417,0.0275347251445055,-0.1456267535686493,0.4347698986530304,0.041247617453336716
11920,0.00298886327072978,-0.01644582487642765,0.027483034878969193,0.109007328748703,0.4382115602493286,0.03842857480049133
11930,0.0032672416418790817,-0.017084049060940742,0.0274741780012846,0.10740169882774353,0.43747368454933167,0.03902239352464676
11940,0.003443977329879999,-0.016816573217511177,0.02752339467406273,0.06420914828777313,0.44128090143203735,0.040328606963157654
11950,0.0033323699608445168,-0.01686191000044346,0.02756478264927864,0.0349876806139946,0.4584769010543823,0.04109141603112221
11960,0.004374530166387558,-0.016243167221546173,0.025999611243605614,-0.015952344983816147,0.4217839539051056,0.0412680022418499
11970,0.01188118476420641,-0.0219572801142931,0.025505948811769485,0.22759200632572174,0.08503445982933044,0.03041432425379753
11980,0.010804038494825363,-0.02169647440314293,0.025635570287704468,0.17736484110355377,0.17048078775405884,0.03288063034415245
11990,0.014161085709929466,-0.0178900845348835,0.02568758651614189,-0.03805513307452202,0.04289238899946213,0.031499091535806656
12000,0.019603854045271873,-0.021535003557801247,0.025723686441779137,0.10532122105360031,-0.17439788579940796,0.02731184847652912
12010,0.01904480531811714,-0.026941683143377304,0.02553570456802845,0.32461872696876526,-0.09808923304080963,0.03014794923365116
12020,0.0216786228120327,-0.025619832798838615,0.0254820603877306,0.2163325399160385,-0.17490053176879883,0.027995645999908447
12030,0.021672436967492104,-0.02619115263223648,0.025574427098035812,0.20156069099903107,-0.12286131829023361,0.030354812741279602
12040,0.02249806746840477,-0.02527036890387535,0.02629050426185131,0.114718958735466,-0.11001570522785187,0.029940050095319748
12050,0.018732665106654167,-0.02563551999628544,0.026746725663542747,0.09448693692684174,0.1180935874581337,0.03775225952267647
12060,0.022102683782577515,-0.024965642020106316,0.02665964514017105,0.027786344289779663,-0.0056832050904631615,0.03461429849267006
12070,0.021170353516936302,-0.025591395795345306,0.02685564197599888,0.0261421799659729,0.08478057384490967,0.03774585947394371
12080,0.02102155238389969,-0.02472994476556778,0.027073925361037254,-0.04869755730032921,0.13321350514888763,0.038808178156614304
12090,0.01883258856832981,-0.026770001277327538,0.026273855939507484,0.023646347224712372,0.27372977137565613,0.04394606128334999
12100,0.019479556009173393,-0.02746465429663658,0.026245130226016045,0.023871665820479393,0.2722025215625763,0.044143058359622955
12110,0.020874101668596268,-0.026530839502811432,0.02628841996192932,-0.05423355475068092,0.23670603334903717,0.04273165389895439
12120,0.01969996839761734,-0.02613988146185875,0.026459695771336555,-0.10291378945112228,0.3304862380027771,0.04439136013388634
12130,0.0205276757478714,-0.026482075452804565,0.025807036086916924,-0.11104407161474228,0.31775811314582825,0.044896647334098816
12141,0.018912017345428467,-0.02461175061762333,0.025959216058254242,-0.231648251414299,0.42645078897476196,0.04695121571421623
12151,0.020054582506418228,-0.025769349187612534,0.02589210495352745,-0.1969175636768341,0.3948962390422821,0.047564636915922165
12161,0.020202649757266045,-0.025683017447590828,0.025901779532432556,-0.22447454929351807,0.4145570397377014,0.04686129465699196
12171,0.020117925480008125,-0.026339206844568253,0.025897106155753136,-0.21360717713832855,0.4440802335739136,0.04816842079162598
12180,0.016393668949604034,-0.024313565343618393,0.02611710876226425,-0.33804914355278015,0.6547996401786804,0.05225985869765282
12190,0.020298602059483528,-0.024243401363492012,0.026119479909539223,-0.35932907462120056,0.4732716679573059,0.04788584262132645
12200,0.019997630268335342,-0.0256196316331625,0.02612696960568428,-0.3067610561847687,0.5134976506233215,0.04960895702242851
12210,0.019947126507759094,-0.025808604434132576,0.02614278346300125,-0.3144817352294922,0.5353186130523682,0.04922067001461983
12220,0.019421469420194626,-0.026463257148861885,0.0260897409170866,-0.2987765669822693,0.5813832879066467,0.050308868288993835
12230,0.019831474870443344,-0.022909538820385933,0.026183564215898514,-0.4989561140537262,0.5790931582450867,0.05169012024998665
12240,0.019793743267655373,-0.02567492425441742,0.026204364374279976,-0.36552101373672485,0.6008645296096802,0.05228883773088455
12250,0.019058341160416603,-0.02610095590353012,0.026225445792078972,-0.3590241074562073,0.655586838722229,0.052767302840948105
12260,0.01972031220793724,-0.025845257565379143,0.0262365210801363,-0.38720330595970154,0.6343047618865967,0.05406459793448448
12270,0.01763753592967987,-0.027424780651926994,0.02658890001475811,-0.31981581449508667,0.7576233744621277,0.05453548952937126
12280,0.017841028049588203,-0.024885427206754684,0.02669663541018963,-0.4682099223136902,0.7561635375022888,0.05632791295647621
12290,0.016690148040652275,-0.02440636232495308,0.0267263725399971,-0.5026546120643616,0.8231474161148071,0.056884199380874634
12301,0.015321304090321064,-0.02416268363595009,0.02673562802374363,-0.5226836800575256,0.9004535675048828,0.058599524199962616
12310,0.01665240153670311,-0.025046994909644127,0.02648109756410122,-0.4827183187007904,0.8313330411911011,0.05768274515867233
12320,0.01776910200715065,-0.025030972436070442,0.02650105021893978,-0.4927459955215454,0.7762255668640137,0.05893549695611
12330,0.017925208434462547,-0.025205671787261963,0.026512527838349342,-0.4926292896270752,0.7743183374404907,0.059861920773983
12340,0.018375182524323463,-0.02636761963367462,0.026513896882534027,-0.44063541293144226,0.758931040763855,0.05958151817321777
12350,0.018823878839612007,-0.024934787303209305,0.02592688612639904,-0.5279744863510132,0.7447935938835144,0.06192849576473236
12360,0.01927972584962845,-0.03032608889043331,0.02588762156665325,-0.25920504331588745,0.7323657274246216,0.054960060864686966
12370,0.019481852650642395,-0.03076147474348545,0.025860143825411797,-0.26047444343566895,0.729925811290741,0.05510573461651802
12380,0.019684502854943275,-0.031199390068650246,0.025833742693066597,-0.26016324758529663,0.7285509705543518,0.05697881057858467
12390,0.01988730952143669,-0.03164101764559746,0.025809183716773987,-0.2594074606895447,0.7274805307388306,0.057320091873407364
12400,0.020090343430638313,-0.03208503499627113,0.02543454058468342,-0.25792500376701355,0.7250704169273376,0.056595899164676666
12410,0.02088768780231476,-0.03160731866955757,0.02542535588145256,-0.30161920189857483,0.6955435276031494,0.0584881454706192
12420,0.021082503721117973,-0.03145160153508186,0.025409750640392303,-0.326530396938324,0.6986583471298218,0.057670384645462036
12430,0.022134466096758842,-0.034155383706092834,0.025257913395762444,-0.21374475955963135,0.6600044965744019,0.056053511798381805
12440,0.021471314132213593,-0.030920173972845078,0.02570316381752491,-0.38869041204452515,0.7043219804763794,0.059907879680395126
12450,0.01974622905254364,-0.030830683186650276,0.02572733536362648,-0.40635427832603455,0.7979384064674377,0.060568347573280334
12460,0.02078450657427311,-0.030749216675758362,0.025718560442328453,-0.4224283695220947,0.7556686997413635,0.06222577393054962
12470,0.020736273378133774,-0.031204894185066223,0.02570469304919243,-0.41477710008621216,0.7650396227836609,0.0623430535197258
12480,0.02069886401295662,-0.03061170130968094,0.025714490562677383,-0.4528658092021942,0.7724461555480957,0.06443095952272415
12490,0.02014051377773285,-0.03211834654211998,0.02673758752644062,-0.3932391107082367,0.8054437041282654,0.06312006711959839
12500,0.020882029086351395,-0.030772989615797997,0.026821453124284744,-0.46663498878479004,0.7750226855278015,0.06470213085412979
12510,0.021019387990236282,-0.03096240758895874,0.026871059089899063,-0.46736910939216614,0.7757052183151245,0.06602431833744049
12520,0.02115698717534542,-0.031152624636888504,0.026920463889837265,-0.4666801691055298,0.7759493589401245,0.06615611165761948
12530,0.01968393847346306,-0.030490368604660034,0.025688765570521355,-0.5058243870735168,0.8468742966651917,0.06732302159070969
12540,0.019725099205970764,-0.03063162788748741,0.02565973438322544,-0.5058625936508179,0.844901978969574,0.06793481856584549
12550,0.019763566553592682,-0.030772484838962555,0.025630101561546326,-0.5062577724456787,0.8450935482978821,0.06877068430185318
12560,0.019434673711657524,-0.03069942072033882,0.025599941611289978,-0.5161080360412598,0.8589211106300354,0.06883246451616287
12570,0.01944432593882084,-0.030827723443508148,0.02574525587260723,-0.5156815648078918,0.8586037158966064,0.06897066533565521
12580,0.022685956209897995,-0.037242088466882706,0.025705259293317795,-0.24059000611305237,0.7167304754257202,0.06200244650244713
12590,0.02165248431265354,-0.04487685114145279,0.02532322332262993,0.06848399341106415,0.7707958221435547,0.050746094435453415
12600,0.021775634959340096,-0.045784104615449905,0.025269968435168266,0.06744534522294998,0.7714404463768005,0.05005878955125809
12610,0.020976433530449867,-0.044436316937208176,0.025456130504608154,0.006268208380788565,0.8075142502784729,0.05169609189033508
12620,0.02320520579814911,-0.03851383551955223,0.026680976152420044,-0.3180665671825409,0.717994749546051,0.06516002863645554
12630,0.021883754059672356,-0.04046359285712242,0.0267089381814003,-0.2531571686267853,0.7811049222946167,0.06309331953525543
12640,0.022435670718550682,-0.03662225604057312,0.026952218264341354,-0.4359890818595886,0.7594093680381775,0.06987801194190979
12650,0.023560332134366035,-0.03621261939406395,0.027004623785614967,-0.46496909856796265,0.7153900265693665,0.07153916358947754
12660,0.01942313462495804,-0.03439399600028992,0.027583058923482895,-0.5530612468719482,0.8973970413208008,0.0732574462890625
12670,0.018021373078227043,-0.03123762272298336,0.02762519009411335,-0.693480372428894,0.9538455605506897,0.07895921170711517
12680,0.015826674178242683,-0.022615907713770866,0.027367232367396355,-1.060164451599121,1.0414177179336548,0.09416595101356506
12690,0.0148087739944458,-0.021951965987682343,0.027374887838959694,-1.0672428607940674,1.074023723602295,0.09279269725084305
12700,0.01598149910569191,-0.022377921268343925,0.026953039690852165,-1.0233802795410156,1.0086761713027954,0.09272276610136032
12710,0.021366743370890617,-0.014520208351314068,0.026605188846588135,-1.345831274986267,0.7621235251426697,0.11072215437889099
12720,0.022521527484059334,-0.015592875890433788,0.02673964574933052,-1.295519471168518,0.7081069946289062,0.10986340790987015
12730,0.021750789135694504,-0.015753723680973053,0.02691461518406868,-1.2451748847961426,0.7497267723083496,0.10683625191450119
12740,0.022456729784607887,-0.016621414572000504,0.02716759406030178,-1.1631742715835571,0.7204106450080872,0.10562746971845627
12750,0.02268589287996292,-0.010886046104133129,0.02628466673195362,-1.4018287658691406,0.714260995388031,0.11419110000133514
12760,0.02761336788535118,-0.010553713887929916,0.026268048211932182,-1.3674548864364624,0.48045891523361206,0.12201579660177231
12770,0.025480393320322037,-0.009740891866385937,0.02642313577234745,-1.3566172122955322,0.6047203540802002,0.11754369735717773
12780,0.028694167733192444,-0.010777067393064499,0.0265889223664999,-1.2535125017166138,0.45894232392311096,0.12083122879266739
12790,0.027725977823138237,-0.010330180637538433,0.027674544602632523,-1.2251542806625366,0.5271409153938293,0.11709912121295929
12800,0.026551377028226852,-0.012891332618892193,0.028109334409236908,-1.0512269735336304,0.602449357509613,0.10905443876981735
12810,0.027200980111956596,-0.011165725998580456,0.028109587728977203,-1.1030089855194092,0.5834649205207825,0.11255470663309097
12820,0.027492929250001907,-0.010389436967670918,0.028186576440930367,-1.1008368730545044,0.5813279151916504,0.11157330125570297
12830,0.028624357655644417,-0.010478352196514606,0.028315749019384384,-1.0543991327285767,0.5394072532653809,0.1136111319065094
12840,0.028815027326345444,-0.016228914260864258,0.027785032987594604,-0.7246441841125488,0.5476685762405396,0.104530468583107
12850,0.02922857366502285,-0.012826619669795036,0.02779019996523857,-0.8769827485084534,0.5438889861106873,0.10734579712152481
12860,0.02805185504257679,-0.008126857690513134,0.027702931314706802,-1.0874404907226562,0.621545672416687,0.10779231041669846
12870,0.02780039608478546,-0.008200961165130138,0.027839576825499535,-1.040584683418274,0.6478040814399719,0.10550709813833237
12880,0.02844453789293766,-0.007410475518554449,0.027522685006260872,-1.0420595407485962,0.6257089376449585,0.10609091818332672
12890,0.029968010261654854,-0.0063550593331456184,0.027496645227074623,-1.0556353330612183,0.5607167482376099,0.11074646562337875
12900,0.027966130524873734,-0.008155516348779202,0.02781200036406517,-0.9172084331512451,0.6810795068740845,0.1005726233124733
12910,0.027736671268939972,-0.00841045193374157,0.027917392551898956,-0.8691998720169067,0.7019338607788086,0.09845186024904251
12920,0.02791273407638073,-0.007787374779582024,0.027960490435361862,-0.8688331842422485,0.7020534873008728,0.09838772565126419
12930,0.0295198243111372,-0.010638122446835041,0.027317244559526443,-0.6858981251716614,0.6295073628425598,0.09943344444036484
12940,0.0333779901266098,-0.015006886795163155,0.027341172099113464,-0.4348589777946472,0.4414442777633667,0.10672207921743393
12950,0.03377670422196388,-0.015248390845954418,0.027347926050424576,-0.4146296977996826,0.44395506381988525,0.10649537295103073
12960,0.03440527617931366,-0.015928303822875023,0.02733043022453785,-0.37338533997535706,0.4383305013179779,0.10679247975349426
12970,0.03347976505756378,-0.014161081053316593,0.02730700746178627,-0.4632704257965088,0.5114763379096985,0.10460124164819717
12980,0.03300090879201889,-0.009546073153614998,0.02736723981797695,-0.69411301612854,0.5567869544029236,0.10596602410078049
12990,0.033364955335855484,-0.009087138809263706,0.027375105768442154,-0.6952918171882629,0.5575751662254333,0.1058439239859581
13000,0.03332096338272095,-0.009834975004196167,0.02746376022696495,-0.6311389207839966,0.5777619481086731,0.10544537752866745
13010,0.03350529074668884,-0.01012473739683628,0.027515949681401253,-0.5962909460067749,0.5857709050178528,0.10554927587509155
13020,0.03383751958608627,-0.009789981879293919,0.027309583500027657,-0.5961435437202454,0.5840597748756409,0.10540203005075455
13030,0.03544720262289047,-0.005054340697824955,0.02715659886598587,-0.8198936581611633,0.5189497470855713,0.11054966598749161
13040,0.03587327525019646,-0.004417471121996641,0.027143288403749466,-0.8194233179092407,0.5183395743370056,0.11133421212434769
13050,0.036302875727415085,-0.0037728529423475266,0.027128884568810463,-0.8200000524520874,0.5183655619621277,0.11184166371822357
13060,0.03536407649517059,-0.003482864471152425,0.026310211047530174,-0.8029465079307556,0.5850284099578857,0.10849852114915848
13070,0.03554706275463104,-0.009378613904118538,0.026659151539206505,-0.4785982072353363,0.5915375351905823,0.1062411367893219
13080,0.03520805016160011,-0.005593613255769014,0.026618998497724533,-0.6500101089477539,0.6246560215950012,0.10610304027795792
13090,0.03489041328430176,-0.004687334410846233,0.026578055694699287,-0.67291659116745,0.6536151766777039,0.10687965154647827
13100,0.03514689952135086,-0.0042156134732067585,0.02632160298526287,-0.6709766983985901,0.6530680656433105,0.10602796822786331
13110,0.034283388406038284,-0.004092798102647066,0.02630716748535633,-0.6539062261581421,0.7077527046203613,0.10473420470952988
13120,0.03474343940615654,-0.0042096711695194244,0.026286080479621887,-0.623619794845581,0.6947354674339294,0.10549754649400711
13130,0.03495711088180542,-0.003777274629101157,0.026243505999445915,-0.6231992244720459,0.6951984763145447,0.10529493540525436
13140,0.03516623005270958,-0.004706921987235546,0.026271967217326164,-0.5572876334190369,0.6941110491752625,0.10534563660621643
13150,0.033560819923877716,-0.008169632405042648,0.02800402045249939,-0.3752721846103668,0.7792888283729553,0.1009150817990303
13160,0.035337191075086594,-0.0050767045468091965,0.028105884790420532,-0.5137702822685242,0.6975769996643066,0.1050616130232811
13170,0.034524980932474136,-0.0051541696302592754,0.028207795694470406,-0.4969111680984497,0.7476670742034912,0.10435226559638977
13180,0.03574381396174431,-0.005211705807596445,0.02828589454293251,-0.4784713685512543,0.6972808837890625,0.10492469370365143
13190,0.03544912487268448,-0.005297481548041105,0.027366602793335915,-0.46284011006355286,0.7203982472419739,0.1042921245098114
13200,0.0298280231654644,-0.0004966459819115698,0.02737557701766491,-0.681480348110199,0.9958267211914062,0.1035178080201149
13210,0.03128758445382118,0.007565700449049473,0.026969294995069504,-1.0429950952529907,0.9162856340408325,0.11005930602550507
13220,0.03248072788119316,0.006958316545933485,0.02723829261958599,-0.9652895331382751,0.8550048470497131,0.10954543948173523
13230,0.032248541712760925,0.0070753199979662895,0.027349350973963737,-0.9262892603874207,0.8657910227775574,0.10798732936382294
13240,0.032479993999004364,0.005585679784417152,0.02740642800927162,-0.8106675744056702,0.8521723747253418,0.10742972791194916
13250,0.032461851835250854,0.006315369624644518,0.027410142123699188,-0.8111069202423096,0.8536103367805481,0.10743167251348495
13260,0.032440975308418274,0.00705027487128973,0.02741323411464691,-0.8106967806816101,0.8514537811279297,0.10647314041852951
13270,0.031426478177309036,0.006871161982417107,0.02749628759920597,-0.7652042508125305,0.8988609313964844,0.10535144805908203
13280,0.033719830214977264,0.006212814711034298,0.027400653809309006,-0.6974626183509827,0.7810994982719421,0.10640300065279007
13290,0.03370656818151474,0.007326669059693813,0.027378465980291367,-0.7211818099021912,0.7817944884300232,0.10795167088508606
13301,0.033757541328668594,0.007979934103786945,0.027380412444472313,-0.7193248271942139,0.7822244167327881,0.10692939162254333
13310,0.032708875834941864,0.008327051997184753,0.027409881353378296,-0.7053240537643433,0.8352633714675903,0.10527469217777252
13321,0.03453961759805679,0.007353855762630701,0.027552476152777672,-0.6223585605621338,0.7434237599372864,0.10450639575719833
13330,0.03304196894168854,0.004260923247784376,0.027473876252770424,-0.4418277144432068,0.8232672810554504,0.09972617775201797
13341,0.033283405005931854,0.007637821603566408,0.027441751211881638,-0.5953050255775452,0.8102811574935913,0.10363002866506577
13351,0.03255350887775421,0.008510119281709194,0.02742907777428627,-0.6141307950019836,0.8476340174674988,0.1037234514951706
13361,0.03327560052275658,0.008185416460037231,0.02748623490333557,-0.5690809488296509,0.8095533847808838,0.10454196482896805
13371,0.027356324717402458,0.012346581555902958,0.027174685150384903,-0.754750669002533,1.109665036201477,0.10651235282421112
13381,0.02948755957186222,0.01969962939620018,0.026842288672924042,-1.0902785062789917,0.9838720560073853,0.11676857620477676
13391,0.029740111902356148,0.01958061009645462,0.026973232626914978,-1.0256198644638062,0.9609091877937317,0.11464757472276688
13401,0.029565902426838875,0.020614400506019592,0.02693915367126465,-1.0256943702697754,0.9596102833747864,0.1139727309346199
13411,0.028616979718208313,0.018301358446478844,0.027627673000097275,-0.8508229851722717,0.9972113966941833,0.10948791354894638
13421,0.031964536756277084,0.01298473123461008,0.02820466086268425,-0.5316650867462158,0.8110897541046143,0.10283984243869781
13431,0.03194580227136612,0.013492812402546406,0.028256503865122795,-0.5301430821418762,0.8091546297073364,0.10361428558826447
13441,0.032195594161748886,0.01340406108647585,0.028329012915492058,-0.5003963708877563,0.7942963242530823,0.10320942848920822
13451,0.03293723985552788,0.013314993120729923,0.0283995158970356,-0.47143450379371643,0.7539356350898743,0.10318321734666824
13461,0.033002499490976334,0.013688825070858002,0.027452317997813225,-0.471327543258667,0.7527838945388794,0.10335443168878555
13471,0.03196747601032257,0.018929751589894295,0.02734125405550003,-0.7156006097793579,0.8071087598800659,0.10974345356225967
13480,0.03197585046291351,0.019027143716812134,0.027370281517505646,-0.6814677119255066,0.8048739433288574,0.11002223193645477
13490,0.03195113316178322,0.019786285236477852,0.02735712379217148,-0.679682195186615,0.8034223318099976,0.11050272732973099
13500,0.031911205500364304,0.02052360773086548,0.02799762226641178,-0.6778237819671631,0.8015866875648499,0.11080586165189743
13510,0.028596090152859688,0.019170207902789116,0.028127217665314674,-0.5748139023780823,0.9644923210144043,0.10697542876005173
13520,0.03327393904328346,0.021450448781251907,0.02821052446961403,-0.6590940356254578,0.7215442657470703,0.11061380803585052
13530,0.03334078565239906,0.022136345505714417,0.02823914960026741,-0.6593123078346252,0.7212384939193726,0.11042588949203491
13540,0.03359843045473099,0.021880503743886948,0.0283359307795763,-0.6123537421226501,0.7123814225196838,0.10906723886728287
13550,0.033588819205760956,0.024636365473270416,0.027295254170894623,-0.7153579592704773,0.7156612277030945,0.11183223128318787
13560,0.033566445112228394,0.02172011509537697,0.027499744668602943,-0.5385834574699402,0.7188666462898254,0.10843444615602493
13570,0.033816706389188766,0.020246652886271477,0.02756606414914131,-0.44074395298957825,0.7103188037872314,0.10717788338661194
13580,0.034309905022382736,0.020912587642669678,0.027546806260943413,-0.45013168454170227,0.6896468997001648,0.10816188156604767
13590,0.032763849943876266,0.020766694098711014,0.026947323232889175,-0.4220178425312042,0.7685878276824951,0.10739297419786453
13600,0.03251601755619049,0.020931193605065346,0.026907863095402718,-0.4103375971317291,0.7816532850265503,0.10779023915529251
13610,0.03325823321938515,0.020859895274043083,0.0268801748752594,-0.38814494013786316,0.7441339492797852,0.10626211762428284
13620,0.03252296522259712,0.02103690430521965,0.026847848668694496,-0.3804634213447571,0.7808135747909546,0.1061411201953888
13630,0.033716555684804916,0.019789621233940125,0.026858845725655556,-0.3031696081161499,0.7234748601913452,0.10314953327178955
13640,0.033946674317121506,0.017152003943920135,0.026899924501776695,-0.16491013765335083,0.717228889465332,0.10075576603412628
13650,0.03253515809774399,0.01855156384408474,0.026911994442343712,-0.22920213639736176,0.7893504500389099,0.10206480324268341
13660,0.03253912180662155,0.01876707188785076,0.02688835933804512,-0.22997510433197021,0.7882336378097534,0.10197289288043976
13670,0.03367982059717178,0.018531782552599907,0.02687426283955574,-0.21103620529174805,0.7312917113304138,0.10055899620056152
13680,0.03029918298125267,0.018523525446653366,0.026933452114462852,-0.20547443628311157,0.8985075950622559,0.10270914435386658
13690,0.0329829603433609,0.019865281879901886,0.02700229175388813,-0.26589861512184143,0.7579472661018372,0.1025455892086029
13700,0.03298742324113846,0.01808209717273712,0.02700916863977909,-0.17009951174259186,0.7594966888427734,0.10187423974275589
13710,0.03320229426026344,0.018086446449160576,0.026995724067091942,-0.16782502830028534,0.7467851638793945,0.10132327675819397
13720,0.03297901153564453,0.019605688750743866,0.02700221911072731,-0.2420363873243332,0.7577242255210876,0.10273732244968414
13730,0.029983187094330788,0.016802271828055382,0.027012525126338005,-0.09394313395023346,0.9086688756942749,0.1043778508901596
13740,0.03360941633582115,0.019161976873874664,0.02720259130001068,-0.21502695977687836,0.7143643498420715,0.10204515606164932
13750,0.03254345431923866,0.0189481433480978,0.027220042422413826,-0.19796693325042725,0.7694628834724426,0.10426679998636246
13760,0.033175285905599594,0.018107565119862556,0.027224866673350334,-0.15081490576267242,0.7365133762359619,0.10375966876745224
13770,0.03276047110557556,0.01852612942457199,0.027132069692015648,-0.16855445504188538,0.7586066722869873,0.10473936796188354
13780,0.033593203872442245,0.01853354088962078,0.027127550914883614,-0.16822493076324463,0.7131311297416687,0.10478644073009491
13790,0.0335916131734848,0.019155118614435196,0.027125172317028046,-0.19958078861236572,0.7157330513000488,0.10488405078649521
13800,0.033644575625658035,0.019209761172533035,0.02711835876107216,-0.20030154287815094,0.7150366306304932,0.10445327311754227
13810,0.033639825880527496,0.017026793211698532,0.027513423934578896,-0.08175434172153473,0.716900646686554,0.1056663990020752
13820,0.033199332654476166,0.017894789576530457,0.02755773812532425,-0.13241001963615417,0.7429108023643494,0.1069488525390625
13830,0.033222049474716187,0.017855072394013405,0.02757968381047249,-0.1305045634508133,0.7428671717643738,0.10686589777469635
13840,0.03367673605680466,0.018315909430384636,0.027606941759586334,-0.156464084982872,0.7206145524978638,0.10716871917247772
13850,0.03367508947849274,0.01876538060605526,0.0273642186075449,-0.18143127858638763,0.722445547580719,0.10882031917572021
13860,0.030756674706935883,0.02344881370663643,0.027382321655750275,-0.4314223825931549,0.8796038627624512,0.11845006793737411
13870,0.030325204133987427,0.026079174131155014,0.02725803852081299,-0.5557010769844055,0.8965476751327515,0.12134433537721634
13880,0.030165908858180046,0.0265196543186903,0.02725173532962799,-0.5561085939407349,0.8952026963233948,0.12324531376361847
13890,0.030915528535842896,0.02642289735376835,0.027328038588166237,-0.5263086557388306,0.8454362154006958,0.12031237781047821
13900,0.03274591267108917,0.021652832627296448,0.0270417220890522,-0.24587681889533997,0.7427297234535217,0.11272655427455902
13910,0.033432506024837494,0.02028731256723404,0.027037538588047028,-0.16713686287403107,0.7054044604301453,0.11019279062747955
13920,0.03347794711589813,0.020296668633818626,0.027026208117604256,-0.1663263738155365,0.702803373336792,0.10917801409959793
13930,0.03844016417860985,0.019587328657507896,0.026962364092469215,-0.12665516138076782,0.4358082115650177,0.1002713218331337
13940,0.03605284169316292,0.02425934374332428,0.027138516306877136,-0.3793743848800659,0.5825749635696411,0.10742209851741791
13950,0.03556371480226517,0.023303398862481117,0.027182072401046753,-0.31481224298477173,0.6184558272361755,0.10853666812181473
13960,0.03571000322699547,0.02346457727253437,0.027180427685379982,-0.3135698437690735,0.6189529895782471,0.10832444578409195
13970,0.03543936461210251,0.023439152166247368,0.02719002217054367,-0.303289532661438,0.6402757167816162,0.10778609663248062
13980,0.03556424751877785,0.02358616515994072,0.02718675136566162,-0.30413398146629333,0.6403906345367432,0.10793279111385345
13990,0.03705462068319321,0.01954268105328083,0.027141518890857697,-0.08185017108917236,0.5684778690338135,0.10502752661705017
14000,0.037261079996824265,0.01943916454911232,0.027137335389852524,-0.08147956430912018,0.5675252079963684,0.10552587360143661
14010,0.03746272996068001,0.01894865743815899,0.02712622843682766,-0.06328551471233368,0.5682846903800964,0.10606146603822708
14020,0.03767339885234833,0.018808674067258835,0.027123915031552315,-0.06250466406345367,0.5691932439804077,0.1068832278251648
14030,0.03841877728700638,0.018856817856431007,0.026673128828406334,-0.0732162669301033,0.5408692955970764,0.10493244230747223
14040,0.03460772708058357,0.024753404781222343,0.026854299008846283,-0.38427457213401794,0.74771648645401,0.11270106583833694
14050,0.03459715470671654,0.02577384188771248,0.026811009272933006,-0.4252786934375763,0.7475924491882324,0.11335082352161407
14060,0.03459347039461136,0.02493852563202381,0.02682747319340706,-0.37066924571990967,0.7508342266082764,0.11342929303646088
14070,0.033568721264600754,0.024644998833537102,0.026814119890332222,-0.3472859263420105,0.8032024502754211,0.1154584288597107
14080,0.030814163386821747,0.027615856379270554,0.02638966590166092,-0.48912662267684937,0.939034104347229,0.12119824439287186
14090,0.029384328052401543,0.024349868297576904,0.0264450591057539,-0.3092615306377411,1.0003211498260498,0.12194003909826279
14100,0.028945375233888626,0.025058293715119362,0.02639370784163475,-0.3408386707305908,1.004398226737976,0.1226481944322586
14110,0.02864995412528515,0.02519872412085533,0.026352617889642715,-0.34040361642837524,1.0053361654281616,0.12375302612781525
14120,0.02389468438923359,0.02946748025715351,0.025980504229664803,-0.5470572710037231,1.2239176034927368,0.13341961801052094
14130,0.024521412327885628,0.030885081738233566,0.025955205783247948,-0.5961241722106934,1.1629396677017212,0.13321445882320404
14140,0.02339615300297737,0.03570376709103584,0.02558308094739914,-0.8100260496139526,1.1900386810302734,0.13943099975585938
14150,0.022529099136590958,0.03484885022044182,0.025644708424806595,-0.7299655675888062,1.2029297351837158,0.13780437409877777
14160,0.023345429450273514,0.03523300215601921,0.026243707165122032,-0.7153822183609009,1.132283329963684,0.13580085337162018
14170,0.025245973840355873,0.03078899346292019,0.026679752394557,-0.4653637707233429,1.0138119459152222,0.126837819814682
14180,0.02506362460553646,0.02981441095471382,0.026716245338320732,-0.40080076456069946,1.0038810968399048,0.1250913441181183
14190,0.025335848331451416,0.030249882489442825,0.02673971839249134,-0.4098359942436218,0.9706653356552124,0.1254713535308838
14200,0.026279903948307037,0.03023417294025421,0.02679482102394104,-0.3970160186290741,0.9063310623168945,0.12451153993606567
14210,0.026029720902442932,0.03046296164393425,0.02688661590218544,-0.3994179666042328,0.9065014719963074,0.12493453174829483
14220,0.02578004077076912,0.03068721666932106,0.026897359639406204,-0.40022382140159607,0.9046660661697388,0.12490884959697723
14230,0.02634331025183201,0.030639514327049255,0.02693094313144684,-0.3857264518737793,0.8632859587669373,0.12463828921318054
14240,0.026880234479904175,0.030349597334861755,0.026965338736772537,-0.36153775453567505,0.8264092803001404,0.12362127751111984
14250,0.023731298744678497,0.03398410975933075,0.026529183611273766,-0.5302900075912476,0.972068190574646,0.12996673583984375
14260,0.023787790909409523,0.03536520153284073,0.02648640237748623,-0.5777968764305115,0.9487984776496887,0.1310352087020874
14270,0.028600718826055527,0.03150266408920288,0.026892030611634254,-0.3665776252746582,0.6977448463439941,0.12256089597940445
14280,0.02766050398349762,0.031249796971678734,0.026928164064884186,-0.344631165266037,0.742439866065979,0.12284936010837555
14290,0.028365815058350563,0.030537348240613937,0.026940742507576942,-0.30308854579925537,0.7048287987709045,0.12202750146389008
14300,0.027881283313035965,0.027336934581398964,0.02786351554095745,-0.13971540331840515,0.728010356426239,0.11807672679424286
14310,0.02718357741832733,0.03143269568681717,0.02809331566095352,-0.3476760983467102,0.7580999732017517,0.12273427844047546
14320,0.02696269564330578,0.030747361481189728,0.02817770093679428,-0.3040572702884674,0.7644185423851013,0.12195167690515518
14330,0.026970380917191505,0.03029656782746315,0.028255434706807137,-0.27574071288108826,0.7589589357376099,0.12100842595100403
14340,0.026370614767074585,0.03025190159678459,0.026402320712804794,-0.2743026912212372,0.7864980101585388,0.12207068502902985
14350,0.026247384026646614,0.030299538746476173,0.026355262845754623,-0.2758271396160126,0.7864877581596375,0.1230323538184166
14360,0.026263821870088577,0.03006903827190399,0.026308977976441383,-0.2639845311641693,0.7785018682479858,0.12338908016681671
14370,0.026282092556357384,0.029379187151789665,0.026259612292051315,-0.22837333381175995,0.7712380886077881,0.12362493574619293
14380,0.02536638081073761,0.03143396973609924,0.026560591533780098,-0.33354055881500244,0.8093631267547607,0.12537726759910583
14390,0.02537704072892666,0.031206220388412476,0.026539424434304237,-0.3155902028083801,0.8005468845367432,0.12601329386234283
14400,0.026060834527015686,0.030089447274804115,0.02653610147535801,-0.25370243191719055,0.7566534876823425,0.12546247243881226
14410,0.027624698355793953,0.025678807869553566,0.026501355692744255,-0.023187952116131783,0.6692360639572144,0.12138938158750534
14420,0.027624094858765602,0.025413164868950844,0.026474326848983765,-0.022980591282248497,0.66902756690979,0.120301753282547
14430,0.027617359533905983,0.02514181286096573,0.026677129790186882,-0.02465043030679226,0.6670233607292175,0.12177694588899612
14440,0.027618728578090668,0.025442996993660927,0.0266922228038311,-0.054238542914390564,0.6656286716461182,0.12173865735530853
14450,0.02661883272230625,0.025259215384721756,0.026690930128097534,-0.05846240743994713,0.7178478240966797,0.12423998862504959
14460,0.0266236774623394,0.025531666353344917,0.026707332581281662,-0.08546437323093414,0.7133960127830505,0.1251925528049469
14470,0.02757198177278042,0.02533496730029583,0.026402758434414864,-0.08760294318199158,0.6601709723472595,0.12349168211221695
14480,0.027582278475165367,0.02509612962603569,0.026375502347946167,-0.08740900456905365,0.6590108275413513,0.12337908893823624
14490,0.027333160862326622,0.02490263804793358,0.026350095868110657,-0.09057687968015671,0.6720195412635803,0.12343151867389679
14500,0.02732987515628338,0.02465103566646576,0.026320455595850945,-0.0903058648109436,0.6721567511558533,0.12323921918869019
14510,0.024268878623843193,0.022924717515707016,0.026545945554971695,-0.014608317986130714,0.830931544303894,0.1271381378173828
14520,0.024791860952973366,0.026228448376059532,0.026685019955039024,-0.20457106828689575,0.7938430905342102,0.1289328634738922
14530,0.02357255294919014,0.030962668359279633,0.026714473962783813,-0.4590964615345001,0.8494227528572083,0.13333429396152496
14540,0.023364992812275887,0.032152704894542694,0.026671454310417175,-0.5132527351379395,0.8470012545585632,0.13271410763263702
14550,0.023398946970701218,0.030683360993862152,0.026749463751912117,-0.42586562037467957,0.8338618874549866,0.13164107501506805
14561,0.02342468686401844,0.031379200518131256,0.026845181360840797,-0.4577171504497528,0.8219713568687439,0.13053283095359802
14570,0.021799128502607346,0.03839077427983284,0.02665826864540577,-0.8146170973777771,0.8944607377052307,0.13414110243320465
14580,0.021523872390389442,0.0389239527285099,0.026643268764019012,-0.8130844831466675,0.8924891352653503,0.13399168848991394
14590,0.02132495306432247,0.03859569877386093,0.026715941727161407,-0.7673620581626892,0.8865900635719299,0.13433821499347687
14600,0.02233126387000084,0.04020318388938904,0.026657123118638992,-0.824081301689148,0.8196892142295837,0.13379347324371338
14611,0.019250618293881416,0.03653189167380333,0.027035586535930634,-0.6046502590179443,0.9699198007583618,0.13287101686000824
14620,0.021426094695925713,0.03837181255221367,0.027105631306767464,-0.6838268637657166,0.8381266593933105,0.13320651650428772
14630,0.021455418318510056,0.03784899413585663,0.027184464037418365,-0.6332297325134277,0.8233957886695862,0.1320849061012268
14640,0.02192464843392372,0.038307707756757736,0.027222421020269394,-0.6350759267807007,0.7858619093894958,0.13181784749031067
14650,0.021966101601719856,0.040309838950634,0.026259755715727806,-0.7192035913467407,0.7740275859832764,0.1328805685043335
14660,0.021979404613375664,0.039809904992580414,0.026277480646967888,-0.6675750613212585,0.7647885680198669,0.13321419060230255
14670,0.021999787539243698,0.03821268677711487,0.026346217840909958,-0.5629937648773193,0.7571495771408081,0.1322706937789917
14680,0.021783497184515,0.03930187225341797,0.02629653364419937,-0.6049694418907166,0.7585197687149048,0.13262519240379333
14690,0.021793102845549583,0.03884104639291763,0.026308191940188408,-0.5640340447425842,0.7502007484436035,0.13319909572601318
14700,0.022007329389452934,0.038395680487155914,0.026594530791044235,-0.5253717303276062,0.7307667136192322,0.13236217200756073
14710,0.021897364407777786,0.03864429518580437,0.026584474369883537,-0.5245535373687744,0.7313888669013977,0.13287711143493652
14720,0.021679550409317017,0.038616959005594254,0.02658042311668396,-0.5120211839675903,0.734790563583374,0.1327071338891983
14730,0.021690240129828453,0.03881676867604256,0.026574524119496346,-0.5096374154090881,0.7270615696907043,0.13327240943908691
14740,0.0215758103877306,0.03905576840043068,0.026751581579446793,-0.5080922245979309,0.727654755115509,0.13355158269405365
14750,0.021466024219989777,0.0392887108027935,0.026757027953863144,-0.5088047981262207,0.7284975051879883,0.13359302282333374
14760,0.02135668508708477,0.03952139988541603,0.026762831956148148,-0.5080404877662659,0.7269884347915649,0.13318710029125214
14770,0.021115779876708984,0.039449263364076614,0.02677425928413868,-0.49390166997909546,0.7331497669219971,0.13330571353435516
14780,0.01587209664285183,0.04096295312047005,0.026813790202140808,-0.5582650303840637,0.986407458782196,0.13295669853687286
14790,0.0154291782528162,0.041261933743953705,0.026817120611667633,-0.5574775338172913,0.9846426844596863,0.13288109004497528
14800,0.01939687877893448,0.043367624282836914,0.027018362656235695,-0.6444781422615051,0.7674652934074402,0.1372310221195221
14810,0.019182255491614342,0.04377507418394089,0.027033329010009766,-0.6437403559684753,0.7668930888175964,0.13770164549350739
14820,0.019226806238293648,0.043924421072006226,0.027067936956882477,-0.6299317479133606,0.7543554902076721,0.1380452662706375
14830,0.01877303048968315,0.04277695342898369,0.026669178158044815,-0.5559577941894531,0.7698678970336914,0.13755008578300476
14840,0.01957661658525467,0.04372620955109596,0.02666269987821579,-0.5851242542266846,0.7199891805648804,0.13913609087467194
14850,0.019349610432982445,0.04290824010968208,0.02670309506356716,-0.5299572348594666,0.7228744626045227,0.13962456583976746
14860,0.01937216892838478,0.043587006628513336,0.02669369801878929,-0.5474169850349426,0.7152003645896912,0.14048127830028534
14870,0.018913771957159042,0.04352725297212601,0.02639184333384037,-0.5301424264907837,0.7310827970504761,0.14037007093429565
14880,0.019182702526450157,0.04253813251852989,0.026404930278658867,-0.4695134162902832,0.7111006379127502,0.14092200994491577
14890,0.019435035064816475,0.04274453595280647,0.026389209553599358,-0.4706743359565735,0.6898606419563293,0.14109838008880615
14900,0.019680896773934364,0.04271961748600006,0.026375586166977882,-0.45738300681114197,0.671505868434906,0.14137805998325348
14910,0.019451815634965897,0.03766334056854248,0.027107054367661476,-0.19849662482738495,0.6769365668296814,0.13961511850357056
14920,0.01854710467159748,0.038815610110759735,0.02718566544353962,-0.2612256109714508,0.7170430421829224,0.13917814195156097
14930,0.018557053059339523,0.039049241691827774,0.027227485552430153,-0.27667221426963806,0.7094003558158875,0.138706773519516
14940,0.017898837104439735,0.03793296217918396,0.02722468040883541,-0.22286346554756165,0.7371872663497925,0.13933530449867249
14950,0.018346447497606277,0.03860360383987427,0.02729996107518673,-0.2619502544403076,0.7079606652259827,0.13923531770706177
14960,0.01660304330289364,0.03598015755414963,0.027577470988035202,-0.13159167766571045,0.7903472781181335,0.1397876888513565
14970,0.017687460407614708,0.03794688358902931,0.027760284021496773,-0.24185554683208466,0.7226133346557617,0.14014357328414917
14980,0.01811828278005123,0.03881412744522095,0.027844026684761047,-0.29145991802215576,0.6923821568489075,0.1405225694179535
14990,0.01790284365415573,0.0396733433008194,0.027908802032470703,-0.33879196643829346,0.6985630393028259,0.14207851886749268
15000,0.013672889210283756,0.039873115718364716,0.027075164020061493,-0.3495629131793976,0.9155759215354919,0.14328618347644806
15010,0.010409949347376823,0.045483727008104324,0.02691313438117504,-0.6466258764266968,1.068105697631836,0.14729556441307068
15020,0.009377983398735523,0.045465849339962006,0.026872804388403893,-0.6283999681472778,1.094106674194336,0.14816652238368988
15030,0.011042552068829536,0.04546898603439331,0.02710980549454689,-0.6112748384475708,0.970502495765686,0.1484004408121109
15040,0.009189517237246037,0.04629072546958923,0.02695762738585472,-0.6396159529685974,1.0458320379257202,0.14881327748298645
15050,0.008666099980473518,0.04663927108049393,0.026967214420437813,-0.639096200466156,1.0452483892440796,0.15001849830150604
15060,0.008907315321266651,0.04662129282951355,0.02703767828643322,-0.6184930205345154,1.001785397529602,0.15147283673286438
15070,0.008713096380233765,0.045744527131319046,0.02712506428360939,-0.5521706938743591,0.9848445057868958,0.15082606673240662
15080,0.008730307221412659,0.04637926071882248,0.027152549475431442,-0.5713829398155212,0.9560377597808838,0.15071888267993927
15090,0.010230526328086853,0.04573798552155495,0.02720758691430092,-0.5194201469421387,0.8467291593551636,0.15028686821460724
15100,0.009178358130156994,0.04636611416935921,0.02718687616288662,-0.5413607358932495,0.8855855464935303,0.15037095546722412
15110,0.008760719560086727,0.046569451689720154,0.02719317004084587,-0.5411937236785889,0.8848617076873779,0.15075333416461945
15120,0.007938993163406849,0.04656754061579704,0.027186814695596695,-0.5261971354484558,0.9089335799217224,0.15027442574501038
15130,0.0054651000536978245,0.046143267303705215,0.027056392282247543,-0.4903092086315155,1.0197844505310059,0.14875175058841705
15140,0.004830408375710249,0.050229236483573914,0.026977673172950745,-0.7066059708595276,1.0231187343597412,0.1535695642232895
15150,0.0040001701563596725,0.05003613606095314,0.0269857719540596,-0.6696550846099854,1.0371922254562378,0.15252138674259186
15160,0.005449652671813965,0.05003097653388977,0.02715592086315155,-0.645799994468689,0.9248407483100891,0.1524655818939209
15170,0.004828629083931446,0.05004255473613739,0.027167756110429764,-0.6228477358818054,0.9324936866760254,0.15276072919368744
15180,0.0038154125213623047,0.048214901238679886,0.027157273143529892,-0.49926450848579407,0.9634445309638977,0.15068215131759644
15190,0.004408730193972588,0.05003998056054115,0.02719119004905224,-0.5860048532485962,0.8987097144126892,0.15249988436698914
15200,0.004599268548190594,0.050452180206775665,0.027223067358136177,-0.5891950130462646,0.8621291518211365,0.15214447677135468
15210,0.00478998152539134,0.04945562407374382,0.027320675551891327,-0.5148800611495972,0.8269872665405273,0.15087366104125977
15220,0.004813299048691988,0.04904286935925484,0.026816390454769135,-0.4765816032886505,0.8043167591094971,0.15050573647022247
15230,0.005806372035294771,0.044090110808610916,0.0269131138920784,-0.1878167688846588,0.7290385961532593,0.14604133367538452
15240,0.0059924959205091,0.04408462345600128,0.02692241407930851,-0.1962367445230484,0.7031280398368835,0.14674463868141174
15250,0.005189971998333931,0.0440777912735939,0.026919826865196228,-0.20226965844631195,0.7344854474067688,0.14712555706501007
15260,0.00992896594107151,0.03994499891996384,0.02684466354548931,0.022775931283831596,0.45760536193847656,0.145979642868042
15270,0.009318857453763485,0.041892390698194504,0.027106421068310738,-0.10646885633468628,0.49445343017578125,0.14767161011695862
15280,0.009898663498461246,0.04266217350959778,0.027151698246598244,-0.16249795258045197,0.4633588194847107,0.14742007851600647
15290,0.01127558946609497,0.04109577089548111,0.027054673060774803,-0.0843602791428566,0.39203646779060364,0.1477113664150238
15300,0.008925431407988071,0.043415769934654236,0.027394620701670647,-0.22772006690502167,0.5299045443534851,0.1489294320344925
15310,0.008129030466079712,0.04496363177895546,0.027697864919900894,-0.3170584440231323,0.5726501941680908,0.1491669863462448
15320,0.008132643066346645,0.04322120174765587,0.027747150510549545,-0.2194703072309494,0.5693976283073425,0.14994145929813385
15330,0.00793294794857502,0.043219588696956635,0.027792053297162056,-0.22697368264198303,0.5758302211761475,0.1493956744670868
15340,0.00812243390828371,0.043215520679950714,0.027836263179779053,-0.23474185168743134,0.5622204542160034,0.15109588205814362
15350,0.008102466352283955,0.04310886189341545,0.02751387655735016,-0.23483213782310486,0.5600066184997559,0.15025436878204346
15360,0.008709635585546494,0.047416187822818756,0.027589324861764908,-0.47672027349472046,0.5252444744110107,0.14732547104358673
15370,0.008504264988005161,0.047624096274375916,0.027611371129751205,-0.47918832302093506,0.535588264465332,0.14860384166240692
15380,0.00869976356625557,0.04762504994869232,0.02763875387609005,-0.4675961136817932,0.524461030960083,0.15057650208473206
15390,0.008895779959857464,0.047631241381168365,0.02766449563205242,-0.45589563250541687,0.5163092017173767,0.15028080344200134
15400,0.008502759039402008,0.04541252553462982,0.027026688680052757,-0.3262588381767273,0.5424193739891052,0.15191663801670074
15410,0.00890078954398632,0.04762733355164528,0.027006804943084717,-0.44528940320014954,0.5212811827659607,0.1497170627117157
15420,0.008701267652213573,0.04763473570346832,0.02699330635368824,-0.43702924251556396,0.5339071750640869,0.1508399099111557
15430,0.009100338444113731,0.0466415137052536,0.027007263153791428,-0.3746139407157898,0.5141177177429199,0.15237826108932495
15440,0.009504414163529873,0.04347026348114014,0.027013322338461876,-0.19731566309928894,0.49517732858657837,0.15611740946769714
15450,0.008705887012183666,0.0474296472966671,0.027149951085448265,-0.4237101674079895,0.542039155960083,0.15306366980075836
15460,0.008512289263308048,0.047431282699108124,0.027145380154252052,-0.41646644473075867,0.5527097582817078,0.15342295169830322
15470,0.008534872904419899,0.04754847660660744,0.027137406170368195,-0.4157891869544983,0.5505238771438599,0.1542413979768753
15480,0.00769140524789691,0.04754384979605675,0.02622424066066742,-0.4084864854812622,0.5992681980133057,0.15397754311561584
15490,0.006858542561531067,0.04671214148402214,0.02616536058485508,-0.36019980907440186,0.6426883339881897,0.1569783091545105
15500,0.008309419266879559,0.04775479435920715,0.026125259697437286,-0.4144788086414337,0.5587251782417297,0.15497785806655884
15510,0.008309177123010159,0.04755036160349846,0.026065630838274956,-0.39696696400642395,0.5599462985992432,0.15566179156303406
15520,0.008513680659234524,0.047556936740875244,0.026000510901212692,-0.3926588296890259,0.5504713654518127,0.15628743171691895
15530,0.010365302674472332,0.04265802353620529,0.025965852662920952,-0.11954204738140106,0.45090749859809875,0.16235265135765076
15540,0.010524259880185127,0.04240811988711357,0.025896918028593063,-0.12191867083311081,0.45010313391685486,0.16275541484355927
15550,0.01068873517215252,0.04215286299586296,0.025826087221503258,-0.12266424298286438,0.4486754834651947,0.16334454715251923
15560,0.009747875854372978,0.042182352393865585,0.025811022147536278,-0.13957516849040985,0.5101929306983948,0.1654754877090454
15570,0.009519128128886223,0.038122743368148804,0.025726301595568657,0.06944815069437027,0.5293628573417664,0.17154516279697418
15580,0.009607852436602116,0.03763320669531822,0.025655658915638924,0.06869888305664062,0.5274257659912109,0.17112021148204803
15590,0.009346775710582733,0.03750567510724068,0.025619888678193092,0.04897908493876457,0.5465714931488037,0.17076100409030914
15600,0.009420417249202728,0.037021711468696594,0.02555188164114952,0.05019440874457359,0.5439648628234863,0.1713470220565796
15610,0.009402609430253506,0.03736165910959244,0.025561096146702766,0.004568159114569426,0.5488122701644897,0.17101408541202545
15621,0.008152688853442669,0.043574050068855286,0.02604636736214161,-0.3533715307712555,0.6187503337860107,0.16483089327812195
15630,0.011049516499042511,0.043593503534793854,0.026025943458080292,-0.357549250125885,0.4622250199317932,0.1607537567615509
15640,0.010066927410662174,0.04359736666083336,0.0260195042937994,-0.36185216903686523,0.5244410037994385,0.16313309967517853
15650,0.010754280723631382,0.04455447196960449,0.025973087176680565,-0.41429442167282104,0.4922018051147461,0.1622982621192932
15660,0.010500519536435604,0.044548794627189636,0.02639017440378666,-0.4133511483669281,0.5143886208534241,0.16315457224845886
15670,0.010942928493022919,0.04455042630434036,0.02637525461614132,-0.4129502773284912,0.49673646688461304,0.16344402730464935
15680,0.010926640592515469,0.04409153014421463,0.026371609419584274,-0.38876762986183167,0.5052415728569031,0.16511240601539612
