timestamp (ms),stateEstimate.x,stateEstimate.y,stateEstimate.z,stabilizer.roll,stabilizer.pitch,stabilizer.yaw
10853,5.736718776461203e-06,0.00036314642056822777,-0.850826621055603,-0.007398184388875961,0.03338870033621788,-0.00015554146375507116
10863,1.760685336194001e-05,0.0007296579424291849,-0.8286927342414856,-0.009433135390281677,0.034122712910175323,-0.00044504913967102766
10873,7.101982919266447e-05,0.0010960536310449243,-0.7964968085289001,0.0017028558067977428,0.017466112971305847,0.00036373251350596547
10883,0.0002722398785408586,0.002923385240137577,0.020514199510216713,-0.27965235710144043,-0.009518730454146862,0.0006253142491914332
10893,0.0003411517827771604,0.003697709646075964,0.020467612892389297,-0.29079002141952515,0.005714457482099533,0.0009891807567328215
10903,0.0004092281451448798,0.004050084855407476,0.020733414217829704,-0.07263626158237457,0.02096344158053398,0.0006056078127585351
10913,0.0004726301121991128,0.004786727484315634,0.02066793106496334,-0.09903190284967422,0.03927557170391083,0.00013601583486888558
10923,0.0002015698264585808,0.005283873062580824,0.020357858389616013,-0.0022323187440633774,0.22090663015842438,0.0005047530285082757
10933,0.0005950774066150188,0.005654632579535246,0.020345665514469147,0.13954022526741028,0.058518823236227036,0.0012876399559900165
10943,0.0007037625182420015,0.0062773507088422775,0.020275786519050598,0.13852852582931519,0.05776981636881828,0.0018959876615554094
10953,0.00028333859518170357,0.006185426376760006,0.020306412130594254,0.4369676113128662,0.27715691924095154,0.016750449314713478
10963,-0.000482675590319559,0.005860661156475544,0.02027026191353798,0.7480617761611938,0.5614297389984131,0.08107572048902512
10973,0.0015570924151688814,0.003333709202706814,0.019829850643873215,1.7966725826263428,-0.25807496905326843,0.17609190940856934
10983,0.0010053027654066682,0.0024336527567356825,0.019689207896590233,2.070112705230713,-0.017208512872457504,0.2511933147907257
10993,0.0008540871203877032,0.0016069018747657537,0.019524045288562775,2.255876302719116,0.05203491449356079,0.3084821403026581
11003,-0.0007631184998899698,0.0004114055773243308,0.019313279539346695,2.5191123485565186,0.5938001871109009,0.3890753388404846
11013,-0.0016320830909535289,5.142479494679719e-06,0.02139125019311905,2.4925377368927,0.8255735039710999,0.4999843239784241
11023,-0.0018149345414713025,-0.0004529827565420419,0.021365517750382423,2.4862449169158936,0.8265461921691895,0.553326427936554
11033,-0.002823354210704565,0.0001239531848113984,0.021406669169664383,2.2003915309906006,1.0577051639556885,0.5529516935348511
11043,-0.001817125710658729,0.00013883321662433445,0.021466143429279327,2.098390817642212,0.7324520349502563,0.5483008027076721
11053,-0.001936639309860766,-0.00023138304823078215,0.02142903208732605,2.0966219902038574,0.7320250868797302,0.5480592250823975
11063,-0.002065060194581747,-0.0006394489901140332,0.021623866632580757,2.093522787094116,0.7317992448806763,0.5473288297653198
11073,-0.0021942746825516224,-0.0010767943458631635,0.02159256488084793,2.0903098583221436,0.7297511100769043,0.5430061221122742
11083,-0.002322849817574024,-0.0015478639397770166,0.021559901535511017,2.0896010398864746,0.7272439002990723,0.5365122556686401
11093,-0.0009711987222544849,-0.0021392134949564934,0.021547488868236542,2.1035006046295166,0.437599241733551,0.5109928846359253
11103,-0.0022367120254784822,-0.005409758072346449,0.02114511840045452,2.5837221145629883,0.6810175180435181,0.39197665452957153
11113,0.00010521034710109234,-0.005067091900855303,0.021186456084251404,2.3305046558380127,0.25187963247299194,0.11886896193027496
11123,0.0003874317917507142,-0.0060200924053788185,0.02110578864812851,2.284615993499756,0.24437476694583893,-0.2527754604816437
11133,-0.001558185089379549,-0.00085198919987306,0.021812938153743744,1.2316219806671143,0.6101393103599548,-0.6528478264808655
11143,0.0045270416885614395,-0.007040540687739849,0.021529559046030045,2.091092348098755,-0.26742127537727356,-0.973379373550415
11153,0.007757979910820723,-0.0018763806438073516,0.019336925819516182,1.2133699655532837,-0.6160402894020081,-1.1593128442764282
11163,0.008439965546131134,-0.002281527267768979,0.019165802747011185,1.2115999460220337,-0.6037523746490479,-1.2081806659698486
11174,0.008090321905910969,-0.0017669710796326399,0.019063614308834076,1.0948759317398071,-0.46926572918891907,-1.2021167278289795
11183,0.008660062216222286,-0.00205006985925138,0.01888738013803959,1.0932090282440186,-0.4697917401790619,-1.20416259765625
11194,0.008146248757839203,-0.0045562684535980225,0.013748605735599995,1.4014062881469727,-0.33764299750328064,-1.2005739212036133
11204,0.009181231260299683,-0.002233869396150112,0.01332821138203144,1.0641744136810303,-0.3916386365890503,-1.201488971710205
11213,0.007851649075746536,-0.0013492342550307512,0.012968985363841057,0.9284494519233704,-0.16806399822235107,-1.2007441520690918
11224,0.007881378754973412,-0.002470477716997266,0.01253490149974823,1.0245060920715332,-0.11975688487291336,-1.1979297399520874
11233,0.007085440214723349,0.000508860859554261,0.012156302109360695,0.6696456074714661,0.02202659472823143,-1.1974366903305054
11244,0.007449791766703129,0.0004427183303050697,0.011207456700503826,0.6680734753608704,0.020797153934836388,-1.1928552389144897
11253,0.005021792370826006,0.00548152020201087,0.010702872648835182,0.1511135697364807,0.31377676129341125,-1.1875712871551514
11263,0.004604886285960674,0.0056916470639407635,0.010214539244771004,0.15210610628128052,0.37471067905426025,-1.184914231300354
11273,0.004783602897077799,0.005908653140068054,0.009725432842969894,0.15235888957977295,0.37280261516571045,-1.180912971496582
11283,0.0023805967066437006,0.006800314411520958,0.009920940734446049,0.08941352367401123,0.614601731300354,-1.1773322820663452
11293,0.0024039691779762506,0.007057550363242626,0.00946818571537733,0.08862108737230301,0.6125126481056213,-1.1757566928863525
11303,0.002379230922088027,0.005835086107254028,0.009076211601495743,0.21301643550395966,0.6124435663223267,-1.1811599731445312
11313,0.0023642838932573795,0.005404106341302395,0.008643047884106636,0.2618122398853302,0.611694872379303,-1.190163016319275
11323,0.0036784480325877666,0.005942664109170437,0.00892134290188551,0.22393128275871277,0.50921630859375,-1.1987966299057007
11333,0.004872260149568319,0.004584137350320816,0.008548337034881115,0.3422739803791046,0.42570099234580994,-1.213183045387268
11343,0.004778044298291206,0.003345073666423559,0.008157388307154179,0.43737584352493286,0.4447818100452423,-1.2011497020721436
11353,0.0031895688734948635,0.002548510441556573,0.00775175541639328,0.48802798986434937,0.575009822845459,-1.1877880096435547
11363,0.0032042572274804115,0.0006505338242277503,0.007302321493625641,0.6016185283660889,0.5689183473587036,-1.1352229118347168
11373,0.0038192374631762505,-0.005435781553387642,0.006960591766983271,0.9949917197227478,0.5066534876823425,-1.0143741369247437
11383,-0.005330602638423443,-0.007111822720617056,0.006351696792989969,1.0218628644943237,1.135939359664917,-0.9062372446060181
11393,-0.004095285199582577,-0.010915716178715229,0.005736947525292635,1.1923757791519165,1.0054422616958618,-0.8323876261711121
11403,-0.00509606022387743,-0.013461804017424583,0.005015925969928503,1.2630198001861572,1.047295093536377,-0.7625582814216614
11413,-0.006358033511787653,-0.015026913024485111,0.01194853987544775,1.243613839149475,1.1043410301208496,-0.6822453141212463
11423,-0.004090366885066032,-0.026075636968016624,0.010953359305858612,1.8745918273925781,0.9099940657615662,-0.6164076328277588
11433,-0.005296460352838039,-0.02760595828294754,0.010891299694776535,1.8323558568954468,0.9590814709663391,-0.5326083302497864
11443,-0.006494268774986267,-0.031073519960045815,0.010333465412259102,1.9114183187484741,1.0025124549865723,-0.4595564007759094
11453,-0.008465450257062912,-0.03909303992986679,0.015699440613389015,2.2323029041290283,1.0939257144927979,-0.4027235507965088
11463,-0.0033149763476103544,-0.04024608060717583,0.016596486791968346,2.0750539302825928,0.7426314949989319,-0.34147006273269653
11473,-0.004271126352250576,-0.04123875871300697,0.017231667414307594,1.9292410612106323,0.7854357361793518,-0.27011317014694214
11483,-0.009411878883838654,-0.04300795495510101,0.01755063235759735,1.8762623071670532,1.0759384632110596,-0.2529163956642151
11493,-0.010522077791392803,-0.043865349143743515,0.018211837857961655,1.7699038982391357,1.0904256105422974,-0.254099577665329
11503,-0.009589106775820255,-0.04051126539707184,0.022701144218444824,1.3860106468200684,0.9704517722129822,-0.2593437135219574
11513,-0.013108039274811745,-0.043962568044662476,0.022866904735565186,1.4789516925811768,1.136987566947937,-0.35974785685539246
11523,-0.014169272035360336,-0.046230293810367584,0.02332618460059166,1.486243724822998,1.131394386291504,-0.5323924422264099
11533,-0.015017393976449966,-0.04709668084979057,0.024147363379597664,1.3964569568634033,1.1092243194580078,-0.7228796482086182
11543,-0.017353307455778122,-0.048786461353302,0.022072581574320793,1.3752481937408447,1.1866475343704224,-0.8997083306312561
11553,-0.01825341396033764,-0.05080094933509827,0.022470273077487946,1.353691816329956,1.1626077890396118,-1.0637109279632568
11563,-0.018880577757954597,-0.05169517546892166,0.023109491914510727,1.2815684080123901,1.1304785013198853,-1.169434666633606
11573,-0.01901981048285961,-0.05138997733592987,0.024045489728450775,1.1507542133331299,1.0928547382354736,-1.1759819984436035
11583,-0.013052771799266338,-0.05791008472442627,0.024628957733511925,1.423006534576416,0.6833332777023315,-1.1894590854644775
11593,-0.013445481657981873,-0.05999040603637695,0.025088973343372345,1.4191027879714966,0.6858292818069458,-1.1870006322860718
11603,-0.012330392375588417,-0.05950504541397095,0.026101233437657356,1.2628703117370605,0.598206639289856,-1.1810486316680908
11613,-0.01279976312071085,-0.05904889106750488,0.027104301378130913,1.118624210357666,0.6075912117958069,-1.1743862628936768
11623,-0.013008582405745983,-0.05865612253546715,0.028114745393395424,0.984014630317688,0.6024138927459717,-1.167331337928772
11633,-0.013586040586233139,-0.054543014615774155,0.028460167348384857,0.6488927006721497,0.6247413754463196,-1.1533511877059937
11643,-0.013930095359683037,-0.05598464980721474,0.02904748171567917,0.6479453444480896,0.6249732375144958,-1.1521024703979492
11653,-0.014078866690397263,-0.05422525107860565,0.029992738738656044,0.46410834789276123,0.6183880567550659,-1.14246666431427
11663,-0.014008810743689537,-0.05491924658417702,0.030677516013383865,0.42931318283081055,0.5941477417945862,-1.1417453289031982
11673,-0.0188769344240427,-0.04881768673658371,0.02937988005578518,0.029866784811019897,0.8622029423713684,-1.1252487897872925
11683,-0.018450183793902397,-0.04959043860435486,0.029954034835100174,0.02366429753601551,0.8044648766517639,-1.1222373247146606
11693,-0.018979210406541824,-0.050467781722545624,0.030477385967969894,0.022986076772212982,0.8037569522857666,-1.1219135522842407
11703,-0.017508847638964653,-0.051305510103702545,0.031113894656300545,0.01699853502213955,0.6919801235198975,-1.1197396516799927
11713,-0.02415103279054165,-0.05813559517264366,0.031105535104870796,0.34560272097587585,1.0285836458206177,-1.1342964172363281
11723,-0.025036372244358063,-0.05721934884786606,0.02820565551519394,0.2401922345161438,1.04134202003479,-1.129845142364502
11733,-0.025830676779150963,-0.05834348127245903,0.02850690670311451,0.2377399504184723,1.041313648223877,-1.128527283668518
11743,-0.025550680235028267,-0.0568595752120018,0.0291269663721323,0.09639713913202286,0.9838613867759705,-1.1211590766906738
11753,-0.02481214515864849,-0.05764508619904518,0.029601795598864555,0.08324865251779556,0.9029274582862854,-1.116918921470642
11763,-0.021291663870215416,-0.05819796025753021,0.028089435771107674,0.06080242246389389,0.680814802646637,-1.110090970993042
11773,-0.024234218522906303,-0.05417472496628761,0.02853449434041977,-0.20275138318538666,0.8201192021369934,-1.102522850036621
11783,-0.02483495883643627,-0.05489908531308174,0.028785748407244682,-0.20290309190750122,0.8218874335289001,-1.1022469997406006
11793,-0.025197168812155724,-0.05546608939766884,0.02905464731156826,-0.2126782387495041,0.8093022108078003,-1.1003625392913818
11803,-0.024816840887069702,-0.053099218755960464,0.02731986902654171,-0.3705518841743469,0.7634632587432861,-1.0921684503555298
11813,-0.024726975709199905,-0.05646655708551407,0.02746446430683136,-0.22730515897274017,0.725608229637146,-1.093292474746704
11823,-0.025249166414141655,-0.057181913405656815,0.027610745280981064,-0.22855903208255768,0.7253723740577698,-1.0927220582962036
11833,-0.0250382237136364,-0.055800799280405045,0.027872933074831963,-0.3339420557022095,0.6880044341087341,-1.0858198404312134
11843,-0.024933313950896263,-0.058093469589948654,0.028002019971609116,-0.2475271075963974,0.6548128128051758,-1.08614182472229
11853,-0.03009916841983795,-0.05685977265238762,0.026885252445936203,-0.33454617857933044,0.9014098048210144,-1.095818042755127
11863,-0.029964003711938858,-0.059907373040914536,0.02695353701710701,-0.21195660531520844,0.8542168736457825,-1.0953816175460815
11873,-0.027861976996064186,-0.056274205446243286,0.027424374595284462,-0.4313206970691681,0.7182912230491638,-1.0788177251815796
11883,-0.029361741617321968,-0.056949056684970856,0.027494456619024277,-0.4251357614994049,0.7640522122383118,-1.0813723802566528
11893,-0.027017612010240555,-0.05571666732430458,0.026262765750288963,-0.5119476318359375,0.622372567653656,-1.0681499242782593
11903,-0.025475164875388145,-0.04895040765404701,0.026386253535747528,-0.8659152984619141,0.5323090553283691,-1.0509010553359985
11913,-0.025434305891394615,-0.049966905266046524,0.026477396488189697,-0.8149257898330688,0.5128641128540039,-1.0503437519073486
11923,-0.0251066405326128,-0.04945767670869827,0.026502825319767,-0.8418964743614197,0.4808571934700012,-1.0469567775726318
11933,-0.025072680786252022,-0.049954477697610855,0.02656681463122368,-0.8192281723022461,0.46335887908935547,-1.0456281900405884
11943,-0.021581633016467094,-0.0494973249733448,0.026374246925115585,-0.844071626663208,0.2801147699356079,-1.0292487144470215
11953,-0.022576062008738518,-0.050462909042835236,0.02645995281636715,-0.7962988615036011,0.3246907591819763,-1.0325796604156494
11963,-0.02182197757065296,-0.04950599744915962,0.02645760588347912,-0.8446545004844666,0.2866803705692291,-1.0270469188690186
11973,-0.02160908840596676,-0.050473134964704514,0.02651461586356163,-0.7959994077682495,0.27367866039276123,-1.0259116888046265
11983,-0.026162346825003624,-0.0544019490480423,0.026440925896167755,-0.6005584597587585,0.49261435866355896,-1.047409176826477
11993,-0.021372487768530846,-0.04954620078206062,0.026687895879149437,-0.853484034538269,0.24978435039520264,-1.020548939704895
12003,-0.02134060487151146,-0.04949363321065903,0.026727154850959778,-0.854005753993988,0.24848994612693787,-1.0183906555175781
12013,-0.021366657689213753,-0.05024266988039017,0.02679312601685524,-0.814845860004425,0.2508195638656616,-1.0174016952514648
12023,-0.018645429983735085,-0.04860501363873482,0.026012981310486794,-0.8951902389526367,0.12226013839244843,-1.0011961460113525
12033,-0.022314852103590965,-0.0507238395512104,0.026218291372060776,-0.7813395857810974,0.30778729915618896,-1.0202631950378418
12043,-0.02132139727473259,-0.04861336201429367,0.026196246966719627,-0.8829596638679504,0.2587102949619293,-1.0140548944473267
12053,-0.022047657519578934,-0.04932481050491333,0.026234781369566917,-0.8395006656646729,0.2952668070793152,-1.0167344808578491
12063,-0.021373094990849495,-0.050512656569480896,0.026263615116477013,-0.7775460481643677,0.2597110867500305,-1.0115101337432861
12073,-0.019529268145561218,-0.0508042648434639,0.025253888219594955,-0.7635113000869751,0.17191082239151,-1.0008699893951416
12083,-0.02159002609550953,-0.04963230341672897,0.025249646976590157,-0.8189191818237305,0.28297990560531616,-1.012660026550293
12093,-0.021367691457271576,-0.04964698478579521,0.025186706334352493,-0.8133018016815186,0.27253785729408264,-1.0105801820755005
12103,-0.021390344947576523,-0.050558172166347504,0.025144243612885475,-0.7630080580711365,0.2738819420337677,-1.00835120677948
12113,-0.02251342125236988,-0.0501311719417572,0.02416202425956726,-0.7819364666938782,0.3322373926639557,-1.0146524906158447
12123,-0.021388491615653038,-0.04949622228741646,0.02403469756245613,-0.8096902966499329,0.2768630087375641,-1.0082992315292358
12133,-0.021338531747460365,-0.04938632622361183,0.023904886096715927,-0.8094194531440735,0.2774628698825836,-1.006799340248108
12143,-0.022037561982870102,-0.04869499057531357,0.02376784384250641,-0.8367364406585693,0.315047949552536,-1.0099565982818604
12153,-0.022975387051701546,-0.04914645478129387,0.02423028089106083,-0.8053490519523621,0.3614809811115265,-1.0134061574935913
12163,-0.022277342155575752,-0.048720356076955795,0.02413214184343815,-0.8199005722999573,0.3229999542236328,-1.0095081329345703
12173,-0.02182273007929325,-0.048746827989816666,0.02403511106967926,-0.8099925518035889,0.30092906951904297,-1.0048069953918457
12183,-0.021601833403110504,-0.04876665025949478,0.023935632780194283,-0.8013895750045776,0.2905054986476898,-1.0024826526641846
12193,-0.021412840113043785,-0.05034942179918289,0.02387327328324318,-0.7131519913673401,0.2836472690105438,-0.9992197155952454
12203,-0.025984233245253563,-0.05647226423025131,0.024309704080224037,-0.3919524848461151,0.5147539377212524,-1.018919825553894
12213,-0.026402069255709648,-0.05578209087252617,0.024292465299367905,-0.4425607919692993,0.5239156484603882,-1.020038366317749
12223,-0.023826932534575462,-0.061073143035173416,0.02405848540365696,-0.18442349135875702,0.3764747381210327,-1.0005683898925781
12233,-0.024064192548394203,-0.062124431133270264,0.023905983194708824,-0.16037066280841827,0.3855624496936798,-0.9998559951782227
12243,-0.024037975817918777,-0.060768626630306244,0.025373384356498718,-0.2618446350097656,0.3831017315387726,-1.0009840726852417
12253,-0.02474185824394226,-0.06440169364213943,0.025142453610897064,-0.09516389667987823,0.41148290038108826,-1.0002795457839966
12263,-0.025170618668198586,-0.06436759978532791,0.025202909484505653,-0.13170456886291504,0.42802900075912476,-1.0008236169815063
12273,-0.025798872113227844,-0.06348427385091782,0.025356657803058624,-0.21152734756469727,0.45592865347862244,-1.0034747123718262
12283,-0.02731698378920555,-0.06534413993358612,0.02517680823802948,-0.14023759961128235,0.5282991528511047,-1.0076390504837036
12294,-0.03173413127660751,-0.06782006472349167,0.025240153074264526,-0.03862510621547699,0.7498446702957153,-1.0249754190444946
12303,-0.03221604600548744,-0.06857703626155853,0.02522568590939045,-0.03781534731388092,0.7495571374893188,-1.0235940217971802
12314,-0.03349853679537773,-0.0678577721118927,0.02531416527926922,-0.117243193089962,0.7923829555511475,-1.0271154642105103
12323,-0.03260998800396919,-0.06958954781293869,0.02533876895904541,-0.061832625418901443,0.7124983072280884,-1.0203858613967896
12333,-0.03582092747092247,-0.06535393744707108,0.02585117146372795,-0.33255961537361145,0.8655123114585876,-1.0291390419006348
12343,-0.03227369859814644,-0.06432390958070755,0.02628021128475666,-0.41763684153556824,0.6384174823760986,-1.0134526491165161
12353,-0.032047245651483536,-0.06495748460292816,0.026351280510425568,-0.40304797887802124,0.6048796772956848,-1.0110914707183838
12363,-0.032400134950876236,-0.06534386426210403,0.02640003338456154,-0.4043743908405304,0.6046428680419922,-1.0104910135269165
12373,-0.03275582194328308,-0.06572995334863663,0.02644823119044304,-0.40582531690597534,0.6030591130256653,-1.010118842124939
12383,-0.03292103111743927,-0.06564056873321533,0.02590622566640377,-0.4302997589111328,0.5941125750541687,-1.0086429119110107
12393,-0.03285431116819382,-0.06488312035799026,0.025965310633182526,-0.4924195408821106,0.5720442533493042,-1.0055023431777954
12404,-0.03318141773343086,-0.06517824530601501,0.025981206446886063,-0.49041464924812317,0.5704311728477478,-1.0053369998931885
12413,-0.032880786806344986,-0.06587076932191849,0.026010660454630852,-0.4678831994533539,0.5370063185691833,-1.0006558895111084
12424,-0.038000255823135376,-0.06544870883226395,0.02551540918648243,-0.500853955745697,0.7943074703216553,-1.0161449909210205
12433,-0.03576827049255371,-0.06665343046188354,0.02565803937613964,-0.4555562436580658,0.64686518907547,-1.0063574314117432
12444,-0.03689771145582199,-0.06609965115785599,0.025641607120633125,-0.5002689361572266,0.6850473284721375,-1.008859395980835
12453,-0.03370510786771774,-0.0642344206571579,0.025871122255921364,-0.6154557466506958,0.4978932738304138,-0.9966886043548584
12463,-0.03412727639079094,-0.06326040625572205,0.02587067522108555,-0.6712700724601746,0.5104151368141174,-0.9949245452880859
12473,-0.03453846648335457,-0.06299912184476852,0.025511061772704124,-0.6884171962738037,0.5190029144287109,-0.9943117499351501
12483,-0.03404069319367409,-0.06300342828035355,0.025511298328638077,-0.6909531354904175,0.47978246212005615,-0.9913580417633057
12493,-0.034960631281137466,-0.06298885494470596,0.02548755519092083,-0.6936168670654297,0.5144327282905579,-0.9924163222312927
12503,-0.033111490309238434,-0.06393778324127197,0.025540929287672043,-0.6463740468025208,0.405032753944397,-0.9848292469978333
12513,-0.03354519233107567,-0.06391780823469162,0.025309409946203232,-0.6512765884399414,0.4204341173171997,-0.9842115044593811
12523,-0.033752165734767914,-0.06368596851825714,0.025284599512815475,-0.6662148833274841,0.42532116174697876,-0.9833240509033203
12533,-0.03390702232718468,-0.06373657286167145,0.025259098038077354,-0.6655102372169495,0.4245171546936035,-0.9832249879837036
12543,-0.033670831471681595,-0.06467503309249878,0.025241054594516754,-0.6188110709190369,0.40455687046051025,-0.9805082082748413
12553,-0.032985080033540726,-0.06724559515714645,0.025119731202721596,-0.4952714443206787,0.3630625903606415,-0.97716224193573
12563,-0.033394549041986465,-0.06398695707321167,0.025180555880069733,-0.6708175539970398,0.3814619481563568,-0.9778367280960083
12573,-0.03348659723997116,-0.06401266902685165,0.02515382692217827,-0.669750988483429,0.38162145018577576,-0.9758856296539307
12583,-0.033733122050762177,-0.06473269313573837,0.025131354108452797,-0.6362771987915039,0.3881988525390625,-0.9750592112541199
12593,-0.032511964440345764,-0.06450290232896805,0.02510767988860607,-0.6524010896682739,0.3241789937019348,-0.9703564047813416
12603,-0.03590511158108711,-0.06869182735681534,0.02507161535322666,-0.44653505086898804,0.4880518913269043,-0.9780557155609131
12613,-0.0327744223177433,-0.06520526856184006,0.02527754195034504,-0.6357249021530151,0.32678481936454773,-0.967262327671051
12623,-0.033488839864730835,-0.06611263006925583,0.02526997961103916,-0.593819797039032,0.3617148697376251,-0.9671936631202698
12633,-0.03279280662536621,-0.06611142307519913,0.025252290070056915,-0.598514974117279,0.3264687657356262,-0.9641381502151489
12643,-0.031657736748456955,-0.06612839549779892,0.025116130709648132,-0.6028956770896912,0.2692813575267792,-0.9611076712608337
12653,-0.03277558088302612,-0.06430326402187347,0.025124991312623024,-0.6961641907691956,0.32875698804855347,-0.9632518291473389
12663,-0.03256528452038765,-0.06520294398069382,0.02511332556605339,-0.6495948433876038,0.31881219148635864,-0.9612977504730225
12673,-0.03345797210931778,-0.06518623232841492,0.025095170363783836,-0.6506039500236511,0.36357566714286804,-0.9627479910850525
12683,-0.031245451420545578,-0.06500626355409622,0.025039158761501312,-0.6616124510765076,0.252276748418808,-0.9558801054954529
12693,-0.03256137669086456,-0.06498212367296219,0.025040151551365852,-0.6623714566230774,0.3228023946285248,-0.9590383172035217
12703,-0.03253091126680374,-0.06497366726398468,0.025010110810399055,-0.6620199084281921,0.3212454319000244,-0.9586731195449829
12713,-0.03255537152290344,-0.06611992418766022,0.02498655766248703,-0.6041751503944397,0.3235681653022766,-0.9554438591003418
12723,-0.030731119215488434,-0.06637334078550339,0.024935811758041382,-0.5942942500114441,0.2344122678041458,-0.9514421224594116
12733,-0.03490104898810387,-0.07236098498106003,0.024981677532196045,-0.2931710481643677,0.4463094472885132,-0.9580180644989014
12743,-0.03502924367785454,-0.07281289249658585,0.024943271651864052,-0.2919720411300659,0.444246768951416,-0.9569394588470459
12753,-0.03548463061451912,-0.07250164449214935,0.024958079680800438,-0.3299311101436615,0.4610532224178314,-0.9567179083824158
12763,-0.0352463573217392,-0.07338874787092209,0.024897422641515732,-0.3051281273365021,0.44215020537376404,-0.9551115036010742
12773,-0.035536251962184906,-0.07842269539833069,0.024650711566209793,-0.07368212938308716,0.4464471936225891,-0.9530085325241089
12783,-0.03354180231690407,-0.08455760031938553,0.024047551676630974,0.19494695961475372,0.33407703042030334,-0.9445604681968689
12793,-0.0326262041926384,-0.08378563821315765,0.02429070509970188,0.09941476583480835,0.2898465394973755,-0.9435107707977295
12803,-0.03264102339744568,-0.08415227383375168,0.024325106292963028,0.06725474447011948,0.2939699590206146,-0.9422541856765747
12813,-0.03154822811484337,-0.0847918689250946,0.025492267683148384,0.04937972500920296,0.2418234497308731,-0.9410327672958374
12823,-0.032437559217214584,-0.08405188471078873,0.02571253478527069,-0.03577544167637825,0.2957272529602051,-0.9415608644485474
12833,-0.032370343804359436,-0.08489301800727844,0.025734562426805496,-0.03491091728210449,0.29510533809661865,-0.9398117661476135
12843,-0.0335715115070343,-0.08521365374326706,0.025834687054157257,-0.05949897691607475,0.361186683177948,-0.9407229423522949
12853,-0.03357416391372681,-0.08603592962026596,0.025857241824269295,-0.059751298278570175,0.3610171377658844,-0.9398788213729858
12863,-0.03412402421236038,-0.08905617147684097,0.0253316517919302,0.04891502112150192,0.38692978024482727,-0.9383388161659241
12873,-0.03261254355311394,-0.08416713029146194,0.0259243156760931,-0.23746418952941895,0.31733500957489014,-0.939472496509552
12883,-0.031653206795454025,-0.08291014283895493,0.026047328487038612,-0.3321448862552643,0.2740267217159271,-0.9385355114936829
12893,-0.0324108824133873,-0.08495332300662994,0.026025541126728058,-0.2549508810043335,0.3151766359806061,-0.9373354911804199
12903,-0.032853446900844574,-0.08272985368967056,0.025735506787896156,-0.39344850182533264,0.34015873074531555,-0.9386354088783264
12913,-0.03156299144029617,-0.0831470713019371,0.025872958824038506,-0.3907293677330017,0.2647394835948944,-0.9361688494682312
12923,-0.031440962105989456,-0.08360201865434647,0.025886153802275658,-0.388855904340744,0.26603227853775024,-0.9352790117263794
12933,-0.03145434334874153,-0.08378342539072037,0.02591128461062908,-0.4011920690536499,0.2733788788318634,-0.9343658685684204
12943,-0.02986466884613037,-0.08230490237474442,0.02641686610877514,-0.5081720948219299,0.19657404720783234,-0.9351091980934143
12953,-0.029648693278431892,-0.08262515068054199,0.026459624990820885,-0.508020281791687,0.1974390596151352,-0.9329542517662048
12963,-0.029663126915693283,-0.08170133829116821,0.026526283472776413,-0.5742536783218384,0.2105085849761963,-0.9346532821655273
12973,-0.029448742046952248,-0.0819440484046936,0.026570122689008713,-0.5736649632453918,0.21222789585590363,-0.9331799745559692
12983,-0.030650410801172256,-0.08165670186281204,0.026663200929760933,-0.5988430976867676,0.28481632471084595,-0.9331143498420715
12993,-0.03427181392908096,-0.0877005010843277,0.027312515303492546,-0.3015343248844147,0.4704676866531372,-0.9300193190574646
13003,-0.03314026817679405,-0.0906762182712555,0.027280708774924278,-0.17926576733589172,0.4061065912246704,-0.9266853332519531
13013,-0.03778022527694702,-0.09167518466711044,0.02728387899696827,-0.15966512262821198,0.6413164138793945,-0.9282488822937012
13023,-0.036830756813287735,-0.09072571247816086,0.02755178138613701,-0.24448329210281372,0.5792155265808105,-0.9267675280570984
13033,-0.03682977333664894,-0.09200170636177063,0.026926463469862938,-0.20936648547649384,0.5684720277786255,-0.9246719479560852
13043,-0.03682377189397812,-0.0926235094666481,0.026960356160998344,-0.2119247168302536,0.5588423013687134,-0.9237744808197021
13053,-0.037930406630039215,-0.09164606779813766,0.02706805057823658,-0.29170462489128113,0.6058072447776794,-0.9241265654563904
13063,-0.03766889497637749,-0.09048748016357422,0.02721474878489971,-0.3784964680671692,0.5791552662849426,-0.9228322505950928
13073,-0.037678882479667664,-0.09122055023908615,0.02638375572860241,-0.3651956617832184,0.5689374208450317,-0.9227178692817688
13083,-0.03787192329764366,-0.09169857949018478,0.026371922343969345,-0.36465370655059814,0.5686876773834229,-0.9213753938674927
13093,-0.03763917088508606,-0.0906067043542862,0.02642771601676941,-0.44669145345687866,0.5471230149269104,-0.9203552603721619
13103,-0.0385284498333931,-0.09144896268844604,0.026390977203845978,-0.4235735237598419,0.5833857655525208,-0.9185286164283752
13113,-0.03806232661008835,-0.09054499119520187,0.026448732241988182,-0.48877593874931335,0.5513840913772583,-0.9158939719200134
13123,-0.03867890685796738,-0.09022969007492065,0.02502591721713543,-0.5180648565292358,0.5750283002853394,-0.9146670699119568
13133,-0.038659267127513885,-0.08976925164461136,0.024951064959168434,-0.5563698410987854,0.5650716423988342,-0.9138596057891846
13143,-0.03800138086080551,-0.08998674899339676,0.024881497025489807,-0.5580434799194336,0.5219348073005676,-0.9132797122001648
13153,-0.037556037306785583,-0.09019993245601654,0.02480032853782177,-0.5575786232948303,0.4914986789226532,-0.9115219116210938
13163,-0.03848893940448761,-0.09157177805900574,0.02440430223941803,-0.5030442476272583,0.5354682207107544,-0.911030113697052
13173,-0.038647398352622986,-0.09187768399715424,0.024291614070534706,-0.5015034079551697,0.5363918542861938,-0.9102324843406677
13183,-0.03862759470939636,-0.0910058543086052,0.024209382012486458,-0.5600858330726624,0.5281461477279663,-0.9091194868087769
13193,-0.037763554602861404,-0.09101318567991257,0.024120068177580833,-0.5711965560913086,0.47686338424682617,-0.9080379605293274
13203,-0.038402214646339417,-0.09099961817264557,0.024011295288801193,-0.5801008343696594,0.5056173801422119,-0.9071074724197388
13213,-0.0375470332801342,-0.09184917062520981,0.02346530556678772,-0.5474600791931152,0.45686283707618713,-0.9057783484458923
13223,-0.04403478279709816,-0.08428910374641418,0.023445818573236465,-0.9292925596237183,0.782494306564331,-0.9044880867004395
13233,-0.04423627629876137,-0.08428975194692612,0.023358412086963654,-0.9154601097106934,0.7677057981491089,-0.9035570025444031
13243,-0.04469349980354309,-0.08401759713888168,0.023229477927088737,-0.9160147905349731,0.768204391002655,-0.9027713537216187
13253,-0.04426247626543045,-0.0847252756357193,0.02490995079278946,-0.865854024887085,0.7189580798149109,-0.9020651578903198
13263,-0.04311632364988327,-0.08498075604438782,0.02499067224562168,-0.8430919647216797,0.6415337920188904,-0.8988708853721619
13273,-0.04463933780789375,-0.08407489955425262,0.024907352402806282,-0.8771464228630066,0.7033694386482239,-0.8992260694503784
13283,-0.04440712183713913,-0.08497665822505951,0.024988537654280663,-0.8191660046577454,0.670370876789093,-0.8988983035087585
13294,-0.045545898377895355,-0.08847953379154205,0.025101564824581146,-0.6217443346977234,0.7076354622840881,-0.9040430188179016
13303,-0.045963432639837265,-0.08853321522474289,0.0255016777664423,-0.6235929727554321,0.7067749500274658,-0.9035967588424683
13313,-0.04548777639865875,-0.09061872959136963,0.02553829550743103,-0.523017406463623,0.6622369885444641,-0.9033849835395813
13323,-0.04722459986805916,-0.08570924401283264,0.025671828538179398,-0.7722640037536621,0.7344411611557007,-0.8989875316619873
13333,-0.04739687591791153,-0.08525899052619934,0.02570226602256298,-0.7876040935516357,0.7204465866088867,-0.896938681602478
13343,-0.04716892167925835,-0.08617335557937622,0.02635306678712368,-0.7331461906433105,0.6868343949317932,-0.8975669741630554
13353,-0.04922271519899368,-0.08864292502403259,0.02637975476682186,-0.602727472782135,0.7684842944145203,-0.902328372001648
13363,-0.04810623824596405,-0.09135395288467407,0.02650448866188526,-0.47188103199005127,0.687188446521759,-0.9021224975585938
13373,-0.047850873321294785,-0.09134011715650558,0.026608223095536232,-0.4826068878173828,0.6551378965377808,-0.9013292193412781
13383,-0.04737145081162453,-0.09133532643318176,0.02640015259385109,-0.4938066303730011,0.6145418286323547,-0.8997477889060974
13393,-0.04712824523448944,-0.09177181124687195,0.026449080556631088,-0.4803711175918579,0.5849654078483582,-0.8992247581481934
13403,-0.047399960458278656,-0.09197806566953659,0.026492152363061905,-0.478961318731308,0.5850139260292053,-0.8982924222946167
13413,-0.047671303153038025,-0.09218323230743408,0.026535848155617714,-0.4767831563949585,0.5839247107505798,-0.8977146744728088
13424,-0.04382193833589554,-0.08966559916734695,0.026832494884729385,-0.6255685091018677,0.36842280626296997,-0.8891614675521851
13433,-0.04383905231952667,-0.0896935686469078,0.02696852758526802,-0.6247481107711792,0.37036028504371643,-0.8876459002494812
13443,-0.04456259310245514,-0.08967085182666779,0.02704397775232792,-0.6278395652770996,0.4046584963798523,-0.887272834777832
13453,-0.044616781175136566,-0.08968666195869446,0.027107810601592064,-0.6283841133117676,0.40617117285728455,-0.8856373429298401
13463,-0.04611854627728462,-0.08863887190818787,0.027177846059203148,-0.6798281669616699,0.47924157977104187,-0.8866137266159058
13473,-0.04484577849507332,-0.09043633937835693,0.02675745077431202,-0.5865830183029175,0.4082578718662262,-0.8856447339057922
13484,-0.049935441464185715,-0.09730853885412216,0.02678421512246132,-0.241383895277977,0.6520684957504272,-0.8954174518585205
13494,-0.04579341039061546,-0.09929242730140686,0.02690260484814644,-0.16506093740463257,0.42820414900779724,-0.8926278948783875
13504,-0.04432659223675728,-0.09922873228788376,0.02699156478047371,-0.19558505713939667,0.35216304659843445,-0.8890582323074341
13514,-0.044578034430742264,-0.0998685359954834,0.02702171355485916,-0.18996204435825348,0.36632654070854187,-0.8887535333633423
13523,-0.04681680351495743,-0.10619387775659561,0.02673165872693062,0.10330726206302643,0.47274890542030334,-0.8929328918457031
13534,-0.04695171117782593,-0.10703813284635544,0.026742905378341675,0.10315181314945221,0.47235286235809326,-0.8918135762214661
13544,-0.04716457426548004,-0.10613130033016205,0.026967551559209824,0.01794467866420746,0.47566962242126465,-0.8903583884239197
13554,-0.04716715216636658,-0.1079525426030159,0.02687157690525055,0.06878216564655304,0.4689815640449524,-0.8892723321914673
13564,-0.04591519013047218,-0.10781478136777878,0.026616085320711136,0.019185170531272888,0.40133267641067505,-0.8880488872528076
13574,-0.044069502502679825,-0.1142013818025589,0.026150638237595558,0.2983754575252533,0.30009084939956665,-0.8887715339660645
13584,-0.047425732016563416,-0.11303453147411346,0.02650403417646885,0.18608613312244415,0.47186151146888733,-0.8869937062263489
13594,-0.0483614057302475,-0.11264798045158386,0.02666916884481907,0.11737587302923203,0.5139372944831848,-0.8850936889648438
13604,-0.047410573810338974,-0.11371514201164246,0.02668583393096924,0.12202882021665573,0.4567186236381531,-0.886589765548706
13614,-0.042848050594329834,-0.11985577642917633,0.025115804746747017,0.3818601071834564,0.21755746006965637,-0.8909088373184204
13624,-0.037885744124650955,-0.11264056712388992,0.026083379983901978,-0.047195255756378174,-0.01732257381081581,-0.8942060470581055
13634,-0.037705596536397934,-0.11253970861434937,0.026149341836571693,-0.0926869660615921,-0.004165674094110727,-0.8929000496864319
13644,-0.039230912923812866,-0.11262376606464386,0.02633661963045597,-0.12375131994485855,0.09686800837516785,-0.888966977596283
13654,-0.03891599550843239,-0.11331917345523834,0.026193618774414062,-0.12409583479166031,0.09667355567216873,-0.888035237789154
13664,-0.03801608085632324,-0.11169052124023438,0.02628488838672638,-0.24099299311637878,0.06982975453138351,-0.8886362314224243
13674,-0.03826740011572838,-0.11141538619995117,0.026347579434514046,-0.28449517488479614,0.10214067995548248,-0.8881196975708008
13684,-0.03803807869553566,-0.11142510175704956,0.026377065107226372,-0.3130241632461548,0.1111597791314125,-0.8863735795021057
13694,-0.03831443190574646,-0.11124347895383835,0.024632977321743965,-0.3415285348892212,0.14208149909973145,-0.8853600025177002
13704,-0.037489164620637894,-0.11434592306613922,0.02445785328745842,-0.21037529408931732,0.11282455176115036,-0.8827971816062927
13714,-0.03790562227368355,-0.1111886203289032,0.024593563750386238,-0.39934802055358887,0.1535496711730957,-0.8824828863143921
13724,-0.03814553841948509,-0.1111629456281662,0.024535374715924263,-0.4175923764705658,0.18131138384342194,-0.8812267184257507
13734,-0.03795251250267029,-0.11202739179134369,0.02444225363433361,-0.3920743763446808,0.18495813012123108,-0.8800351619720459
13744,-0.040585245937108994,-0.11310739070177078,0.025093473494052887,-0.3568950295448303,0.3287884593009949,-0.875571072101593
13754,-0.03580106794834137,-0.1131548061966896,0.025061853229999542,-0.38022416830062866,0.09632735699415207,-0.8797863125801086
13764,-0.037743352353572845,-0.11136924475431442,0.02521602064371109,-0.4855669140815735,0.21370138227939606,-0.8788928389549255
13774,-0.038826100528240204,-0.1109052374958992,0.025230173021554947,-0.5234017372131348,0.2797791659832001,-0.8785926699638367
13784,-0.03822973370552063,-0.11258290708065033,0.024231266230344772,-0.4489330053329468,0.2563146650791168,-0.8770778775215149
13794,-0.0382218062877655,-0.11170612275600433,0.02416730299592018,-0.5094506740570068,0.2661978602409363,-0.876935601234436
13804,-0.03843209892511368,-0.11104946583509445,0.024096786975860596,-0.5541157722473145,0.2864818274974823,-0.875442624092102
13814,-0.03822624683380127,-0.11104153841733932,0.024011826142668724,-0.563230574131012,0.28742721676826477,-0.8745638728141785
13824,-0.0378117673099041,-0.11168600618839264,0.023955658078193665,-0.5388043522834778,0.2757575511932373,-0.8738169074058533
13834,-0.03872482851147652,-0.1163465604186058,0.023855576291680336,-0.31788647174835205,0.32930803298950195,-0.8687184453010559
13844,-0.03451303392648697,-0.11788102239370346,0.023670649155974388,-0.27086910605430603,0.12380491942167282,-0.8682530522346497
13854,-0.035152778029441833,-0.11786205321550369,0.023684173822402954,-0.29798540472984314,0.17697758972644806,-0.8667900562286377
13864,-0.03546365723013878,-0.11718957871198654,0.023760614916682243,-0.36131933331489563,0.21437621116638184,-0.8671433329582214
13874,-0.03516695648431778,-0.11762117594480515,0.023335732519626617,-0.3613651394844055,0.21412290632724762,-0.8663667440414429
13884,-0.03460129350423813,-0.12223073840141296,0.023027976974844933,-0.1539289653301239,0.19827839732170105,-0.8620117902755737
13894,-0.034607481211423874,-0.12243710458278656,0.02297724410891533,-0.17767873406410217,0.21722792088985443,-0.8627082109451294
13904,-0.03523731231689453,-0.1226329356431961,0.022958993911743164,-0.2014569789171219,0.2655651569366455,-0.8631487488746643
13914,-0.034597594290971756,-0.12308564782142639,0.023763077333569527,-0.21347346901893616,0.24712388217449188,-0.8644973635673523
13924,-0.03232468664646149,-0.12415620684623718,0.02362152747809887,-0.19446225464344025,0.1459800899028778,-0.8643476366996765
13934,-0.031484976410865784,-0.12354614585638046,0.023653466254472733,-0.25867027044296265,0.12420588731765747,-0.8639826774597168
13944,-0.031504977494478226,-0.125205397605896,0.02354641631245613,-0.2036929726600647,0.14796936511993408,-0.8613764643669128
13955,-0.03242747113108635,-0.12190400809049606,0.023993944749236107,-0.4125576913356781,0.22376979887485504,-0.8637659549713135
13964,-0.03208470344543457,-0.12230608612298965,0.023973125964403152,-0.4104051887989044,0.224289208650589,-0.8631219267845154
13974,-0.0312926322221756,-0.1252119094133377,0.023858217522501945,-0.28281283378601074,0.2001645714044571,-0.8601704239845276
13984,-0.03210709989070892,-0.12479207664728165,0.023958254605531693,-0.33412525057792664,0.2627105414867401,-0.8574027419090271
13995,-0.03217996656894684,-0.12396055459976196,0.024053778499364853,-0.406264990568161,0.2878235876560211,-0.8580819964408875
14004,-0.03189277648925781,-0.12437868863344193,0.024014418944716454,-0.4072681963443756,0.2886389493942261,-0.8568385243415833
14014,-0.03245161101222038,-0.1200791746377945,0.024181922897696495,-0.6540289521217346,0.33739084005355835,-0.8592373132705688
14024,-0.029815135523676872,-0.12341384589672089,0.024197913706302643,-0.4864784777164459,0.2098800092935562,-0.8573000431060791
14034,-0.029409687966108322,-0.12424136698246002,0.024176133796572685,-0.45929449796676636,0.20754432678222656,-0.8558300733566284
14044,-0.029202334582805634,-0.1252773404121399,0.024526944383978844,-0.4241024851799011,0.21927709877490997,-0.8548728227615356
14053,-0.03331059589982033,-0.1280813217163086,0.02463546209037304,-0.290498822927475,0.4603888690471649,-0.8499555587768555
14063,-0.03319139778614044,-0.12862195074558258,0.024647429585456848,-0.28959643840789795,0.4593295156955719,-0.8498170375823975
14073,-0.03307207301259041,-0.12916478514671326,0.024658892303705215,-0.2889972925186157,0.4576885402202606,-0.8475975394248962
14085,-0.03238564357161522,-0.12796542048454285,0.024815205484628677,-0.3841376304626465,0.4287148416042328,-0.8482901453971863
14093,-0.02844938635826111,-0.13173599541187286,0.025650637224316597,-0.2089802324771881,0.22167594730854034,-0.8458614945411682
14105,-0.023078417405486107,-0.13199222087860107,0.025528617203235626,-0.23298561573028564,-0.047063395380973816,-0.8467407822608948
14115,-0.024011069908738136,-0.13215862214565277,0.025769419968128204,-0.2568517327308655,0.0407361201941967,-0.8449710607528687
14123,-0.02383829466998577,-0.13300952315330505,0.02584100142121315,-0.2428717166185379,0.06229707971215248,-0.8434683084487915
14133,-0.023222854360938072,-0.13295842707157135,0.025547388941049576,-0.2788310945034027,0.05967643857002258,-0.8424458503723145
14143,-0.025910791009664536,-0.13288110494613647,0.025812149047851562,-0.3101118803024292,0.23684696853160858,-0.8414421081542969
14153,-0.024387981742620468,-0.13198836147785187,0.025891443714499474,-0.38844621181488037,0.17902076244354248,-0.8420758247375488
14163,-0.023319285362958908,-0.13154076039791107,0.025942698121070862,-0.4367203414440155,0.1486189216375351,-0.8423592448234558
14173,-0.02292054146528244,-0.13283169269561768,0.025959599763154984,-0.39017120003700256,0.15503402054309845,-0.8407889008522034
14183,-0.02359442412853241,-0.13301967084407806,0.026079537346959114,-0.40319401025772095,0.2173159420490265,-0.8402944207191467
14193,-0.02488868311047554,-0.13058049976825714,0.02629707381129265,-0.5569252967834473,0.3117265999317169,-0.841754674911499
14203,-0.02453780360519886,-0.13085491955280304,0.026355218142271042,-0.5592034459114075,0.3134606182575226,-0.8405289053916931
14213,-0.024571986868977547,-0.13059043884277344,0.02643296681344509,-0.5883068442344666,0.3339329659938812,-0.8396191596984863
14223,-0.025499945506453514,-0.13055123388767242,0.02631549909710884,-0.6001234650611877,0.39849853515625,-0.8381708860397339
14233,-0.029369089752435684,-0.13001178205013275,0.026417940855026245,-0.6348140239715576,0.6154841184616089,-0.8370835781097412
14243,-0.03254646435379982,-0.13084538280963898,0.026397954672574997,-0.59600830078125,0.782713770866394,-0.8370173573493958
14253,-0.03272179886698723,-0.13105103373527527,0.026450103148818016,-0.596213698387146,0.7795177698135376,-0.8357887268066406
14263,-0.032711293548345566,-0.1319672167301178,0.02650550566613674,-0.5599627494812012,0.7689648270606995,-0.8349273800849915
14273,-0.03176161274313927,-0.1319229155778885,0.025559106841683388,-0.5746740698814392,0.710667610168457,-0.8350299596786499
14283,-0.035761021077632904,-0.13208185136318207,0.0254417285323143,-0.5746787786483765,0.9086018800735474,-0.8349520564079285
14293,-0.03970518708229065,-0.1315160095691681,0.02519318461418152,-0.6116327047348022,1.0925800800323486,-0.8352294564247131
14303,-0.04033747687935829,-0.13147959113121033,0.025163454934954643,-0.6218700408935547,1.093836784362793,-0.835097074508667
14313,-0.03959890082478523,-0.1324075162410736,0.025580253452062607,-0.5804440975189209,1.0248117446899414,-0.8352916836738586
14323,-0.03653419017791748,-0.13014021515846252,0.025860492140054703,-0.7052016854286194,0.8478149771690369,-0.8301399946212769
14333,-0.03118680790066719,-0.12565551698207855,0.026057245209813118,-0.9360835552215576,0.5679864883422852,-0.8195680379867554
14343,-0.030955815687775612,-0.12476658076047897,0.026037020608782768,-0.9691756963729858,0.5603981614112854,-0.817747175693512
14353,-0.03097318485379219,-0.1254613846540451,0.026137560606002808,-0.919642448425293,0.5626310706138611,-0.8177245259284973
14363,-0.03211401775479317,-0.12635479867458344,0.02572006545960903,-0.8628276586532593,0.6215280890464783,-0.8196753859519958
14373,-0.03097778931260109,-0.12548470497131348,0.025695456191897392,-0.8970900177955627,0.5634236931800842,-0.8172067403793335
14383,-0.03141787648200989,-0.1246047243475914,0.025670308619737625,-0.927035927772522,0.588886022567749,-0.8155216574668884
14393,-0.03119734674692154,-0.12461502850055695,0.025680307298898697,-0.913730800151825,0.5772598385810852,-0.8148007392883301
14403,-0.03117886744439602,-0.12434305250644684,0.02581600472331047,-0.9115763306617737,0.575241208076477,-0.814891517162323
14413,-0.0342848040163517,-0.1264403909444809,0.02593374438583851,-0.790992796421051,0.7261741757392883,-0.8209653496742249
14423,-0.03474654257297516,-0.12737572193145752,0.025956595316529274,-0.737919807434082,0.7387021780014038,-0.8228925466537476
14433,-0.034250758588314056,-0.1269211322069168,0.025990745052695274,-0.7574462294578552,0.7036136984825134,-0.820989727973938
14443,-0.034225281327962875,-0.1273958384990692,0.025569329038262367,-0.7318676114082336,0.6938148140907288,-0.8208363652229309
14453,-0.03314882516860962,-0.13219615817070007,0.02559594251215458,-0.4960452914237976,0.6287981867790222,-0.8244888186454773
14463,-0.02837965078651905,-0.13337990641593933,0.025565579533576965,-0.45258650183677673,0.3942132592201233,-0.8164392709732056
14473,-0.028158104047179222,-0.13245612382888794,0.025621959939599037,-0.5108386278152466,0.393181174993515,-0.8135375380516052
14483,-0.02909417636692524,-0.13376930356025696,0.025619536638259888,-0.45592960715293884,0.44892504811286926,-0.8156386017799377
14493,-0.023632125928997993,-0.12891127169132233,0.02494668774306774,-0.7109564542770386,0.1971403807401657,-0.8007352352142334
14503,-0.023129640147089958,-0.1288696825504303,0.02488831803202629,-0.7115532159805298,0.19722798466682434,-0.7999324202537537
14513,-0.022009752690792084,-0.12842169404029846,0.024768352508544922,-0.7311090230941772,0.16774244606494904,-0.7978178262710571
14523,-0.023012705147266388,-0.1279481202363968,0.02485581673681736,-0.74880450963974,0.24346503615379333,-0.7979415655136108
14535,-0.02286241017282009,-0.12958596646785736,0.02490701898932457,-0.6630688905715942,0.2568869888782501,-0.7995046377182007
14543,-0.026543259620666504,-0.12492144852876663,0.025074945762753487,-0.8846267461776733,0.46026960015296936,-0.8002955913543701
14555,-0.02586936391890049,-0.12450345605611801,0.025018716230988503,-0.8888410925865173,0.43650686740875244,-0.7994130253791809
14563,-0.026348114013671875,-0.12497955560684204,0.02504153549671173,-0.8479276895523071,0.4690095782279968,-0.7996734380722046
14573,-0.02705598808825016,-0.12589649856090546,0.02508612349629402,-0.7870070338249207,0.5102009773254395,-0.8013936281204224
14583,-0.02660405822098255,-0.1254449337720871,0.025948401540517807,-0.7977995872497559,0.4941002428531647,-0.7999679446220398
14593,-0.020810890942811966,-0.12687598168849945,0.02596910484135151,-0.7190271019935608,0.21310622990131378,-0.7919773459434509
14603,-0.020852820947766304,-0.1271098554134369,0.02603243663907051,-0.6976216435432434,0.24074798822402954,-0.7924222350120544
14613,-0.021313967183232307,-0.12621954083442688,0.026112886145710945,-0.7366201877593994,0.2876368463039398,-0.7922818660736084
14623,-0.022091912105679512,-0.13173018395900726,0.025778353214263916,-0.44916853308677673,0.34333327412605286,-0.7954317331314087
14634,-0.023009546101093292,-0.1328057497739792,0.025788504630327225,-0.40031707286834717,0.4074951410293579,-0.7961980104446411
14644,-0.020180899649858475,-0.1328306496143341,0.025727003812789917,-0.41204357147216797,0.27804505825042725,-0.7921098470687866
14653,-0.02318989858031273,-0.1284104883670807,0.026163393631577492,-0.6462464332580566,0.45768865942955017,-0.794740617275238
14664,-0.02232469990849495,-0.12819865345954895,0.026533175259828568,-0.6532360315322876,0.4258485436439514,-0.792796790599823
14673,-0.018815502524375916,-0.123931385576725,0.026454269886016846,-0.8736245036125183,0.2591947913169861,-0.7878299355506897
14683,-0.018359938636422157,-0.12360227108001709,0.026479652151465416,-0.8742883801460266,0.25898855924606323,-0.7855718731880188
14693,-0.017951292917132378,-0.12363046407699585,0.026531891897320747,-0.8558223843574524,0.26173898577690125,-0.7844017148017883
14703,-0.01823662407696247,-0.12455525994300842,0.0266940426081419,-0.7894802093505859,0.29933616518974304,-0.7835202813148499
14713,-0.01781340129673481,-0.12479089200496674,0.026881830766797066,-0.7641609907150269,0.29731959104537964,-0.7821005582809448
14723,-0.017839273437857628,-0.12458231300115585,0.026948433369398117,-0.7624453902244568,0.31928378343582153,-0.7812473177909851
14733,-0.018312066793441772,-0.12414955347776413,0.027030283585190773,-0.769492506980896,0.3678438365459442,-0.7816854119300842
14743,-0.01833489164710045,-0.12438280880451202,0.02711663581430912,-0.7440113425254822,0.38562676310539246,-0.781539261341095
14753,-0.019700800999999046,-0.12483513355255127,0.02675713412463665,-0.704988420009613,0.4737701714038849,-0.7831009030342102
14763,-0.025296250358223915,-0.13047751784324646,0.026977188885211945,-0.3929246962070465,0.7752997279167175,-0.7923896908760071
14773,-0.02539250999689102,-0.13061456382274628,0.027020640671253204,-0.3927488327026367,0.7754167914390564,-0.7904717326164246
14783,-0.02549310401082039,-0.13075266778469086,0.027064885944128036,-0.39099422097206116,0.7742812037467957,-0.7900906801223755
14793,-0.02572481520473957,-0.13097190856933594,0.027099695056676865,-0.3851260840892792,0.7790985703468323,-0.7893164753913879
14804,-0.03081231750547886,-0.13211771845817566,0.025623653084039688,-0.33132126927375793,1.0355786085128784,-0.7937501668930054
14814,-0.030232412740588188,-0.13111618161201477,0.025699181482195854,-0.39281609654426575,0.9830323457717896,-0.7920714616775513
14824,-0.02561935968697071,-0.1297183632850647,0.02604684792459011,-0.475493848323822,0.7281287908554077,-0.7857012152671814
14833,-0.026314465329051018,-0.12993909418582916,0.02601747214794159,-0.46498724818229675,0.7572156190872192,-0.7838866710662842
14843,-0.025603635236620903,-0.13042506575584412,0.02517329342663288,-0.44645845890045166,0.7133966088294983,-0.7837820649147034
14853,-0.030176149681210518,-0.12578673660755157,0.025167612358927727,-0.6935692429542542,0.9636980295181274,-0.7787666916847229
14863,-0.02950606308877468,-0.12537086009979248,0.025159383192658424,-0.7064099311828613,0.9090040922164917,-0.7783387303352356
14873,-0.031025046482682228,-0.12602007389068604,0.02506830357015133,-0.6584100127220154,0.9720118641853333,-0.7785360217094421
14883,-0.031794220209121704,-0.12567393481731415,0.024940377101302147,-0.6580116748809814,0.968296468257904,-0.7764655947685242
14893,-0.03600732609629631,-0.13297319412231445,0.02487415447831154,-0.2816091775894165,1.151509165763855,-0.7923320531845093
14903,-0.03444349020719528,-0.13222141563892365,0.025036362931132317,-0.33310988545417786,1.0415589809417725,-0.7888203263282776
14913,-0.034955013543367386,-0.13242948055267334,0.02498028054833412,-0.3328760862350464,1.0401864051818848,-0.7871578335762024
14923,-0.0343511626124382,-0.1334005743265152,0.0249837264418602,-0.295808345079422,0.9832295775413513,-0.7884253859519958
14933,-0.034521814435720444,-0.13233277201652527,0.02583649754524231,-0.3595009446144104,0.9669758677482605,-0.7836147546768188
14943,-0.03966285660862923,-0.13297595083713531,0.025597797706723213,-0.3330006003379822,1.1923662424087524,-0.7848265767097473
14953,-0.03736807033419609,-0.13542446494102478,0.025818154215812683,-0.2266162782907486,1.0440855026245117,-0.7889944911003113
14963,-0.038202427327632904,-0.13268381357192993,0.025957051664590836,-0.3724617660045624,1.057785153388977,-0.7803974151611328
14973,-0.04077906161546707,-0.13406936824321747,0.02575557865202427,-0.3124101459980011,1.1489962339401245,-0.7819477319717407
14983,-0.03947819396853447,-0.13285697996616364,0.02603866159915924,-0.38271477818489075,1.0545061826705933,-0.7781679630279541
14993,-0.03820328786969185,-0.13190141320228577,0.02618023194372654,-0.4364396035671234,0.9651203155517578,-0.7741529941558838
15003,-0.0416584275662899,-0.13159872591495514,0.026038270443677902,-0.4549764394760132,1.1046338081359863,-0.769004225730896
15013,-0.04068518057465553,-0.132528617978096,0.026211226359009743,-0.4158686697483063,1.0244232416152954,-0.7720474004745483
15023,-0.040276043117046356,-0.13042230904102325,0.02530786208808422,-0.5208512544631958,0.9810458421707153,-0.7651546001434326
15033,-0.036812808364629745,-0.13161838054656982,0.025490466505289078,-0.4651261866092682,0.7882954478263855,-0.7709842920303345
15043,-0.035641707479953766,-0.13162653148174286,0.025489069521427155,-0.4682091772556305,0.717654287815094,-0.7706901431083679
15053,-0.035631656646728516,-0.13253609836101532,0.025470979511737823,-0.42634469270706177,0.7041161060333252,-0.7716090679168701
15063,-0.034468069672584534,-0.13231605291366577,0.025248341262340546,-0.44126152992248535,0.6396645903587341,-0.7709367871284485
15073,-0.028288111090660095,-0.12700212001800537,0.02518264390528202,-0.7012827396392822,0.3417534828186035,-0.7610517144203186
15083,-0.022548524662852287,-0.12015640735626221,0.024345364421606064,-1.0206468105316162,0.08411505073308945,-0.7495341897010803
15093,-0.021925952285528183,-0.11946440488100052,0.024259861558675766,-1.0214173793792725,0.0852239727973938,-0.7483530640602112
15103,-0.021564092487096786,-0.12026777863502502,0.02446136437356472,-0.9485418200492859,0.09586722403764725,-0.7493159174919128
15113,-0.014513355679810047,-0.11481664329767227,0.024078860878944397,-1.182360053062439,-0.20856229960918427,-0.7459906339645386
15123,-0.015980780124664307,-0.11142359673976898,0.024057140573859215,-1.297612190246582,-0.0883813127875328,-0.7433850765228271
15133,-0.012604471296072006,-0.11090661585330963,0.02368258871138096,-1.2686346769332886,-0.20724238455295563,-0.742259681224823
15143,-0.014761684462428093,-0.1098192110657692,0.024227695539593697,-1.2644140720367432,-0.051936835050582886,-0.7429915070533752
15153,-0.0137071767821908,-0.110394686460495,0.02424788288772106,-1.1827518939971924,-0.06255929917097092,-0.7418643236160278
15163,-0.011049764230847359,-0.10850464552640915,0.02387203834950924,-1.224558711051941,-0.1479310244321823,-0.7393634915351868
15173,-0.011795359663665295,-0.10855098813772202,0.024216677993535995,-1.1671078205108643,-0.060052867978811264,-0.7397350668907166
15183,-0.011180923320353031,-0.10862225294113159,0.02437160164117813,-1.1105690002441406,-0.04803917929530144,-0.739216685295105
15193,-0.010232544504106045,-0.10757079720497131,0.02548743225634098,-1.108086109161377,-0.0491303913295269,-0.7395957112312317
15203,-0.011037333868443966,-0.10508852452039719,0.025526996701955795,-1.1820791959762573,0.0365619957447052,-0.7433099746704102
15213,-0.010432847775518894,-0.1077607050538063,0.026089487597346306,-0.9933977127075195,0.04652583971619606,-0.7380789518356323
15223,-0.01051685493439436,-0.10853848606348038,0.026427019387483597,-0.9104537963867188,0.09047354012727737,-0.7360288500785828
15233,-0.009751231409609318,-0.10776013135910034,0.02650993876159191,-0.9130306243896484,0.08982397615909576,-0.7348719239234924
15243,-0.009713824838399887,-0.10872630774974823,0.025580916553735733,-0.8263953924179077,0.12305725365877151,-0.7325140833854675
15253,-0.008896446786820889,-0.11485680192708969,0.025999601930379868,-0.4815461337566376,0.11752903461456299,-0.7209097146987915
15263,-0.009268571622669697,-0.11608957499265671,0.026024652644991875,-0.4156036674976349,0.13677431643009186,-0.7194120287895203
15273,-0.010431512258946896,-0.11428752541542053,0.02626611664891243,-0.4965483844280243,0.2379983514547348,-0.723828911781311
15283,-0.00937913078814745,-0.11298827826976776,0.026171328499913216,-0.5490645170211792,0.2155190110206604,-0.7242668271064758
15293,-0.009655676782131195,-0.11498342454433441,0.026321273297071457,-0.41939249634742737,0.26462823152542114,-0.7205507159233093
15303,-0.009681416675448418,-0.11434049904346466,0.026419656351208687,-0.43955355882644653,0.299362450838089,-0.721125066280365
15313,-0.00911553855985403,-0.11407265067100525,0.026488088071346283,-0.4385214149951935,0.2988361120223999,-0.7206414937973022
15323,-0.009188083931803703,-0.11593183130025864,0.026614783331751823,-0.3219688832759857,0.3330152630805969,-0.7160748839378357
15333,-0.004469987004995346,-0.11284004896879196,0.026283692568540573,-0.4850963354110718,0.1040072962641716,-0.7171640396118164
15343,-0.0005242482293397188,-0.11427245289087296,0.02611590549349785,-0.3942715525627136,-0.06844232976436615,-0.7107723355293274
15353,0.00045471510384231806,-0.11405988782644272,0.026140470057725906,-0.3935042917728424,-0.06937381625175476,-0.7099478840827942
15363,0.00032652742811478674,-0.11501384526491165,0.026317037642002106,-0.32975056767463684,-0.008319549262523651,-0.7092757821083069
15373,-0.0007315882248803973,-0.11385476589202881,0.026367928832769394,-0.38554272055625916,0.0981932282447815,-0.7112060189247131
15383,0.0007673774380236864,-0.11527879536151886,0.026367058977484703,-0.29867082834243774,0.06199398264288902,-0.7053433060646057
15393,0.00022770409123040736,-0.11436013132333755,0.026526764035224915,-0.33961591124534607,0.13911493122577667,-0.7054568529129028
15403,-0.0005002421676181257,-0.11323214322328568,0.0266899224370718,-0.39176830649375916,0.22125588357448578,-0.7069699168205261
15413,0.00010651659977156669,-0.11505555361509323,0.026866598054766655,-0.2839075028896332,0.22615885734558105,-0.7017024755477905
15423,-0.004348171409219503,-0.11456718295812607,0.027194540947675705,-0.3022823929786682,0.5004112124443054,-0.699529230594635
15433,0.0009323541889898479,-0.11440136283636093,0.027216676622629166,-0.30636948347091675,0.2428588569164276,-0.7016003131866455
15443,0.001634721178561449,-0.11429206281900406,0.027285337448120117,-0.3074091672897339,0.24186985194683075,-0.7006638646125793
15453,0.0017789421835914254,-0.11500698328018188,0.027399126440286636,-0.2638261914253235,0.26996827125549316,-0.6972546577453613
15463,-0.0032727380748838186,-0.12145213782787323,0.026714857667684555,0.08208439499139786,0.5663116574287415,-0.680849552154541
15473,-0.004441212397068739,-0.12071822583675385,0.026819948107004166,0.02575153112411499,0.64398592710495,-0.681765615940094
15483,-0.010424952022731304,-0.12606510519981384,0.0265515074133873,0.2937553822994232,0.9680423140525818,-0.6690746545791626
15493,-0.009744403883814812,-0.1265178769826889,0.026658590883016586,0.2797524333000183,0.9241188764572144,-0.6683949828147888
15503,-0.009868144057691097,-0.12711551785469055,0.026020897552371025,0.2792765498161316,0.9233534932136536,-0.668804407119751
