timestamp (ms),stateEstimate.x,stateEstimate.y,stateEstimate.z,stabilizer.roll,stabilizer.pitch,stabilizer.yaw
5445,0.0,0.0,0.0,0.0,0.0,0.0
5455,0.0,0.0,0.0,0.0,0.0,0.0
5465,0.0,0.0,0.0,0.0,0.0,0.0
5475,0.0,0.0,0.0,0.0,0.0,0.0
5485,0.0,0.0,0.0,0.0,0.0,0.0
5495,0.0,0.0,0.0,0.0,0.0,0.0
5505,0.0,0.0,0.0,0.0,0.0,0.0
5515,0.0,0.0,0.0,0.0,0.0,0.0
5525,0.0,0.0,0.0,0.0,0.0,0.0
5535,0.0,0.0,0.0,0.0,0.0,0.0
5545,0.0,0.0,0.0,0.0,0.0,0.0
5555,0.0,0.0,0.0,0.0,0.0,0.0
5565,0.0,0.0,0.0,0.0,0.0,0.0
5575,0.0,0.0,0.0,0.0,0.0,0.0
5585,0.0,0.0,0.0,0.0,0.0,0.0
5595,0.0,0.0,0.0,0.0,0.0,0.0
5605,0.0,0.0,0.0,0.0,0.0,0.0
5615,0.0,0.0,0.0,0.0,0.0,0.0
5625,0.0,0.0,0.0,0.0,0.0,0.0
5635,0.0,0.0,0.0,0.0,0.0,0.0
5645,0.0,0.0,0.0,0.0,0.0,0.0
5655,0.0,0.0,0.0,0.0,0.0,0.0
5665,0.0,0.0,0.0,0.0,0.0,0.0
5675,0.0,0.0,0.0,0.0,0.0,0.0
5685,0.0,0.0,0.0,0.0,0.0,0.0
5695,0.0,0.0,0.0,0.0,0.0,0.0
5705,0.0,0.0,0.0,0.0,0.0,0.0
5715,0.0,0.0,0.0,0.0,0.0,0.0
5725,0.0,0.0,0.0,0.0,0.0,0.0
5735,0.0,0.0,0.0,0.0,0.0,0.0
5745,0.0,0.0,0.0,0.0,0.0,0.0
5755,0.0,0.0,0.0,0.0,0.0,0.0
5765,0.0,0.0,0.0,0.0,0.0,0.0
5775,0.0,0.0,0.0,0.0,0.0,0.0
5785,0.0,0.0,0.0,0.0,0.0,0.0
5795,0.0,0.0,0.0,0.0,0.0,0.0
5805,0.0,0.0,0.0,0.0,0.0,0.0
5815,0.0,0.0,0.0,0.0,0.0,0.0
5825,0.0,0.0,0.0,0.0,0.0,0.0
5835,0.0,0.0,0.0,0.0,0.0,0.0
5845,0.0,0.0,0.0,0.0,0.0,0.0
5855,0.0,0.0,0.0,0.0,0.0,0.0
5865,0.0,0.0,0.0,0.0,0.0,0.0
5875,0.0,0.0,0.0,0.0,0.0,0.0
5885,0.0,0.0,0.0,0.0,0.0,0.0
5895,0.0,0.0,0.0,0.0,0.0,0.0
5905,0.0,0.0,0.0,0.0,0.0,0.0
5915,0.0,0.0,0.0,0.0,0.0,0.0
5925,0.0,0.0,0.0,0.0,0.0,0.0
5935,0.0,0.0,0.0,0.0,0.0,0.0
5945,0.0,0.0,0.0,0.0,0.0,0.0
5955,0.0,0.0,0.0,0.0,0.0,0.0
5965,0.0,0.0,0.0,0.0,0.0,0.0
5975,0.0,0.0,0.0,0.0,0.0,0.0
5985,0.0,0.0,0.0,0.0,0.0,0.0
5995,0.0,0.0,0.0,0.0,0.0,0.0
6005,0.0,0.0,0.0,0.0,0.0,0.0
6015,0.0,0.0,0.0,0.0,0.0,0.0
6025,0.0,0.0,0.0,0.0,0.0,0.0
6035,0.0,0.0,0.0,0.0,0.0,0.0
6045,0.0,0.0,0.0,0.0,0.0,0.0
6055,0.0,0.0,0.0,0.0,0.0,0.0
6065,0.0,0.0,0.0,0.0,0.0,0.0
6075,0.0,0.0,0.0,0.0,0.0,0.0
6085,0.0,0.0,0.0,0.0,0.0,0.0
6095,0.0,0.0,0.0,0.0,0.0,0.0
6105,0.0,0.0,0.0,0.0,0.0,0.0
6115,0.0,0.0,0.0,0.0,0.0,0.0
6125,0.0,0.0,0.0,0.0,0.0,0.0
6135,0.0,0.0,0.0,0.0,0.0,0.0
6145,0.0,0.0,0.0,0.0,0.0,0.0
6155,0.0,0.0,0.0,0.0,0.0,0.0
6165,0.0,0.0,0.0,0.0,0.0,0.0
6175,0.0,0.0,0.0,0.0,0.0,0.0
6185,0.0,0.0,0.0,0.0,0.0,0.0
6195,0.0,0.0,0.0,0.0,0.0,0.0
6205,0.0,0.0,0.0,0.0,0.0,0.0
6215,0.0,0.0,0.0,0.0,0.0,0.0
6225,0.0,0.0,0.0,0.0,0.0,0.0
6235,0.0,0.0,0.0,0.0,0.0,0.0
6245,0.0,0.0,0.0,0.0,0.0,0.0
6255,0.0,0.0,0.0,0.0,0.0,0.0
6265,0.0,0.0,0.0,0.0,0.0,0.0
6275,0.0,0.0,0.0,0.0,0.0,0.0
6285,0.0,0.0,0.0,0.0,0.0,0.0
6295,0.0,0.0,0.0,0.0,0.0,0.0
6305,0.0,0.0,0.0,0.0,0.0,0.0
6315,0.0,0.0,0.0,0.0,0.0,0.0
6325,0.0,0.0,0.0,0.0,0.0,0.0
6335,0.0,0.0,0.0,0.0,0.0,0.0
6345,0.0,0.0,0.0,0.0,0.0,0.0
6355,0.0,0.0,0.0,0.0,0.0,0.0
6365,0.0,0.0,0.0,0.0,0.0,0.0
6375,0.0,0.0,0.0,0.0,0.0,0.0
6385,0.0,0.0,0.0,0.0,0.0,0.0
6395,0.0,0.0,0.0,0.0,0.0,0.0
6405,0.0,0.0,0.0,0.0,0.0,0.0
6415,0.0,0.0,0.0,0.0,0.0,0.0
6425,0.0,0.0,0.0,0.0,0.0,0.0
6435,0.0,0.0,0.0,0.0,0.0,0.0
6445,0.0,0.0,0.0,0.0,0.0,0.0
6455,0.0,0.0,0.0,0.0,0.0,0.0
6465,0.0,0.0,0.0,0.0,0.0,0.0
6475,0.0,0.0,0.0,0.0,0.0,0.0
6485,0.0,0.0,0.0,0.0,0.0,0.0
6495,0.0,0.0,0.0,0.0,0.0,0.0
6505,0.0,0.0,0.0,0.0,0.0,0.0
6515,0.0,0.0,0.0,0.0,0.0,0.0
6525,0.0,0.0,0.0,0.0,0.0,0.0
6535,0.0,0.0,0.0,0.0,0.0,0.0
6545,0.0,0.0,0.0,0.0,0.0,0.0
6555,0.0,0.0,0.0,0.0,0.0,0.0
6565,0.0,0.0,0.0,0.0,0.0,0.0
6575,0.0,0.0,0.0,0.0,0.0,0.0
6585,0.0,0.0,0.0,0.0,0.0,0.0
6595,0.0,0.0,0.0,0.0,0.0,0.0
6605,0.0,0.0,0.0,0.0,0.0,0.0
6615,0.0,0.0,0.0,0.0,0.0,0.0
6625,0.0,0.0,0.0,0.0,0.0,0.0
6635,0.0,0.0,0.0,0.0,0.0,0.0
6645,0.0,0.0,0.0,0.0,0.0,0.0
6655,0.0,0.0,0.0,0.0,0.0,0.0
6665,0.0,0.0,0.0,0.0,0.0,0.0
6675,0.0,0.0,0.0,0.0,0.0,0.0
6685,0.0,0.0,0.0,0.0,0.0,0.0
6695,0.0,0.0,0.0,0.0,0.0,0.0
6705,0.0,0.0,0.0,0.0,0.0,0.0
6715,0.0,0.0,0.0,0.0,0.0,0.0
6725,0.0,0.0,0.0,0.0,0.0,0.0
6735,0.0,0.0,0.0,0.0,0.0,0.0
6745,0.0,0.0,0.0,0.0,0.0,0.0
6755,0.0,0.0,0.0,0.0,0.0,0.0
6765,0.0,0.0,0.0,0.0,0.0,0.0
6775,0.0,0.0,0.0,0.0,0.0,0.0
6785,0.0,0.0,0.0,0.0,0.0,0.0
6795,0.0,0.0,0.0,0.0,0.0,0.0
6805,0.0,0.0,0.0,0.0,0.0,0.0
6815,0.0,0.0,0.0,0.0,0.0,0.0
6825,0.0,0.0,0.0,0.0,0.0,0.0
6835,0.0,0.0,0.0,0.0,0.0,0.0
6845,0.0,0.0,0.0,0.0,0.0,0.0
6855,0.0,0.0,0.0,0.0,0.0,0.0
6865,0.0,0.0,0.0,0.0,0.0,0.0
6875,0.0,0.0,0.0,0.0,0.0,0.0
6885,0.0,0.0,0.0,0.0,0.0,0.0
6895,0.0,0.0,0.0,0.0,0.0,0.0
6905,0.0,0.0,0.0,0.0,0.0,0.0
6915,0.0,0.0,0.0,0.0,0.0,0.0
6925,0.0,0.0,0.0,0.0,0.0,0.0
6935,0.0,0.0,0.0,0.0,0.0,0.0
6945,0.0,0.0,0.0,0.0,0.0,0.0
6955,0.0,0.0,0.0,0.0,0.0,0.0
6965,0.0,0.0,0.0,0.0,0.0,0.0
6975,0.0,0.0,0.0,0.0,0.0,0.0
6985,0.0,0.0,0.0,0.0,0.0,0.0
6995,0.0,0.0,0.0,0.0,0.0,0.0
7005,0.0,0.0,0.0,0.0,0.0,0.0
7015,0.0,0.0,0.0,0.0,0.0,0.0
7025,0.0,0.0,0.0,0.0,0.0,0.0
7035,0.0,0.0,0.0,0.0,0.0,0.0
7045,0.0,0.0,0.0,0.0,0.0,0.0
7055,0.0,0.0,0.0,0.0,0.0,0.0
7065,0.0,0.0,0.0,0.0,0.0,0.0
7075,0.0,0.0,0.0,0.0,0.0,0.0
7085,0.0,0.0,0.0,0.0,0.0,0.0
7095,0.0,0.0,0.0,0.0,0.0,0.0
7105,0.0,0.0,0.0,0.0,0.0,0.0
7115,0.0,0.0,0.0,0.0,0.0,0.0
7125,0.0,0.0,0.0,0.0,0.0,0.0
7135,0.0,0.0,0.0,0.0,0.0,0.0
7145,0.0,0.0,0.0,0.0,0.0,0.0
7155,0.0,0.0,0.0,0.0,0.0,0.0
7165,0.0,0.0,0.0,0.0,0.0,0.0
7175,0.0,0.0,0.0,0.0,0.0,0.0
7185,0.0,0.0,0.0,0.0,0.0,0.0
7195,0.0,0.0,0.0,0.0,0.0,0.0
7205,0.0,0.0,0.0,0.0,0.0,0.0
7215,0.0,0.0,0.0,0.0,0.0,0.0
7225,0.0,0.0,0.0,0.0,0.0,0.0
7235,0.0,0.0,0.0,0.0,0.0,0.0
7245,0.0,0.0,0.0,0.0,0.0,0.0
7255,0.0,0.0,0.0,0.0,0.0,0.0
7265,0.0,0.0,0.0,0.0,0.0,0.0
7275,0.0,0.0,0.0,0.0,0.0,0.0
7285,0.0,0.0,0.0,0.0,0.0,0.0
7295,0.0,0.0,0.0,0.0,0.0,0.0
7305,0.0,0.0,0.0,0.0,0.0,0.0
7315,0.0,0.0,0.0,0.0,0.0,0.0
7325,0.0,0.0,0.0,0.0,0.0,0.0
7335,0.0,0.0,0.0,0.0,0.0,0.0
7345,0.0,0.0,0.0,0.0,0.0,0.0
7355,0.0,0.0,0.0,0.0,0.0,0.0
7365,0.0,0.0,0.0,0.0,0.0,0.0
7375,0.0,0.0,0.0,0.0,0.0,0.0
7385,0.0,0.0,0.0,0.0,0.0,0.0
7395,0.0,0.0,0.0,0.0,0.0,0.0
7405,0.0,0.0,0.0,0.0,0.0,0.0
7415,0.0,0.0,0.0,0.0,0.0,0.0
7425,0.0,0.0,0.0,0.0,0.0,0.0
7435,0.0,0.0,0.0,0.0,0.0,0.0
7445,0.0,0.0,0.0,0.0,0.0,0.0
7455,0.0,0.0,0.0,0.0,0.0,0.0
7465,0.0,0.0,0.0,0.0,0.0,0.0
7475,0.0,0.0,0.0,0.0,0.0,0.0
7485,0.0,0.0,0.0,0.0,0.0,0.0
7495,0.0,0.0,0.0,0.0,0.0,0.0
7505,0.0,0.0,0.0,0.0,0.0,0.0
7515,0.0,0.0,0.0,0.0,0.0,0.0
7525,0.0,0.0,0.0,0.0,0.0,0.0
7535,0.0,0.0,0.0,0.0,0.0,0.0
7545,0.0,0.0,0.0,0.0,0.0,0.0
7555,0.0,0.0,0.0,0.0,0.0,0.0
7565,0.0,0.0,0.0,0.0,0.0,0.0
7575,0.0,0.0,0.0,0.0,0.0,0.0
7585,0.0,0.0,0.0,0.0,0.0,0.0
7595,0.0,0.0,0.0,0.0,0.0,0.0
7605,0.0,0.0,0.0,0.0,0.0,0.0
7615,0.0,0.0,0.0,0.0,0.0,0.0
7625,0.0,0.0,0.0,0.0,0.0,0.0
7635,0.0,0.0,0.0,0.0,0.0,0.0
7645,0.0,0.0,0.0,0.0,0.0,0.0
7655,0.0,0.0,0.0,0.0,0.0,0.0
7665,0.0,0.0,0.0,0.0,0.0,0.0
7675,0.0,0.0,0.0,0.0,0.0,0.0
7685,0.0,0.0,0.0,0.0,0.0,0.0
7695,0.0,0.0,0.0,0.0,0.0,0.0
7705,0.0,0.0,0.0,0.0,0.0,0.0
7715,0.0,0.0,0.0,0.0,0.0,0.0
7725,0.0,0.0,0.0,0.0,0.0,0.0
7735,0.0,0.0,0.0,0.0,0.0,0.0
7745,0.0,0.0,0.0,0.0,0.0,0.0
7755,0.0,0.0,0.0,0.0,0.0,0.0
7765,0.0,0.0,0.0,0.0,0.0,0.0
7775,0.0,0.0,0.0,0.0,0.0,0.0
7785,0.0,0.0,0.0,0.0,0.0,0.0
7795,0.0,0.0,0.0,0.0,0.0,0.0
7805,0.0,0.0,0.0,0.0,0.0,0.0
7815,0.0,0.0,0.0,0.0,0.0,0.0
7825,0.0,0.0,0.0,0.0,0.0,0.0
7835,0.0,0.0,0.0,0.0,0.0,0.0
7845,0.0,0.0,0.0,0.0,0.0,0.0
7855,0.0,0.0,0.0,0.0,0.0,0.0
7865,0.0,0.0,0.0,0.0,0.0,0.0
7875,0.0,0.0,0.0,0.0,0.0,0.0
7885,0.0,0.0,0.0,0.0,0.0,0.0
7895,0.0,0.0,0.0,0.0,0.0,0.0
7905,0.0,0.0,0.0,0.0,0.0,0.0
7915,0.0,0.0,0.0,0.0,0.0,0.0
7925,0.0,0.0,0.0,0.0,0.0,0.0
7935,0.0,0.0,0.0,0.0,0.0,0.0
7945,0.0,0.0,0.0,0.0,0.0,0.0
7955,0.0,0.0,0.0,0.0,0.0,0.0
7965,0.0,0.0,0.0,0.0,0.0,0.0
7975,0.0,0.0,0.0,0.0,0.0,0.0
7985,0.0,0.0,0.0,0.0,0.0,0.0
7995,0.0,0.0,0.0,0.0,0.0,0.0
8005,0.0,0.0,0.0,0.0,0.0,0.0
8015,0.0,0.0,0.0,0.0,0.0,0.0
8025,0.0,0.0,0.0,0.0,0.0,0.0
8035,0.0,0.0,0.0,0.0,0.0,0.0
8045,0.0,0.0,0.0,0.0,0.0,0.0
8055,0.0,0.0,0.0,0.0,0.0,0.0
8065,0.0,0.0,0.0,0.0,0.0,0.0
8075,0.0,0.0,0.0,0.0,0.0,0.0
8085,0.0,0.0,0.0,0.0,0.0,0.0
8095,0.0,0.0,0.0,0.0,0.0,0.0
8105,0.0,0.0,0.0,0.0,0.0,0.0
8115,0.0,0.0,0.0,0.0,0.0,0.0
8125,0.0,0.0,0.0,0.0,0.0,0.0
8135,0.0,0.0,0.0,0.0,0.0,0.0
8145,0.0,0.0,0.0,0.0,0.0,0.0
8155,0.0,0.0,0.0,0.0,0.0,0.0
8165,0.0,0.0,0.0,0.0,0.0,0.0
8175,0.0,0.0,0.0,0.0,0.0,0.0
8185,0.0,0.0,0.0,0.0,0.0,0.0
8195,0.0,0.0,0.0,0.0,0.0,0.0
8205,0.0,0.0,0.0,0.0,0.0,0.0
8215,0.0,0.0,0.0,0.0,0.0,0.0
8225,0.0,0.0,0.0,0.0,0.0,0.0
8235,0.0,0.0,0.0,0.0,0.0,0.0
8245,0.0,0.0,0.0,0.0,0.0,0.0
8255,0.0,0.0,0.0,0.0,0.0,0.0
8265,0.0,0.0,0.0,0.0,0.0,0.0
8275,0.0,0.0,0.0,0.0,0.0,0.0
8285,0.0,0.0,0.0,0.0,0.0,0.0
8295,0.0,0.0,0.0,0.0,0.0,0.0
8305,0.0,0.0,0.0,0.0,0.0,0.0
8315,0.0,0.0,0.0,0.0,0.0,0.0
8325,0.0,0.0,0.0,0.0,0.0,0.0
8335,0.0,0.0,0.0,0.0,0.0,0.0
8345,0.0,0.0,0.0,0.0,0.0,0.0
8355,0.0,0.0,0.0,0.0,0.0,0.0
8365,0.0,0.0,0.0,0.0,0.0,0.0
8375,0.0,0.0,0.0,0.0,0.0,0.0
8385,0.0,0.0,0.0,0.0,0.0,0.0
8395,0.0,0.0,0.0,0.0,0.0,0.0
8405,0.0,0.0,0.0,0.0,0.0,0.0
8415,0.0,0.0,0.0,0.0,0.0,0.0
8425,0.0,0.0,0.0,0.0,0.0,0.0
8435,0.0,0.0,0.0,0.0,0.0,0.0
8445,0.0,0.0,0.0,0.0,0.0,0.0
8455,0.0,0.0,0.0,0.0,0.0,0.0
8465,0.0,0.0,0.0,0.0,0.0,0.0
8475,0.0,0.0,0.0,0.0,0.0,0.0
8485,0.0,0.0,0.0,0.0,0.0,0.0
8495,0.0,0.0,0.0,0.0,0.0,0.0
8505,0.0,0.0,0.0,0.0,0.0,0.0
8515,0.0,0.0,0.0,0.0,0.0,0.0
8525,0.0,0.0,0.0,0.0,0.0,0.0
8535,0.0,0.0,0.0,0.0,0.0,0.0
8545,0.0,0.0,0.0,0.0,0.0,0.0
8555,0.0,0.0,0.0,0.0,0.0,0.0
8565,0.0,0.0,0.0,0.0,0.0,0.0
8575,0.0,0.0,0.0,0.0,0.0,0.0
8585,0.0,0.0,0.0,0.0,0.0,0.0
8595,0.0,0.0,0.0,0.0,0.0,0.0
8605,0.0,0.0,0.0,0.0,0.0,0.0
8615,0.0,0.0,0.0,0.0,0.0,0.0
8625,0.0,0.0,0.0,0.0,0.0,0.0
8635,0.0,0.0,0.0,0.0,0.0,0.0
8645,0.0,0.0,0.0,0.0,0.0,0.0
8655,0.0,0.0,0.0,0.0,0.0,0.0
8665,0.0,0.0,0.0,0.0,0.0,0.0
8675,0.0,0.0,0.0,0.0,0.0,0.0
8685,0.0,0.0,0.0,0.0,0.0,0.0
8695,0.0,0.0,0.0,0.0,0.0,0.0
8705,0.0,0.0,0.0,0.0,0.0,0.0
8715,0.0,0.0,0.0,0.0,0.0,0.0
8725,0.0,0.0,0.0,0.0,0.0,0.0
8735,0.0,0.0,0.0,0.0,0.0,0.0
8745,0.0,0.0,0.0,0.0,0.0,0.0
8755,0.0,0.0,0.0,0.0,0.0,0.0
8765,0.0,0.0,0.0,0.0,0.0,0.0
8775,0.0,0.0,0.0,0.0,0.0,0.0
8785,0.0,0.0,0.0,0.0,0.0,0.0
8795,0.0,0.0,0.0,0.0,0.0,0.0
8805,0.0,0.0,0.0,0.0,0.0,0.0
8815,0.0,0.0,0.0,0.0,0.0,0.0
8825,0.0,0.0,0.0,0.0,0.0,0.0
8835,0.0,0.0,0.0,0.0,0.0,0.0
8845,0.0,0.0,0.0,0.0,0.0,0.0
8855,0.0,0.0,0.0,0.0,0.0,0.0
8865,0.0,0.0,0.0,0.0,0.0,0.0
8875,0.0,0.0,0.0,0.0,0.0,0.0
8885,0.0,0.0,0.0,0.0,0.0,0.0
8895,0.0,0.0,0.0,0.0,0.0,0.0
8905,0.0,0.0,0.0,0.0,0.0,0.0
8915,0.0,0.0,0.0,0.0,0.0,0.0
8925,0.0,0.0,0.0,0.0,0.0,0.0
8935,0.0,0.0,0.0,0.0,0.0,0.0
8945,0.0,0.0,0.0,0.0,0.0,0.0
8955,0.0,0.0,0.0,0.0,0.0,0.0
8965,0.0,0.0,0.0,0.0,0.0,0.0
8975,0.0,0.0,0.0,0.0,0.0,0.0
8985,0.0,0.0,0.0,0.0,0.0,0.0
8995,0.0,0.0,0.0,0.0,0.0,0.0
9005,0.0,0.0,0.0,0.0,0.0,0.0
9015,0.0,0.0,0.0,0.0,0.0,0.0
9025,0.0,0.0,0.0,0.0,0.0,0.0
9035,0.0,0.0,0.0,0.0,0.0,0.0
9045,0.0,0.0,0.0,0.0,0.0,0.0
9055,0.0,0.0,0.0,0.0,0.0,0.0
9065,0.0,0.0,0.0,0.0,0.0,0.0
9075,0.0,0.0,0.0,0.0,0.0,0.0
9085,0.0,0.0,0.0,0.0,0.0,0.0
9095,0.0,0.0,0.0,0.0,0.0,0.0
9105,0.0,0.0,0.0,0.0,0.0,0.0
9115,0.0,0.0,0.0,0.0,0.0,0.0
9125,0.0,0.0,0.0,0.0,0.0,0.0
9135,0.0,0.0,0.0,0.0,0.0,0.0
9145,0.0,0.0,0.0,0.0,0.0,0.0
9155,0.0,0.0,0.0,0.0,0.0,0.0
9165,0.0,0.0,0.0,0.0,0.0,0.0
9175,0.0,0.0,0.0,0.0,0.0,0.0
9185,0.0,0.0,0.0,0.0,0.0,0.0
9195,0.0,0.0,0.0,0.0,0.0,0.0
9205,0.0,0.0,0.0,0.0,0.0,0.0
9215,0.0,0.0,0.0,0.0,0.0,0.0
9225,0.0,0.0,0.0,0.0,0.0,0.0
9235,0.0,0.0,0.0,0.0,0.0,0.0
9245,0.0,0.0,0.0,0.0,0.0,0.0
9255,0.0,0.0,0.0,0.0,0.0,0.0
9265,0.0,0.0,0.0,0.0,0.0,0.0
9275,0.0,0.0,0.0,0.0,0.0,0.0
9285,0.0,0.0,0.0,0.0,0.0,0.0
9295,0.0,0.0,0.0,0.0,0.0,0.0
9305,0.0,0.0,0.0,0.0,0.0,0.0
9315,0.0,0.0,0.0,0.0,0.0,0.0
9325,0.0,0.0,0.0,0.0,0.0,0.0
9335,0.0,0.0,0.0,0.0,0.0,0.0
9345,0.0,0.0,0.0,0.0,0.0,0.0
9355,0.0,0.0,0.0,0.0,0.0,0.0
9365,0.0,0.0,0.0,0.0,0.0,0.0
9375,0.0,0.0,0.0,0.0,0.0,0.0
9385,0.0,0.0,0.0,0.0,0.0,0.0
9395,0.0,0.0,0.0,0.0,0.0,0.0
9405,0.0,0.0,0.0,0.0,0.0,0.0
9415,0.0,0.0,0.0,0.0,0.0,0.0
9425,0.0,0.0,0.0,0.0,0.0,0.0
9435,0.0,0.0,0.0,0.0,0.0,0.0
9445,0.0,0.0,0.0,0.0,0.0,0.0
9455,0.0,0.0,0.0,0.0,0.0,0.0
9465,0.0,0.0,0.0,0.0,0.0,0.0
9475,0.0,0.0,0.0,0.0,0.0,0.0
9485,0.0,0.0,0.0,0.0,0.0,0.0
9495,0.0,0.0,0.0,0.0,0.0,0.0
9505,0.0,0.0,0.0,0.0,0.0,0.0
9515,0.0,0.0,0.0,0.0,0.0,0.0
9525,0.0,0.0,0.0,0.0,0.0,0.0
9535,0.0,0.0,0.0,0.0,0.0,0.0
9545,0.0,0.0,0.0,0.0,0.0,0.0
9555,0.0,0.0,0.0,0.0,0.0,0.0
9565,0.0,0.0,0.0,0.0,0.0,0.0
9575,0.0,0.0,0.0,0.0,0.0,0.0
9585,0.0,0.0,0.0,0.0,0.0,0.0
9595,0.0,0.0,0.0,0.0,0.0,0.0
9605,0.0,0.0,0.0,0.0,0.0,0.0
9615,0.0,0.0,0.0,0.0,0.0,0.0
9625,0.0,0.0,0.0,0.0,0.0,0.0
9635,0.0,0.0,0.0,0.0,0.0,0.0
9645,0.0,0.0,0.0,0.0,0.0,0.0
9655,0.0,0.0,0.0,0.0,0.0,0.0
9665,0.0,0.0,0.024999842047691345,0.0,0.0,0.0
9675,7.206600457720924e-06,-0.00021442169963847846,0.024994971230626106,0.11650855839252472,0.0008154098759405315,0.001691504498012364
9685,-0.0001876737951533869,-0.0005832001334056258,0.02492687851190567,0.16857987642288208,0.12547728419303894,0.002455194713547826
9696,-0.00026324481586925685,-0.0009176100138574839,0.02491034008562565,0.16776925325393677,0.12615004181861877,0.004067299421876669
9706,-0.00018003770674113184,-0.0012720702216029167,0.02488974668085575,0.17673470079898834,0.05082777142524719,0.005054228473454714
9716,-0.0006007596966810524,-0.001372358645312488,0.02601485699415207,0.04507414996623993,0.278754860162735,0.0066112978383898735
9725,-0.0004013903089798987,-0.001638112822547555,0.026005415245890617,0.031230712309479713,0.13932830095291138,0.007762341760098934
9735,-0.00010340887092752382,-0.0017494698986411095,0.025992687791585922,-0.05483885481953621,-0.002236057771369815,0.01038284320384264
9745,-0.00031079252948984504,-0.0019879452884197235,0.025967378169298172,-0.06524212658405304,0.1352381855249405,0.011117128655314445
9755,-0.0013223221758380532,-0.0022229328751564026,0.0259487796574831,-0.07318683713674545,0.6188263893127441,0.011817358434200287
9765,-0.0008609218057245016,-0.004419806879013777,0.02506924234330654,0.768847644329071,0.3723964989185333,0.008018496446311474
9775,-0.0007524987449869514,-0.003539940109476447,0.025181420147418976,0.16789069771766663,0.3279035687446594,0.010649507865309715
9785,-0.0008703658822923899,-0.0034436334390193224,0.025136759504675865,-0.012992661446332932,0.3851580023765564,0.012227159924805164
9795,-0.0002084917068714276,-0.003289208048954606,0.025074737146496773,-0.1834944486618042,0.15065528452396393,0.012927197851240635
9805,-0.00044859963236376643,-0.005897726397961378,0.025312498211860657,0.6501947045326233,0.28427228331565857,0.010164691135287285
9815,-0.0001299912401009351,-0.003980228677392006,0.025449631735682487,-0.18144813179969788,0.21290569007396698,0.014180305413901806
9825,2.6364345103502274e-05,-0.004227976314723492,0.025375796481966972,-0.18125657737255096,0.2121289223432541,0.015605452470481396
9835,0.00020269227388780564,-0.004475605208426714,0.02529490739107132,-0.1821996420621872,0.21094930171966553,0.015326603315770626
9845,-0.0016321131261065602,-0.004887047223746777,0.025552310049533844,-0.1374921202659607,0.7844376564025879,0.01667807623744011
9855,-0.0010146957356482744,-0.004264673218131065,0.02550703100860119,-0.37559452652931213,0.6108266711235046,0.018255528062582016
9865,-0.00017434917390346527,-0.00405395170673728,0.025431782007217407,-0.46964579820632935,0.4115775227546692,0.019591139629483223
9875,0.0015250850701704621,-0.005330384708940983,0.02531697228550911,-0.19306166470050812,0.04280341416597366,0.018306786194443703
9885,-0.0017387360567227006,-0.005324735771864653,0.025473210960626602,-0.2512945234775543,0.8615650534629822,0.020410260185599327
9895,-0.0004388649540487677,-0.003359155496582389,0.026139182969927788,-0.7249737977981567,0.5782816410064697,0.02594919316470623
9905,0.0024046464823186398,-0.0020373999141156673,0.026060866191983223,-0.9955853819847107,0.01773562654852867,0.025074994191527367
9915,0.0023599464911967516,-0.0011706585064530373,0.026027314364910126,-1.1372393369674683,0.10946322977542877,0.027668101713061333
9925,0.003205890068784356,-0.00231541832908988,0.026060624048113823,-0.873825192451477,0.024144330993294716,0.026541903614997864
9935,1.6875623259693384e-05,-0.006587795913219452,0.02587386593222618,-0.07399270683526993,0.6891923546791077,0.021174905821681023
9945,-2.001469965762226e-06,-0.005663688760250807,0.025881284847855568,-0.285680890083313,0.7162625193595886,0.025140872225165367
9955,-0.0009263352840207517,-0.011755075305700302,0.025724124163389206,0.7122223973274231,0.8953061699867249,0.013987153768539429
9965,-0.0018434462836012244,-0.010318683460354805,0.02593625709414482,0.3619758188724518,1.0546687841415405,0.016950732097029686
9975,-0.00025265931617468596,-0.011172023601830006,0.02592282183468342,0.41165992617607117,0.7984778881072998,0.0189684871584177
9985,-0.0023224339820444584,-0.010209769941866398,0.02648746222257614,0.17694401741027832,1.1304874420166016,0.02085852436721325
9995,-0.0023181613069027662,-0.010845773853361607,0.02648339606821537,0.2056470662355423,1.1212764978408813,0.022837897762656212
10005,-0.0013989154249429703,-0.011022394523024559,0.026528695598244667,0.16416236758232117,0.9821785688400269,0.024883409962058067
10015,-0.0020899667870253325,-0.010975870303809643,0.026557328179478645,0.09435722976922989,1.0820531845092773,0.02679191716015339
10025,-0.0007138600340113044,-0.006337085738778114,0.026481136679649353,-0.585152804851532,0.8914192914962769,0.03957812860608101
10035,-0.0006092769908718765,-0.006342853885143995,0.02648003213107586,-0.5859072804450989,0.8895636796951294,0.04072907194495201
10045,-0.00038290873635560274,-0.006097637582570314,0.026470057666301727,-0.616087019443512,0.8731529116630554,0.042228832840919495
10055,0.0003272532776463777,-0.006355380639433861,0.026471193879842758,-0.5795305371284485,0.7983057498931885,0.03977970406413078
10065,0.000785978976637125,-0.007594675291329622,0.025859851390123367,-0.4277150630950928,0.765951931476593,0.03666894510388374
10075,0.0007399638998322189,-0.010775107890367508,0.02584858238697052,-0.062023475766181946,0.7950029969215393,0.030653947964310646
10085,0.0004544288676697761,-0.010721886530518532,0.025829322636127472,-0.10435503721237183,0.8508616089820862,0.03163354471325874
10095,-0.0032347259111702442,-0.00970290508121252,0.025897886604070663,-0.24942120909690857,1.283238172531128,0.03461882099509239
10105,-0.002246229676529765,-0.010642702691257,0.02589372731745243,-0.16686655580997467,1.1629040241241455,0.033631034195423126
10115,-0.0022364684846252203,-0.008324970491230488,0.02507694624364376,-0.4392443299293518,1.1595250368118286,0.04152998328208923
10125,-0.0022335154935717583,-0.008556758053600788,0.02500203065574169,-0.4206247925758362,1.1555978059768677,0.041531890630722046
10135,-0.002232230268418789,-0.010458648204803467,0.02494060806930065,-0.23132851719856262,1.1546571254730225,0.03807735815644264
10145,-0.002226209035143256,-0.010652057826519012,0.024863244965672493,-0.2313835322856903,1.154059886932373,0.03878744691610336
10155,-0.006064052693545818,-0.00831520650535822,0.024885311722755432,-0.4794386029243469,1.5322238206863403,0.047211192548274994
10165,-0.0009464588947594166,-0.0085667185485363,0.02502589114010334,-0.45638084411621094,1.0129588842391968,0.04707219824194908
10175,-0.0019784499891102314,-0.008311470039188862,0.024976341053843498,-0.48402801156044006,1.1203480958938599,0.04913797602057457
10185,0.00024760322412475944,-0.010548836551606655,0.024942398071289062,-0.2767302095890045,0.9168617129325867,0.04481933265924454
10195,0.0001908693666337058,-0.00953201949596405,0.02574300207197666,-0.38082966208457947,0.9373795986175537,0.04786502197384834
10205,0.0003765342407859862,-0.009602133184671402,0.025729933753609657,-0.38011765480041504,0.9371621012687683,0.048196546733379364
10215,5.6319317081943154e-05,-0.009315784089267254,0.025728262960910797,-0.41048571467399597,0.981566309928894,0.04935641586780548
10225,1.4517155250359792e-05,-0.008532707579433918,0.02571718581020832,-0.48190027475357056,0.9978122711181641,0.050878461450338364
10235,-0.0008038209634833038,-0.00931473821401596,0.025737978518009186,-0.41469311714172363,1.0777242183685303,0.04858110845088959
10245,0.00046927251969464123,-0.00724787637591362,0.025828266516327858,-0.587181568145752,0.9805140495300293,0.054615478962659836
10255,-0.001113038626499474,-0.00957627221941948,0.025910329073667526,-0.3898828625679016,1.1198945045471191,0.04810565337538719
10265,-0.0010286914184689522,-0.00961411651223898,0.025913046672940254,-0.39026710391044617,1.1199530363082886,0.048470187932252884
10275,2.4129996745614335e-05,-0.009870797395706177,0.025910858064889908,-0.3733118176460266,1.0447689294815063,0.05018451809883118
10285,0.0023762891069054604,-0.010926115326583385,0.02631889283657074,-0.29635322093963623,0.8765754103660583,0.04866839945316315
10295,0.0012389970943331718,-0.008801181800663471,0.02640194445848465,-0.4622516930103302,0.9815359115600586,0.05350153520703316
10305,0.0014581333380192518,-0.008762327954173088,0.0264277383685112,-0.46173185110092163,0.9818745255470276,0.05645940825343132
10315,0.0016566565027460456,-0.008780913427472115,0.02645365707576275,-0.4616340100765228,0.981346607208252,0.05725318193435669
10325,0.0021244543604552746,-0.00907122902572155,0.02647455222904682,-0.43792104721069336,0.962862491607666,0.05758744105696678
10335,-0.001714412122964859,-0.014185091480612755,0.026818031445145607,-0.08555973321199417,1.2436437606811523,0.0441109873354435
10345,-0.0027744921389967203,-0.01330660656094551,0.02688327059149742,-0.16546188294887543,1.3129278421401978,0.04828798398375511
10355,-0.002235192572697997,-0.014035825617611408,0.02691817656159401,-0.13268356025218964,1.2703603506088257,0.04947276413440704
10365,-0.0014572881627827883,-0.01525338739156723,0.026931799948215485,-0.06911811232566833,1.2167116403579712,0.04689941182732582
10375,-0.0006981682381592691,-0.013137252070009708,0.02622147463262081,-0.22773735225200653,1.1687356233596802,0.05400482937693596
10385,-0.0017223834292963147,-0.013859644532203674,0.026211213320493698,-0.19169378280639648,1.238556146621704,0.05498537793755531
10395,-0.0019790225196629763,-0.014067607931792736,0.02620312012732029,-0.19083884358406067,1.2542228698730469,0.05546966567635536
10405,-0.0027226461097598076,-0.012797377072274685,0.026223449036478996,-0.2827504873275757,1.2981057167053223,0.05926848202943802
10415,-0.0002658785379026085,-0.012781900353729725,0.026567814871668816,-0.2894066274166107,1.1420364379882812,0.061641626060009
10425,-0.00173565570730716,-0.01373201422393322,0.026603177189826965,-0.2350521683692932,1.2360551357269287,0.05963251739740372
10435,-0.002228725468739867,-0.013712618499994278,0.026624348014593124,-0.24627701938152313,1.2654982805252075,0.0608743317425251
10445,-0.0017517933156341314,-0.014645683579146862,0.026639338582754135,-0.1973886936903,1.2380609512329102,0.059733130037784576
10455,-0.0017262205947190523,-0.01483457162976265,0.026658611372113228,-0.19811931252479553,1.2378249168395996,0.060800399631261826
10465,-0.003250082489103079,-0.011515720747411251,0.026445917785167694,-0.4050886332988739,1.328752040863037,0.0698666051030159
10475,-0.0022383416071534157,-0.014264960773289204,0.026511818170547485,-0.24105721712112427,1.2636305093765259,0.06438954919576645
10485,-0.0027352150063961744,-0.013496576808393002,0.026531515643000603,-0.29291674494743347,1.2905806303024292,0.06907220929861069
10495,-0.0007787808426655829,-0.014455012045800686,0.026556076481938362,-0.24338388442993164,1.174913763999939,0.06756783276796341
10505,-0.0010404202621430159,-0.012983385473489761,0.02677616849541664,-0.3355611264705658,1.193645715713501,0.07225373387336731
10515,-0.0012854201486334205,-0.017529042437672615,0.02681463211774826,-0.0787520483136177,1.20973801612854,0.06248606741428375
10525,-0.002019135979935527,-0.016299910843372345,0.02690538577735424,-0.16799980401992798,1.2522168159484863,0.06738752871751785
10535,-0.0020003505051136017,-0.01651919260621071,0.026925869286060333,-0.16714471578598022,1.2533892393112183,0.06856626272201538
10545,-0.004770725034177303,-0.013707994483411312,0.026600390672683716,-0.3377898335456848,1.4088317155838013,0.07742457091808319
10555,-0.0034950498957186937,-0.016187982633709908,0.026648197323083878,-0.19912907481193542,1.3270138502120972,0.07140330225229263
10565,-0.0012770327739417553,-0.017144102603197098,0.02666524238884449,-0.15525975823402405,1.198819637298584,0.07026631385087967
10575,-0.002262281719595194,-0.01710347644984722,0.02669116109609604,-0.1682349294424057,1.2566206455230713,0.07247339934110641
10585,-0.0012969025410711765,-0.01730741374194622,0.026697443798184395,-0.16991296410560608,1.2003192901611328,0.07330447435379028
10595,-0.005623039323836565,-0.017524901777505875,0.02687295712530613,-0.16790549457073212,1.4421038627624512,0.07386669516563416
10605,-0.005357334390282631,-0.01772886887192726,0.026902776211500168,-0.16744652390480042,1.4156664609909058,0.07506968826055527
10615,-0.002275204285979271,-0.015583843924105167,0.02706487849354744,-0.29733893275260925,1.2357771396636963,0.08154317736625671
10625,-0.0011138286208733916,-0.015334231778979301,0.027083758264780045,-0.3127773702144623,1.1692495346069336,0.08254008740186691
10635,-0.0010123164393007755,-0.015383056364953518,0.027064552530646324,-0.31351250410079956,1.1682449579238892,0.08314725011587143
10645,-0.0009073679684661329,-0.015431499108672142,0.027089163661003113,-0.3118029236793518,1.1659363508224487,0.08490647375583649
10655,-0.0012014565290883183,-0.015419450588524342,0.02711920067667961,-0.3148180842399597,1.1849970817565918,0.08452150225639343
10665,-0.0014819219941273332,-0.015412510372698307,0.027147803455591202,-0.3169567883014679,1.2051270008087158,0.08626806735992432
10675,-0.0027720616199076176,-0.015917757526040077,0.027188578620553017,-0.28965359926223755,1.277103066444397,0.08486580103635788
10685,-0.000751136860344559,-0.021935248747467995,0.027117904275655746,0.03668857738375664,1.1654760837554932,0.07268889993429184
10695,-0.0006350578041747212,-0.022332273423671722,0.027132123708724976,0.03570980951189995,1.1644326448440552,0.07234291732311249
10705,-0.00067525589838624,-0.022490715608000755,0.02716074325144291,0.022291550412774086,1.1696364879608154,0.07363788038492203
10715,0.0003321128897368908,-0.022642653435468674,0.027173137292265892,0.009379270486533642,1.1219656467437744,0.07348061352968216
10725,0.0007867391686886549,-0.01693049818277359,0.027716225013136864,-0.3167080581188202,1.1043107509613037,0.0880192443728447
10736,0.00023769390827510506,-0.019453275948762894,0.027787422761321068,-0.18551160395145416,1.1420040130615234,0.08309943228960037
10745,0.00039447357994504273,-0.01963322050869465,0.027830883860588074,-0.18447650969028473,1.1409916877746582,0.08452822268009186
10755,-0.0009648203267715871,-0.018539806827902794,0.027925601229071617,-0.2519019544124603,1.2185603380203247,0.08720463514328003
10766,0.0013694548979401588,-0.02008082903921604,0.027955152094364166,-0.17554594576358795,1.0996311902999878,0.08499529957771301
10775,-0.0010067506227642298,-0.01874196156859398,0.02768651954829693,-0.25425606966018677,1.232966423034668,0.08818124979734421
10785,-0.00102619465906173,-0.0192266833037138,0.027718346565961838,-0.23508381843566895,1.2370812892913818,0.08915749192237854
10795,-0.0005419936496764421,-0.018696695566177368,0.027754219248890877,-0.2689060568809509,1.2148445844650269,0.09124206751585007
10805,-5.6120636145351455e-05,-0.019437415525317192,0.02778545580804348,-0.23450805246829987,1.1947888135910034,0.09126549959182739
10815,-0.005276035983115435,-0.016932811588048935,0.026720339432358742,-0.36971941590309143,1.469777226448059,0.09833631664514542
10825,-0.0028058351017534733,-0.013020709156990051,0.026715293526649475,-0.5684730410575867,1.3321293592453003,0.10619816929101944
10835,-0.0028319680131971836,-0.012757682241499424,0.026680851355195045,-0.5689444541931152,1.3311760425567627,0.10781829804182053
10845,-0.0020620564464479685,-0.013591853901743889,0.02671225368976593,-0.5098047852516174,1.2880074977874756,0.10592487454414368
10855,-0.0033286679536104202,-0.011875374242663383,0.026609642431139946,-0.5844460129737854,1.3530187606811523,0.10904209315776825
10865,-0.0033609233796596527,-0.011572451330721378,0.025477547198534012,-0.5849385857582092,1.3513909578323364,0.10934701561927795
10875,-0.0038740786258131266,-0.011658692732453346,0.02539254166185856,-0.5645952224731445,1.3735873699188232,0.11099350452423096
10885,-0.003948868252336979,-0.011366445571184158,0.02529778890311718,-0.5641183257102966,1.3720722198486328,0.11025134474039078
10895,-0.002826402662321925,-0.011738421395421028,0.02525845542550087,-0.5312902331352234,1.311482310295105,0.11098804324865341
10905,-0.0028429622761905193,-0.013704389333724976,0.026004929095506668,-0.42207157611846924,1.3102359771728516,0.10713236778974533
10915,0.004310362972319126,-0.014527803286910057,0.025998858734965324,-0.3763000965118408,0.9634689688682556,0.10853885114192963
10925,0.004744271747767925,-0.014447801746428013,0.025963451713323593,-0.3754388689994812,0.9640204310417175,0.11055875569581985
10935,0.0034849909134209156,-0.012546841986477375,0.02603016048669815,-0.46205228567123413,1.0439188480377197,0.11338513344526291
10945,0.010181205347180367,-0.01424227561801672,0.02541484497487545,-0.37196820974349976,0.7407773733139038,0.11302025616168976
10955,0.011039400473237038,-0.017715035006403923,0.025357656180858612,-0.20148709416389465,0.734997034072876,0.1090480163693428
10965,0.010838756337761879,-0.01690107397735119,0.025406979024410248,-0.24556505680084229,0.77836012840271,0.10953089594841003
10975,0.010914450511336327,-0.016622135415673256,0.025417711585760117,-0.2602578401565552,0.8066685199737549,0.1111002042889595
10985,0.010756213217973709,-0.0186438150703907,0.02542475424706936,-0.16757363080978394,0.846213698387146,0.11113180220127106
10995,0.008643477223813534,-0.02535220980644226,0.026074795052409172,0.14373256266117096,0.9771329164505005,0.10408487170934677
11005,0.009125398471951485,-0.02591007389128208,0.02606835961341858,0.14531762897968292,0.9768272638320923,0.10517807304859161
11015,0.009253003634512424,-0.02706763707101345,0.026023807004094124,0.17343737185001373,0.9936554431915283,0.10529500991106033
11025,0.009905708022415638,-0.026660552248358727,0.02611873298883438,0.12596003711223602,0.9839511513710022,0.10695217549800873
11035,0.009042643010616302,-0.025778649374842644,0.026642363518476486,0.059178370982408524,1.0482268333435059,0.11058928817510605
11045,0.008949831128120422,-0.026677174493670464,0.026665739715099335,0.07947766780853271,1.0709086656570435,0.11061713844537735
11055,0.0076408227905631065,-0.02560005709528923,0.02684774622321129,0.004321081098169088,1.1502448320388794,0.11280225217342377
11065,0.008079692721366882,-0.026499290019273758,0.026856739073991776,0.027294844388961792,1.1436606645584106,0.11268817633390427
11075,0.009714305400848389,-0.02810688130557537,0.026874931529164314,0.08340153098106384,1.0765620470046997,0.11236386001110077
11085,0.008465351536870003,-0.02567336894571781,0.02711210586130619,-0.05841108784079552,1.1538100242614746,0.1164272278547287
11095,0.008418269455432892,-0.02610006369650364,0.027160082012414932,-0.051421068608760834,1.1689666509628296,0.11672350019216537
11105,0.009078392758965492,-0.026052143424749374,0.02720971405506134,-0.07025869190692902,1.1506625413894653,0.11758153885602951
11115,0.009268978610634804,-0.025784969329833984,0.027275707572698593,-0.09860958904027939,1.1568882465362549,0.11860793828964233
11125,0.00831929873675108,-0.028040263801813126,0.027181580662727356,-0.0011306355008855462,1.219016671180725,0.11870038509368896
11135,0.008294904604554176,-0.0257305558770895,0.027332963421940804,-0.1383575201034546,1.2309482097625732,0.12264041602611542
11145,0.00804424099624157,-0.025707831606268883,0.02738521806895733,-0.153804212808609,1.2529462575912476,0.12318199127912521
11155,0.008476749062538147,-0.026134876534342766,0.027421433478593826,-0.144201397895813,1.239349365234375,0.1227669045329094
11165,0.008888088166713715,-0.024235935881733894,0.026857230812311172,-0.2528734505176544,1.2270574569702148,0.1258646845817566
11175,0.010801305994391441,-0.01292013842612505,0.026805363595485687,-0.8403600454330444,1.1377437114715576,0.13750959932804108
11185,0.011134914122521877,-0.012389042414724827,0.0268050916492939,-0.8374157547950745,1.1367548704147339,0.13781286776065826
11195,0.009937119670212269,-0.011077877134084702,0.026767821982502937,-0.8769165277481079,1.216220736503601,0.13995155692100525
11205,0.010821661911904812,-0.010230962187051773,0.026711994782090187,-0.8879857659339905,1.18260657787323,0.13929994404315948
11215,0.011449750512838364,-0.0030459887348115444,0.02618303708732128,-1.228986144065857,1.1622120141983032,0.14668984711170197
11225,0.012551846913993359,-0.00403375132009387,0.026454465463757515,-1.1221390962600708,1.1193597316741943,0.1443801075220108
11235,0.012300750240683556,-0.004093579947948456,0.02661902830004692,-1.0711244344711304,1.1501647233963013,0.1451588124036789
11245,0.012501121498644352,-0.0043756975792348385,0.026807384565472603,-1.009901523590088,1.1582882404327393,0.14472557604312897
11255,0.012875708751380444,0.0025245086289942265,0.024636130779981613,-1.3332875967025757,1.1545252799987793,0.15230274200439453
11265,0.011777892708778381,0.0005137918633408844,0.025068119168281555,-1.1607729196548462,1.2313413619995117,0.14739176630973816
11275,0.011786344461143017,-0.003357846988365054,0.025683913379907608,-0.8982721567153931,1.2435197830200195,0.1418144553899765
11285,0.012640709988772869,-0.0036272797733545303,0.02572793886065483,-0.8422874212265015,1.2091857194900513,0.14270193874835968
11295,0.01285051740705967,-0.0034260929096490145,0.025739695876836777,-0.8148935437202454,1.212051510810852,0.14301075041294098
11305,0.011990871280431747,-0.0031994935125112534,0.026285994797945023,-0.7887296080589294,1.2718241214752197,0.1412072777748108
11315,0.011775008402764797,-0.0034263506531715393,0.026347678154706955,-0.7400457859039307,1.2956881523132324,0.1403033286333084
11325,0.011148733086884022,-0.0031776404939591885,0.026386352255940437,-0.7164701223373413,1.3393577337265015,0.1381143033504486
11335,0.012410334311425686,-0.004026416223496199,0.026488197967410088,-0.635261058807373,1.2792236804962158,0.13818272948265076
11345,0.012827562168240547,-0.004860081244260073,0.026752542704343796,-0.5615923404693604,1.267948031425476,0.138990581035614
11355,0.011980150826275349,-0.003199234139174223,0.026761680841445923,-0.625844419002533,1.3232874870300293,0.13793104887008667
11365,0.011142111383378506,-0.0023753242567181587,0.026778405532240868,-0.6414129734039307,1.3763221502304077,0.1387321799993515
11375,0.012799125164747238,-0.003399315057322383,0.02690359577536583,-0.5542056560516357,1.291874885559082,0.139103963971138
11385,0.011140146292746067,-0.00237618712708354,0.026969360187649727,-0.5834068655967712,1.3908084630966187,0.13748155534267426
11395,0.012775608338415623,-0.0011382363736629486,0.026979438960552216,-0.6200637221336365,1.3062149286270142,0.14218385517597198
11405,0.01114182360470295,-0.002971834735944867,0.02717280015349388,-0.4925280213356018,1.4025768041610718,0.13534684479236603
11415,0.010939305648207664,-0.002766926074400544,0.027223285287618637,-0.48072463274002075,1.4149999618530273,0.13655637204647064
11425,0.012764038518071175,-0.0033577564172446728,0.027322949841618538,-0.4261118173599243,1.3188626766204834,0.1385798156261444
11435,0.011148369871079922,-0.0024113664403557777,0.026408197358250618,-0.4634857177734375,1.4146215915679932,0.13773886859416962
11445,0.011755741201341152,-0.002401837380602956,0.026412522420287132,-0.44309258460998535,1.3863134384155273,0.13855893909931183
11455,0.01175882387906313,-0.0033962067682296038,0.026445403695106506,-0.37081870436668396,1.3895835876464844,0.13704466819763184
11465,0.011847438290715218,-0.0031205411069095135,0.026437049731612206,-0.37076714634895325,1.3881683349609375,0.13878299295902252
11475,0.011626651510596275,-0.004180113784968853,0.0266948901116848,-0.2993372082710266,1.4035512208938599,0.13568338751792908
11485,0.011840987019240856,-0.003341161645948887,0.026702601462602615,-0.33404141664505005,1.3956495523452759,0.13797372579574585
11495,0.011205442249774933,-0.002927397144958377,0.02670983411371708,-0.3423886001110077,1.4300072193145752,0.13929283618927002
11505,0.012882386334240437,-0.003350783372297883,0.026744335889816284,-0.3060946464538574,1.3400754928588867,0.14017829298973083
11515,0.014970049262046814,-0.0025326088070869446,0.026406778022646904,-0.3381250500679016,1.2356187105178833,0.14290866255760193
11525,0.01621888391673565,-0.006675099488347769,0.02644472010433674,-0.10354932397603989,1.1838709115982056,0.13650617003440857
11535,0.01642690785229206,-0.006670762784779072,0.026443487033247948,-0.1047324687242508,1.1896222829818726,0.13652139902114868
11545,0.015398011542856693,-0.005843758583068848,0.026538239791989326,-0.15135891735553741,1.261228084564209,0.1374332755804062
11555,0.016627810895442963,-0.006659881677478552,0.026480278000235558,-0.10750969499349594,1.2076241970062256,0.13890618085861206
11565,0.017634710296988487,-0.0025540227070450783,0.027199745178222656,-0.3270728886127472,1.168605089187622,0.14622990787029266
11575,0.014798023737967014,-0.00499454140663147,0.027487918734550476,-0.1817040592432022,1.338884949684143,0.14178553223609924
11585,0.015611506998538971,-0.005597778595983982,0.027534732595086098,-0.14566746354103088,1.3010797500610352,0.1413993090391159
11595,0.015612184070050716,-0.005803033243864775,0.027591507881879807,-0.13491812348365784,1.3112815618515015,0.1411808282136917
11605,0.016223227605223656,-0.007012570276856422,0.027343953028321266,-0.06765931844711304,1.288489580154419,0.14014144241809845
11615,0.01522201020270586,-0.006411746144294739,0.027420593425631523,-0.10421373695135117,1.3523931503295898,0.14236415922641754
11625,0.01481696031987667,-0.0048105171881616116,0.027485350146889687,-0.1948731690645218,1.3809553384780884,0.1462220847606659
11635,0.015619542449712753,-0.00600783433765173,0.027533166110515594,-0.1250469982624054,1.3431657552719116,0.1451532542705536
11645,0.01804313249886036,-0.007412739098072052,0.025601858273148537,-0.04727735370397568,1.2173402309417725,0.1432524174451828
11656,0.018050096929073334,-0.0068241204135119915,0.025542475283145905,-0.08365848660469055,1.2336208820343018,0.1461171656847
11665,0.01726527139544487,-0.00642694067209959,0.02549809031188488,-0.10905686765909195,1.2933861017227173,0.14755700528621674
11675,0.017073888331651688,-0.008442633785307407,0.025410542264580727,0.0023469554726034403,1.3162167072296143,0.14403657615184784
11685,0.017281869426369667,-0.007850450463593006,0.025359246879816055,-0.041755806654691696,1.3128809928894043,0.14624036848545074
11695,0.017866311594843864,-0.0035066225100308657,0.025633329525589943,-0.2947677969932556,1.2875255346298218,0.15233522653579712
11705,0.0217868834733963,-0.003484530607238412,0.02548675425350666,-0.28720003366470337,1.0775717496871948,0.1482088416814804
11715,0.021413521841168404,-0.0030886479653418064,0.025471854954957962,-0.30265772342681885,1.1237542629241943,0.15094727277755737
11725,0.02182812988758087,-0.0030795661732554436,0.02541094273328781,-0.29186201095581055,1.1214842796325684,0.15026357769966125
11735,0.022246338427066803,-0.002911902265623212,0.02534368820488453,-0.29117393493652344,1.119293451309204,0.15038377046585083
11745,0.021089017391204834,-0.0030750231817364693,0.02565409615635872,-0.2714064121246338,1.2052897214889526,0.15039964020252228
11755,0.021108562126755714,-0.002873749937862158,0.02562139369547367,-0.273649662733078,1.2219812870025635,0.1517031192779541
11765,0.02190563455224037,-0.002863372443243861,0.025563370436429977,-0.26408013701438904,1.1935324668884277,0.15079419314861298
11775,0.020170073956251144,-0.003639075206592679,0.02565085142850876,-0.21022742986679077,1.313826560974121,0.15242257714271545
11785,0.02019035629928112,-0.005381087306886911,0.02535581775009632,-0.10496878623962402,1.3243639469146729,0.15026575326919556
11795,0.02097880281507969,-0.004990983754396439,0.02530050463974476,-0.12853416800498962,1.2883249521255493,0.15036897361278534
11805,0.021192500367760658,-0.004992341622710228,0.025246307253837585,-0.1289612352848053,1.2872728109359741,0.15025682747364044
11815,0.021789250895380974,-0.004990451503545046,0.025180576369166374,-0.12941643595695496,1.26517915725708,0.15213507413864136
11826,0.022394901141524315,-0.005575708579272032,0.02589195780456066,-0.09554868191480637,1.2441319227218628,0.1513270139694214
11835,0.02163269929587841,-0.004997492767870426,0.025912625715136528,-0.1294873207807541,1.3032629489898682,0.15407399833202362
11845,0.020869310945272446,-0.004223525524139404,0.02592100016772747,-0.17310939729213715,1.3596311807632446,0.15638722479343414
11855,0.020489349961280823,-0.004031038843095303,0.025912081822752953,-0.18101471662521362,1.3898375034332275,0.15739618241786957
11865,0.02051021344959736,-0.008881081826984882,0.025950148701667786,0.10399270802736282,1.3956934213638306,0.15204088389873505
11875,0.019935473799705505,-0.008704684674739838,0.026403076946735382,0.07810911536216736,1.4349803924560547,0.15439721941947937
11885,0.019937293604016304,-0.006005163304507732,0.026554277166724205,-0.09134606271982193,1.4378763437271118,0.15855322778224945
11895,0.02013503946363926,-0.0065829018130898476,0.02657795511186123,-0.06069963425397873,1.427817940711975,0.15713609755039215
11905,0.020214278250932693,-0.006665156222879887,0.0266028493642807,-0.06170842796564102,1.4269721508026123,0.15824611485004425
11915,0.022479133680462837,-0.010145720094442368,0.02674992009997368,0.13345934450626373,1.3002511262893677,0.15036936104297638
11925,0.02271014079451561,-0.010467340238392353,0.026777954772114754,0.1345837265253067,1.2988760471343994,0.15223199129104614
11935,0.022479116916656494,-0.011539282277226448,0.026776544749736786,0.17437167465686798,1.322484016418457,0.1522609293460846
11945,0.02290314808487892,-0.011516994796693325,0.0268254391849041,0.15231749415397644,1.3081234693527222,0.1523759961128235
11955,0.02245345339179039,-0.010855982080101967,0.026944903656840324,0.09508440643548965,1.3435540199279785,0.1544036567211151
11965,0.02287273108959198,-0.0112710976973176,0.026992052793502808,0.10184213519096375,1.3307552337646484,0.15533609688282013
11975,0.02265603467822075,-0.010838002897799015,0.027061237022280693,0.06161729246377945,1.3512781858444214,0.15717975795269012
11985,0.022651497274637222,-0.011247638612985611,0.02709052711725235,0.06937399506568909,1.358676791191101,0.15796467661857605
11995,0.022857895120978355,-0.011452152393758297,0.02712438441812992,0.06770038604736328,1.356439471244812,0.15833143889904022
12005,0.020770953968167305,-0.01627456024289131,0.027424421161413193,0.31088536977767944,1.4751062393188477,0.15783606469631195
12015,0.021210091188549995,-0.021462297067046165,0.027060044929385185,0.5565581321716309,1.451951503753662,0.15189990401268005
12025,0.021414602175354958,-0.02125534974038601,0.027256224304437637,0.4958265721797943,1.439477562904358,0.15370863676071167
12035,0.02185463160276413,-0.025770219042897224,0.026670483872294426,0.6907532215118408,1.4169944524765015,0.14742925763130188
12045,0.02185593917965889,-0.02680242247879505,0.026812119409441948,0.6905320286750793,1.4135510921478271,0.1476202756166458
12055,0.021429160609841347,-0.023768799379467964,0.027452610433101654,0.4663105309009552,1.4361017942428589,0.15483318269252777
12065,0.021219052374362946,-0.02377978526055813,0.0275875311344862,0.4196379482746124,1.446732759475708,0.15843510627746582
12075,0.02123720943927765,-0.024592146277427673,0.027632752433419228,0.41960200667381287,1.4450665712356567,0.15907983481884003
12085,0.021226191893219948,-0.02369367517530918,0.02791302092373371,0.32789087295532227,1.4468250274658203,0.16367483139038086
12095,0.021026989445090294,-0.023824404925107956,0.027150200679898262,0.2994174659252167,1.4574085474014282,0.1656162142753601
12105,0.021031171083450317,-0.0240151509642601,0.02719898335635662,0.2713511884212494,1.455265998840332,0.16887260973453522
12115,0.020604025572538376,-0.023997856304049492,0.027262676507234573,0.2351808249950409,1.4765613079071045,0.1720694899559021
12125,0.021029649302363396,-0.02461322955787182,0.02728790044784546,0.23525387048721313,1.4513635635375977,0.17094752192497253
12135,0.021866748109459877,-0.022278400138020515,0.02734374813735485,0.0770656168460846,1.403754711151123,0.1735021471977234
12145,0.02191769890487194,-0.022715773433446884,0.027367737144231796,0.07663637399673462,1.4012417793273926,0.17428800463676453
12155,0.021967429667711258,-0.023158857598900795,0.02739167958498001,0.07720516622066498,1.3982516527175903,0.17620953917503357
12165,0.021962713450193405,-0.02380194328725338,0.027406884357333183,0.08809687197208405,1.4004820585250854,0.17548123002052307
12175,0.022009721025824547,-0.02426667883992195,0.02742922119796276,0.08836878836154938,1.3995180130004883,0.17621374130249023
12185,0.021709991618990898,-0.022749444469809532,0.027396120131015778,-0.005255041643977165,1.412333369255066,0.18066078424453735
12195,0.021017175167798996,-0.022711770609021187,0.02742651104927063,-0.02673165872693062,1.451412558555603,0.18305866420269012
12205,0.021001098677515984,-0.023048311471939087,0.027446510270237923,-0.026104237884283066,1.4499653577804565,0.1844615340232849
12215,0.02225712686777115,-0.023960933089256287,0.02746019884943962,0.0031587800476700068,1.3835718631744385,0.18035441637039185
12225,0.02177993580698967,-0.023897266015410423,0.02728881500661373,-0.01676999218761921,1.412251591682434,0.18382836878299713
12235,0.021295743063092232,-0.022670848295092583,0.02733820490539074,-0.09931514412164688,1.4381773471832275,0.18761831521987915
12245,0.02152719907462597,-0.022643210366368294,0.027355162426829338,-0.11233096569776535,1.4260808229446411,0.18858425319194794
12255,0.02153688296675682,-0.022887704893946648,0.02736835554242134,-0.10934925824403763,1.4235758781433105,0.18985672295093536
12265,0.02226739563047886,-0.02406417950987816,0.027368586510419846,-0.061298634856939316,1.3867982625961304,0.18734923005104065
12275,0.02180798351764679,-0.030562380328774452,0.027100857347249985,0.2485874742269516,1.4109903573989868,0.17920491099357605
12285,0.021828027442097664,-0.03121803142130375,0.027089102193713188,0.24943558871746063,1.411482810974121,0.1786193698644638
12295,0.021819990128278732,-0.030325191095471382,0.027206113561987877,0.17111140489578247,1.4108585119247437,0.18110840022563934
12305,0.022565891966223717,-0.031204596161842346,0.027180800214409828,0.18528561294078827,1.3744975328445435,0.1804087609052658
12315,0.020821871235966682,-0.031111493706703186,0.02757004089653492,0.14946748316287994,1.4594217538833618,0.18386290967464447
12325,0.022795291617512703,-0.031495630741119385,0.027614697813987732,0.1406814157962799,1.3573495149612427,0.18197664618492126
12335,0.021821090951561928,-0.031174086034297943,0.027694309130311012,0.09571756422519684,1.4057269096374512,0.18525418639183044
12345,0.020854361355304718,-0.030858822166919708,0.027764495462179184,0.05567489564418793,1.4517550468444824,0.18876825273036957
12355,0.025159921497106552,-0.030510369688272476,0.027834851294755936,0.013731607235968113,1.2282272577285767,0.18397767841815948
12365,0.02538270130753517,-0.030932556837797165,0.02750333398580551,0.013957136310636997,1.2283833026885986,0.18462955951690674
12375,0.026306182146072388,-0.03228016942739487,0.02746586687862873,0.055608320981264114,1.19124436378479,0.18227440118789673
12385,0.025587933138012886,-0.03203130513429642,0.027554117143154144,0.016927260905504227,1.239242434501648,0.18521936237812042
12395,0.026259448379278183,-0.03197125345468521,0.027577796950936317,-0.008265022188425064,1.2144957780838013,0.1870112419128418
12405,0.026245037093758583,-0.03495492786169052,0.02770438976585865,0.11807078868150711,1.2240792512893677,0.1849813163280487
12415,0.021356826648116112,-0.030291473492980003,0.02813895419239998,-0.13905704021453857,1.4718703031539917,0.1979825347661972
12425,0.020678076893091202,-0.030034631490707397,0.028178155422210693,-0.16347745060920715,1.5016862154006958,0.20005019009113312
12435,0.020228011533617973,-0.03023720160126686,0.028214378282427788,-0.16514243185520172,1.518182396888733,0.20179349184036255
12445,0.014692881144583225,-0.03611377626657486,0.02709931880235672,0.11169855296611786,1.7980738878250122,0.19907532632350922
12455,0.014209910295903683,-0.036705534905195236,0.02706405706703663,0.11081258207559586,1.7970728874206543,0.2002744823694229
12465,0.013720466755330563,-0.037302084267139435,0.02702849544584751,0.1106555163860321,1.7966177463531494,0.20167362689971924
12475,0.014035879634320736,-0.03816508501768112,0.027046535164117813,0.12186093628406525,1.7542195320129395,0.2003687024116516
12485,0.014544549398124218,-0.037469033151865005,0.027210067957639694,0.05486026406288147,1.7034733295440674,0.20295380055904388
12495,0.014168543741106987,-0.037989091128110886,0.02666778303682804,0.05587060749530792,1.7012195587158203,0.20277325809001923
12505,0.013768594712018967,-0.038533974438905716,0.02661721222102642,0.05698603391647339,1.699790120124817,0.2036409229040146
12515,0.01384857390075922,-0.038677796721458435,0.026617737486958504,0.037426967173814774,1.6737219095230103,0.20500260591506958
12525,0.013663488440215588,-0.03858771547675133,0.026618586853146553,0.00802969466894865,1.6652288436889648,0.206266388297081
12535,0.014014399610459805,-0.038459133356809616,0.025491800159215927,-0.018882522359490395,1.6322859525680542,0.20701032876968384
12545,0.009990084916353226,-0.03552350029349327,0.02537284977734089,-0.1801648586988449,1.8064314126968384,0.21807430684566498
12555,0.006527707912027836,-0.03478151559829712,0.025034135207533836,-0.2268180251121521,1.9425618648529053,0.22314314544200897
12565,0.0066296872682869434,-0.035465095192193985,0.025015266612172127,-0.20405706763267517,1.898315191268921,0.22195613384246826
12575,0.005724094342440367,-0.035233691334724426,0.02581106312572956,-0.22674795985221863,1.901863932609558,0.22382685542106628
12585,0.007175440900027752,-0.033360544592142105,0.025940123945474625,-0.3255910277366638,1.796160340309143,0.22833994030952454
12595,0.006551158148795366,-0.03542793169617653,0.02592477947473526,-0.2314027100801468,1.797088623046875,0.22431395947933197
12605,0.0066094184294342995,-0.035633135586977005,0.02593323402106762,-0.2316512167453766,1.7632520198822021,0.22355370223522186
12616,0.0066553098149597645,-0.033798884600400925,0.025977637618780136,-0.33636564016342163,1.7284621000289917,0.229402557015419
12625,0.006117206998169422,-0.03384725749492645,0.025952089577913284,-0.3356027901172638,1.7282742261886597,0.22921614348888397
12635,0.006198955699801445,-0.034790750592947006,0.02595837600529194,-0.2924635410308838,1.695407509803772,0.2275296002626419
12645,0.005689626559615135,-0.03488711640238762,0.02592480182647705,-0.29158949851989746,1.6919255256652832,0.2280917465686798
12655,0.005798129364848137,-0.03562526777386665,0.025930464267730713,-0.2601722180843353,1.6587862968444824,0.2280929833650589
12665,0.005854642949998379,-0.035847652703523636,0.026394585147500038,-0.25602734088897705,1.6305789947509766,0.22689062356948853
12675,0.004956078715622425,-0.03607599809765816,0.02637469954788685,-0.2506400942802429,1.6515268087387085,0.22769130766391754
12685,0.0062430198304355145,-0.03506733477115631,0.02647455222904682,-0.30614954233169556,1.5631922483444214,0.23124703764915466
12695,0.005862628575414419,-0.0351373665034771,0.026479633525013924,-0.3064597249031067,1.5610501766204834,0.2309749275445938
12705,0.0057064238935709,-0.03511989861726761,0.026276404038071632,-0.31018945574760437,1.549138069152832,0.2317918986082077
12715,0.007288519758731127,-0.03358487784862518,0.026320183649659157,-0.3868808448314667,1.4540373086929321,0.23727326095104218
12725,0.0058422330766916275,-0.0335981585085392,0.02630123496055603,-0.3830588459968567,1.5111727714538574,0.23638829588890076
12735,0.0061492896638810635,-0.03507709130644798,0.02633366733789444,-0.3078431189060211,1.4785144329071045,0.23401224613189697
12746,0.0062029543332755566,-0.03580356761813164,0.02633541449904442,-0.2729091942310333,1.4597903490066528,0.2324666827917099
12756,0.007539722137153149,-0.031141256913542747,0.027097085490822792,-0.5135904550552368,1.3677582740783691,0.244670569896698
12766,0.0073651582933962345,-0.030949406325817108,0.02713451348245144,-0.511282742023468,1.3660742044448853,0.24556995928287506
12775,0.0076240007765591145,-0.032158806920051575,0.027226673439145088,-0.43945497274398804,1.3437235355377197,0.24386924505233765
12786,0.007476057391613722,-0.03203297033905983,0.027267390862107277,-0.4390917718410492,1.3413029909133911,0.24509739875793457
12796,0.008062828332185745,-0.03304881229996681,0.026349028572440147,-0.382638543844223,1.3060256242752075,0.24464282393455505
12806,0.007348751649260521,-0.03355349972844124,0.02634553238749504,-0.3544534146785736,1.335761308670044,0.24479132890701294
12816,0.008188735693693161,-0.03157210350036621,0.02632017806172371,-0.45446842908859253,1.2826415300369263,0.2484377920627594
12826,0.008110706694424152,-0.031412240117788315,0.026308076456189156,-0.45295602083206177,1.2803484201431274,0.2503688633441925
12836,0.009101519361138344,-0.03339724987745285,0.02635001949965954,-0.34325575828552246,1.2233922481536865,0.24928076565265656
12846,0.009057123214006424,-0.03333628550171852,0.02703913114964962,-0.34156256914138794,1.2226941585540771,0.24893204867839813
12856,0.0074235824868083,-0.0333450585603714,0.027087802067399025,-0.338723748922348,1.3026084899902344,0.24783410131931305
12866,0.007667349185794592,-0.03242562338709831,0.027116458863019943,-0.38233858346939087,1.2839444875717163,0.24910122156143188
12876,0.006979268044233322,-0.03128485381603241,0.02712847851216793,-0.43373847007751465,1.3140478134155273,0.2507900595664978
12886,0.008133520372211933,-0.03312113508582115,0.0275532566010952,-0.3322088420391083,1.2494783401489258,0.25129279494285583
12896,0.006748879794031382,-0.029944149777293205,0.02758977748453617,-0.48635128140449524,1.3158843517303467,0.25138288736343384
12906,0.006757155526429415,-0.031765881925821304,0.02770947851240635,-0.38141027092933655,1.3071260452270508,0.2518008351325989
12916,0.007908587343990803,-0.03200051933526993,0.027774902060627937,-0.3621472716331482,1.2443640232086182,0.25317075848579407
12926,0.010701227001845837,-0.03170144930481911,0.027077563107013702,-0.3754430115222931,1.0943424701690674,0.2567341923713684
12936,0.010852635838091373,-0.031573474407196045,0.027085108682513237,-0.3726751506328583,1.0940487384796143,0.2565855383872986
12945,0.010394951328635216,-0.031576499342918396,0.027112741023302078,-0.3674395978450775,1.1239553689956665,0.2560294270515442
12956,0.010519123636186123,-0.03144843131303787,0.02712145820260048,-0.36659491062164307,1.123510718345642,0.256399929523468
12966,0.01050475798547268,-0.03217078372836113,0.027148263528943062,-0.3237689435482025,1.1297979354858398,0.25602424144744873
12975,0.011666571721434593,-0.03217770904302597,0.027078526094555855,-0.3167121410369873,1.0765881538391113,0.25801199674606323
12986,0.01186084933578968,-0.032097943127155304,0.02708333730697632,-0.31578704714775085,1.0757520198822021,0.2584262490272522
12996,0.0108191492035985,-0.028188664466142654,0.027095546945929527,-0.5044313073158264,1.1355479955673218,0.25580838322639465
13006,0.010798494331538677,-0.02800147980451584,0.02710559219121933,-0.49643459916114807,1.1414145231246948,0.25718405842781067
13016,0.01127497386187315,-0.029023947194218636,0.02667457051575184,-0.43184903264045715,1.1237894296646118,0.2589838206768036
13026,0.011505816131830215,-0.03166572377085686,0.026712851598858833,-0.2930830419063568,1.1210030317306519,0.2598395347595215
13035,0.01074239145964384,-0.02694028429687023,0.026707760989665985,-0.5193408727645874,1.1641347408294678,0.25842586159706116
13046,0.01085155364125967,-0.02658333256840706,0.026681501418352127,-0.5187234282493591,1.162271499633789,0.25882235169410706
13056,0.009320498444139957,-0.026116304099559784,0.026676490902900696,-0.5217252969741821,1.2438279390335083,0.2561975121498108
13066,0.00933157280087471,-0.02575271762907505,0.026354415342211723,-0.5205065011978149,1.2392756938934326,0.257638156414032
13076,0.012499001808464527,-0.02773505635559559,0.026432527229189873,-0.40570202469825745,1.0879789590835571,0.262364000082016
13086,0.010775546543300152,-0.02681877836585045,0.02643602341413498,-0.437368243932724,1.1782091856002808,0.2597636282444
13096,0.012439399026334286,-0.028041435405611992,0.026445284485816956,-0.36398452520370483,1.1021884679794312,0.26344114542007446
13106,0.011699260212481022,-0.026875872164964676,0.026662176474928856,-0.41181790828704834,1.145904541015625,0.2621097266674042
13116,0.012614399194717407,-0.026437507942318916,0.026629742234945297,-0.4177481532096863,1.1102689504623413,0.2634299695491791
13126,0.0107372822239995,-0.02693798393011093,0.026678843423724174,-0.38304951786994934,1.207851767539978,0.2617398202419281
13136,0.010725686326622963,-0.025804564356803894,0.026638243347406387,-0.42600923776626587,1.2114776372909546,0.2607295513153076
13146,0.012559724040329456,-0.02719193324446678,0.02682621404528618,-0.3443731367588043,1.1268116235733032,0.26459768414497375
13156,0.009358664974570274,-0.027680402621626854,0.026889240369200706,-0.31073543429374695,1.2878345251083374,0.26178234815597534
13165,0.012530524283647537,-0.027898894622921944,0.026937194168567657,-0.29368284344673157,1.1346513032913208,0.267837256193161
13176,0.012712135910987854,-0.027772273868322372,0.026937052607536316,-0.29227617383003235,1.1346244812011719,0.2682206332683563
13185,0.012689903378486633,-0.0280319694429636,0.026945073157548904,-0.27206525206565857,1.1425275802612305,0.269153356552124
13196,0.012875008396804333,-0.027960363775491714,0.02561132423579693,-0.2708369493484497,1.1405056715011597,0.2688600420951843
13206,0.010775119066238403,-0.026704175397753716,0.02556557022035122,-0.32545462250709534,1.2471601963043213,0.26662567257881165
13215,0.010826103389263153,-0.02652835100889206,0.025486895814538002,-0.32640430331230164,1.2470848560333252,0.26815366744995117
13226,0.012036294676363468,-0.026552893221378326,0.025413114577531815,-0.31605106592178345,1.1896487474441528,0.268993079662323
13236,0.011787892319262028,-0.02755182608962059,0.025169791653752327,-0.26044556498527527,1.2065925598144531,0.2691163420677185
13245,0.01127796433866024,-0.0244557224214077,0.025067700073122978,-0.4070530831813812,1.2352851629257202,0.26808401942253113
13255,0.010797947645187378,-0.02591625228524208,0.025038130581378937,-0.32216551899909973,1.2623374462127686,0.26845911145210266
13265,0.0115113016217947,-0.02711256965994835,0.024978231638669968,-0.2535921335220337,1.228493332862854,0.2682499587535858
13277,0.012701122090220451,-0.02785346657037735,0.02488773502409458,-0.21042810380458832,1.1750800609588623,0.2693338692188263
13287,0.012231525965034962,-0.028311558067798615,0.025315413251519203,-0.18323732912540436,1.2037745714187622,0.2694953382015228
13295,0.010446909815073013,-0.039098743349313736,0.02520720101892948,0.3582965135574341,1.2994261980056763,0.2732636332511902
13305,0.01045904215425253,-0.039688590914011,0.025141889229416847,0.357820063829422,1.2991838455200195,0.27350327372550964
13317,0.009489384479820728,-0.03936414793133736,0.025185231119394302,0.3126148283481598,1.348147988319397,0.27190643548965454
13325,0.01115361601114273,-0.03998876363039017,0.0259181447327137,0.3157205581665039,1.2613714933395386,0.2717511057853699
13335,0.012813274748623371,-0.04179631173610687,0.025793885812163353,0.37727242708206177,1.1805986166000366,0.27390024065971375
13345,0.013995764777064323,-0.046139996498823166,0.025374777615070343,0.5604833364486694,1.1280956268310547,0.2755676805973053
13355,0.01398190762847662,-0.04720635712146759,0.025300059467554092,0.569634735584259,1.1391737461090088,0.27590614557266235
