timestamp (ms),stabilizer.roll,stabilizer.pitch,stabilizer.yaw,motor.m1,motor.m2,motor.m3,motor.m4
4601,0.0,0.0,0.0,0,0,0,0
4611,0.0,0.0,0.0,0,0,0,0
4621,0.0,0.0,0.0,0,0,0,0
4631,0.0,0.0,0.0,0,0,0,0
4641,0.0,0.0,0.0,0,0,0,0
4651,0.0,0.0,0.0,0,0,0,0
4661,0.0,0.0,0.0,0,0,0,0
4671,0.0,0.0,0.0,0,0,0,0
4681,0.0,0.0,0.0,0,0,0,0
4691,0.0,0.0,0.0,0,0,0,0
4701,0.0,0.0,0.0,0,0,0,0
4711,0.0,0.0,0.0,0,0,0,0
4721,0.0,0.0,0.0,0,0,0,0
4731,0.0,0.0,0.0,0,0,0,0
4741,0.0,0.0,0.0,0,0,0,0
4751,0.0,0.0,0.0,0,0,0,0
4761,0.0,0.0,0.0,0,0,0,0
4771,0.0,0.0,0.0,0,0,0,0
4781,0.0,0.0,0.0,0,0,0,0
4791,0.0,0.0,0.0,0,0,0,0
4801,0.0,0.0,0.0,0,0,0,0
4811,0.0,0.0,0.0,0,0,0,0
4821,0.0,0.0,0.0,0,0,0,0
4831,0.0,0.0,0.0,0,0,0,0
4841,0.0,0.0,0.0,0,0,0,0
4851,0.0,0.0,0.0,0,0,0,0
4861,0.0,0.0,0.0,0,0,0,0
4871,0.0,0.0,0.0,0,0,0,0
4881,0.0,0.0,0.0,0,0,0,0
4891,0.0,0.0,0.0,0,0,0,0
4901,0.0,0.0,0.0,0,0,0,0
4911,0.0,0.0,0.0,0,0,0,0
4921,0.0,0.0,0.0,0,0,0,0
4931,0.0,0.0,0.0,0,0,0,0
4941,0.0,0.0,0.0,0,0,0,0
4951,0.0,0.0,0.0,0,0,0,0
4961,0.0,0.0,0.0,0,0,0,0
4971,0.0,0.0,0.0,0,0,0,0
4981,0.0,0.0,0.0,0,0,0,0
4991,0.0,0.0,0.0,0,0,0,0
5001,0.0,0.0,0.0,0,0,0,0
5011,0.0,0.0,0.0,0,0,0,0
5021,0.0,0.0,0.0,0,0,0,0
5031,0.0,0.0,0.0,0,0,0,0
5041,0.0,0.0,0.0,0,0,0,0
5051,0.0,0.0,0.0,0,0,0,0
5061,0.0,0.0,0.0,0,0,0,0
5071,0.0,0.0,0.0,0,0,0,0
5081,0.0,0.0,0.0,0,0,0,0
5091,0.0,0.0,0.0,0,0,0,0
5101,0.0,0.0,0.0,0,0,0,0
5111,0.0,0.0,0.0,0,0,0,0
5121,0.0,0.0,0.0,0,0,0,0
5131,0.0,0.0,0.0,0,0,0,0
5141,0.0,0.0,0.0,0,0,0,0
5151,0.0,0.0,0.0,0,0,0,0
5161,0.0,0.0,0.0,0,0,0,0
5171,0.0,0.0,0.0,0,0,0,0
5181,0.0,0.0,0.0,0,0,0,0
5191,0.0,0.0,0.0,0,0,0,0
5201,0.0,0.0,0.0,0,0,0,0
5211,0.0,0.0,0.0,0,0,0,0
5221,0.0,0.0,0.0,0,0,0,0
5231,0.0,0.0,0.0,0,0,0,0
5241,0.0,0.0,0.0,0,0,0,0
5251,0.0,0.0,0.0,0,0,0,0
5261,0.0,0.0,0.0,0,0,0,0
5271,0.0,0.0,0.0,0,0,0,0
5281,0.0,0.0,0.0,0,0,0,0
5291,0.0,0.0,0.0,0,0,0,0
5301,0.0,0.0,0.0,0,0,0,0
5311,0.0,0.0,0.0,0,0,0,0
5321,0.0,0.0,0.0,0,0,0,0
5331,0.0,0.0,0.0,0,0,0,0
5341,0.0,0.0,0.0,0,0,0,0
5351,0.0,0.0,0.0,0,0,0,0
5361,0.0,0.0,0.0,0,0,0,0
5371,0.0,0.0,0.0,0,0,0,0
5381,0.0,0.0,0.0,0,0,0,0
5391,0.0,0.0,0.0,0,0,0,0
5401,0.0,0.0,0.0,0,0,0,0
5411,0.0,0.0,0.0,0,0,0,0
5421,0.0,0.0,0.0,0,0,0,0
5431,0.0,0.0,0.0,0,0,0,0
5441,0.0,0.0,0.0,0,0,0,0
5451,0.0,0.0,0.0,0,0,0,0
5461,0.0,0.0,0.0,0,0,0,0
5471,0.0,0.0,0.0,0,0,0,0
5481,0.0,0.0,0.0,0,0,0,0
5491,0.0,0.0,0.0,0,0,0,0
5501,0.0,0.0,0.0,0,0,0,0
5511,0.0,0.0,0.0,0,0,0,0
5521,0.0,0.0,0.0,0,0,0,0
5531,0.0,0.0,0.0,0,0,0,0
5541,0.0,0.0,0.0,0,0,0,0
5551,0.0,0.0,0.0,0,0,0,0
5561,0.0,0.0,0.0,0,0,0,0
5571,0.0,0.0,0.0,0,0,0,0
5581,0.0,0.0,0.0,0,0,0,0
5591,0.0,0.0,0.0,0,0,0,0
5601,0.0,0.0,0.0,0,0,0,0
5611,0.0,0.0,0.0,0,0,0,0
5621,0.0,0.0,0.0,0,0,0,0
5631,0.0,0.0,0.0,0,0,0,0
5641,0.0,0.0,0.0,0,0,0,0
5651,0.0,0.0,0.0,0,0,0,0
5661,0.0,0.0,0.0,0,0,0,0
5671,0.0,0.0,0.0,0,0,0,0
5681,0.0,0.0,0.0,0,0,0,0
5691,0.0,0.0,0.0,0,0,0,0
5701,0.0,0.0,0.0,0,0,0,0
5711,0.0,0.0,0.0,0,0,0,0
5721,0.0,0.0,0.0,0,0,0,0
5731,0.0,0.0,0.0,0,0,0,0
5741,0.0,0.0,0.0,0,0,0,0
5751,0.0,0.0,0.0,0,0,0,0
5761,0.0,0.0,0.0,0,0,0,0
5771,0.0,0.0,0.0,0,0,0,0
5781,0.0,0.0,0.0,0,0,0,0
5791,0.0,0.0,0.0,0,0,0,0
5801,0.0,0.0,0.0,0,0,0,0
5811,0.0,0.0,0.0,0,0,0,0
5821,0.0,0.0,0.0,0,0,0,0
5831,0.0,0.0,0.0,0,0,0,0
5841,0.0,0.0,0.0,0,0,0,0
5851,0.0,0.0,0.0,0,0,0,0
5861,0.0,0.0,0.0,0,0,0,0
5871,0.0,0.0,0.0,0,0,0,0
5881,0.0,0.0,0.0,0,0,0,0
5891,0.0,0.0,0.0,0,0,0,0
5901,0.0,0.0,0.0,0,0,0,0
5911,0.0,0.0,0.0,0,0,0,0
5921,0.0,0.0,0.0,0,0,0,0
5931,0.0,0.0,0.0,0,0,0,0
5941,0.0,0.0,0.0,0,0,0,0
5951,0.0,0.0,0.0,0,0,0,0
5961,0.0,0.0,0.0,0,0,0,0
5971,0.0,0.0,0.0,0,0,0,0
5981,0.0,0.0,0.0,0,0,0,0
5991,0.0,0.0,0.0,0,0,0,0
6001,0.0,0.0,0.0,0,0,0,0
6011,0.0,0.0,0.0,0,0,0,0
6021,0.0,0.0,0.0,0,0,0,0
6031,0.0,0.0,0.0,0,0,0,0
6041,0.0,0.0,0.0,0,0,0,0
6051,0.0,0.0,0.0,0,0,0,0
6061,0.0,0.0,0.0,0,0,0,0
6071,0.0,0.0,0.0,0,0,0,0
6081,0.0,0.0,0.0,0,0,0,0
6091,0.0,0.0,0.0,0,0,0,0
6101,0.0,0.0,0.0,0,0,0,0
6111,0.0,0.0,0.0,0,0,0,0
6121,0.0,0.0,0.0,0,0,0,0
6131,0.0,0.0,0.0,0,0,0,0
6141,0.0,0.0,0.0,0,0,0,0
6151,0.0,0.0,0.0,0,0,0,0
6161,0.0,0.0,0.0,0,0,0,0
6171,0.0,0.0,0.0,0,0,0,0
6181,0.0,0.0,0.0,0,0,0,0
6191,0.0,0.0,0.0,0,0,0,0
6201,0.0,0.0,0.0,0,0,0,0
6211,0.0,0.0,0.0,0,0,0,0
6221,0.0,0.0,0.0,0,0,0,0
6231,0.0,0.0,0.0,0,0,0,0
6241,0.0,0.0,0.0,0,0,0,0
6251,0.0,0.0,0.0,0,0,0,0
6261,0.0,0.0,0.0,0,0,0,0
6271,0.0,0.0,0.0,0,0,0,0
6281,0.0,0.0,0.0,0,0,0,0
6291,0.0,0.0,0.0,0,0,0,0
6301,0.0,0.0,0.0,0,0,0,0
6311,0.0,0.0,0.0,0,0,0,0
6321,0.0,0.0,0.0,0,0,0,0
6331,0.0,0.0,0.0,0,0,0,0
6341,0.0,0.0,0.0,0,0,0,0
6351,0.0,0.0,0.0,0,0,0,0
6361,0.0,0.0,0.0,0,0,0,0
6371,0.0,0.0,0.0,0,0,0,0
6381,0.0,0.0,0.0,0,0,0,0
6391,0.0,0.0,0.0,0,0,0,0
6401,0.0,0.0,0.0,0,0,0,0
6411,0.0,0.0,0.0,0,0,0,0
6421,0.0,0.0,0.0,0,0,0,0
6431,0.0,0.0,0.0,0,0,0,0
6441,0.0,0.0,0.0,0,0,0,0
6451,0.0,0.0,0.0,0,0,0,0
6461,0.0,0.0,0.0,0,0,0,0
6471,0.0,0.0,0.0,0,0,0,0
6481,0.0,0.0,0.0,0,0,0,0
6491,0.0,0.0,0.0,0,0,0,0
6501,0.0,0.0,0.0,0,0,0,0
6511,0.0,0.0,0.0,0,0,0,0
6521,0.0,0.0,0.0,0,0,0,0
6531,0.0,0.0,0.0,0,0,0,0
6541,0.0,0.0,0.0,0,0,0,0
6551,0.0,0.0,0.0,0,0,0,0
6561,0.0,0.0,0.0,0,0,0,0
6571,0.0,0.0,0.0,0,0,0,0
6581,0.0,0.0,0.0,0,0,0,0
6591,0.0,0.0,0.0,0,0,0,0
6601,0.0,0.0,0.0,0,0,0,0
6611,0.0,0.0,0.0,0,0,0,0
6621,0.0,0.0,0.0,0,0,0,0
6631,0.0,0.0,0.0,0,0,0,0
6641,0.0,0.0,0.0,0,0,0,0
6651,0.0,0.0,0.0,0,0,0,0
6661,0.0,0.0,0.0,0,0,0,0
6671,0.0,0.0,0.0,0,0,0,0
6681,0.0,0.0,0.0,0,0,0,0
6691,0.0,0.0,0.0,0,0,0,0
6701,0.0,0.0,0.0,0,0,0,0
6711,0.0,0.0,0.0,0,0,0,0
6721,0.0,0.0,0.0,0,0,0,0
6731,0.0,0.0,0.0,0,0,0,0
6741,0.0,0.0,0.0,0,0,0,0
6751,0.0,0.0,0.0,0,0,0,0
6761,0.0,0.0,0.0,0,0,0,0
6771,0.0,0.0,0.0,0,0,0,0
6781,0.0,0.0,0.0,0,0,0,0
6791,0.0,0.0,0.0,0,0,0,0
6801,0.0,0.0,0.0,0,0,0,0
6811,0.0,0.0,0.0,0,0,0,0
6821,0.0,0.0,0.0,0,0,0,0
6831,0.0,0.0,0.0,0,0,0,0
6841,0.0,0.0,0.0,0,0,0,0
6851,0.0,0.0,0.0,0,0,0,0
6861,0.0,0.0,0.0,0,0,0,0
6871,0.0,0.0,0.0,0,0,0,0
6881,0.0,0.0,0.0,0,0,0,0
6891,0.0,0.0,0.0,0,0,0,0
6901,0.0,0.0,0.0,0,0,0,0
6911,0.0,0.0,0.0,0,0,0,0
6921,0.0,0.0,0.0,0,0,0,0
6931,0.0,0.0,0.0,0,0,0,0
6941,0.0,0.0,0.0,0,0,0,0
6951,0.0,0.0,0.0,0,0,0,0
6961,0.0,0.0,0.0,0,0,0,0
6971,0.0,0.0,0.0,0,0,0,0
6981,0.0,0.0,0.0,0,0,0,0
6991,0.0,0.0,0.0,0,0,0,0
7001,0.0,0.0,0.0,0,0,0,0
7011,0.0,0.0,0.0,0,0,0,0
7021,0.0,0.0,0.0,0,0,0,0
7031,0.0,0.0,0.0,0,0,0,0
7041,0.0,0.0,0.0,0,0,0,0
7051,0.0,0.0,0.0,0,0,0,0
7061,0.0,0.0,0.0,0,0,0,0
7071,0.0,0.0,0.0,0,0,0,0
7081,0.0,0.0,0.0,0,0,0,0
7091,0.0,0.0,0.0,0,0,0,0
7101,0.0,0.0,0.0,0,0,0,0
7111,0.001486154505982995,-0.0014743488281965256,-1.1078293027821928e-05,0,0,0,0
7121,0.0010598854860290885,-0.0021992032416164875,0.0011123140575364232,0,0,0,0
7131,8.330240234499797e-05,-0.0019409721717238426,0.0006581261986866593,0,0,0,0
7141,-0.001989999320358038,-0.0020075745414942503,0.0006132342969067395,0,0,0,0
7151,0.0945756733417511,-0.053629979491233826,0.0005009633023291826,0,0,0,0
7161,-0.007023922633379698,0.01123427040874958,0.0009102787007577717,0,0,0,0
7171,-0.008621690794825554,0.01207234151661396,0.0020802568178623915,0,0,0,0
7181,-0.4605993330478668,-0.3352257013320923,0.001229073852300644,0,0,0,0
7191,-0.6880143880844116,-0.3789407014846802,3.602671131375246e-05,0,0,0,0
7201,-1.336360216140747,-1.3440946340560913,-0.012550870887935162,0,0,0,0
7211,-1.3343322277069092,-1.342869520187378,-0.012131670489907265,0,0,0,0
7221,-2.6971025466918945,-2.7036869525909424,-0.06020283326506615,0,0,0,0
7231,-2.445188522338867,-2.449913740158081,-0.05024086311459541,0,0,0,0
7241,-2.1556334495544434,-1.9563349485397339,-0.035983383655548096,0,0,0,0
7251,-2.152567148208618,-1.953784465789795,-0.0359385684132576,0,0,0,0
7261,-1.6864782571792603,-1.54787015914917,-0.021337686106562614,0,0,0,0
7271,-2.491800546646118,-1.6061521768569946,-0.04074710234999657,0,0,0,0
7281,-1.6867555379867554,-0.8720107078552246,-0.01864807680249214,0,0,0,0
7291,-1.7541388273239136,0.03642908111214638,-0.01699317991733551,0,0,0,0
7301,-1.8795233964920044,0.8695743083953857,-0.01571968011558056,0,0,0,0
7311,-1.8760473728179932,0.8687887191772461,-0.01573539525270462,0,0,0,0
7321,-1.176173210144043,0.388392835855484,-0.014871940948069096,0,0,0,0
7331,-1.1739416122436523,0.3882780075073242,-0.015234184451401234,0,0,0,0
7342,-1.1102290153503418,0.9022645354270935,-0.016926106065511703,0,0,0,0
7351,-0.7914121150970459,0.5265063643455505,-0.016155168414115906,0,0,0,0
7361,-0.7904292345046997,0.5250571966171265,-0.015618003904819489,0,0,0,0
7371,-0.47082775831222534,0.6120564937591553,-0.017072055488824844,0,0,0,0
7381,-0.556297242641449,0.6099372506141663,-0.01659226045012474,0,0,0,0
7391,-1.579161286354065,-0.1273294985294342,-0.008359714411199093,0,0,0,0
7402,-1.5768027305603027,-0.12706631422042847,-0.007408128585666418,0,0,0,0
7412,-1.2368494272232056,0.13618209958076477,-0.008081812411546707,0,0,0,0
7422,-1.0947788953781128,-0.14480412006378174,-0.008105647750198841,0,0,0,0
7432,-0.7617945075035095,-0.11551156640052795,-0.00910955760627985,0,0,0,0
7442,-0.8385279178619385,0.12429225444793701,-0.0092842448502779,0,0,0,0
7451,-0.7423000335693359,0.832449734210968,-0.011824666522443295,0,0,0,0
7462,-0.7431251406669617,0.8318557739257812,-0.010741900652647018,0,0,0,0
7472,-0.732973039150238,1.0184881687164307,-0.01125599816441536,0,0,0,0
7482,-0.7312226891517639,1.0183693170547485,-0.011122123338282108,0,0,0,0
7492,-0.6112273931503296,1.014848232269287,-0.013321198523044586,0,0,0,0
7502,-0.47797107696533203,1.0129987001419067,-0.01556282676756382,0,0,0,0
7512,-0.3589963912963867,1.0079160928726196,-0.018343288451433182,0,0,0,0
7522,-0.3322888910770416,0.9278619289398193,-0.01988319493830204,0,0,0,0
7532,-0.26311933994293213,1.0122029781341553,-0.02193092182278633,0,0,0,0
7542,-0.2627444267272949,1.0119104385375977,-0.022154973819851875,0,0,0,0
7552,-0.09964768588542938,0.933208167552948,-0.027256274595856667,0,0,0,0
7562,-0.15511055290699005,0.9328382611274719,-0.025050263851881027,0,0,0,0
7571,-0.15190964937210083,0.9320636987686157,-0.02560659870505333,0,0,0,0
7582,-0.15032866597175598,0.9303552508354187,-0.025239910930395126,0,0,0,0
7592,-0.15845581889152527,1.0011647939682007,-0.022596601396799088,0,0,0,0
7602,-0.12084396928548813,0.9905929565429688,-0.023461168631911278,0,0,0,0
7611,-0.12015332281589508,0.9885678291320801,-0.022726865485310555,0,0,0,0
7622,-0.05287414416670799,0.8902248740196228,-0.025532973930239677,0,0,0,0
7632,-0.05270260199904442,0.8886967897415161,-0.02488202229142189,0,0,0,0
7642,-0.04105200245976448,0.905792236328125,-0.023990675806999207,0,0,0,0
7652,-0.04033129662275314,0.9062464237213135,-0.023600738495588303,0,0,0,0
7662,-0.1283549815416336,0.972208559513092,-0.018206419423222542,0,0,0,0
7672,-0.042867694050073624,0.8483572602272034,-0.025743164122104645,0,0,0,0
7682,-0.04252297803759575,0.8459173440933228,-0.025586243718862534,0,0,0,0
7692,-0.056924253702163696,0.9391648173332214,-0.022341782227158546,0,0,0,0
7702,0.031955040991306305,0.8402288556098938,-0.02836938016116619,0,0,0,0
7712,-0.058545202016830444,0.9240404367446899,-0.02192627266049385,0,0,0,0
7722,-0.05728575214743614,0.9221071004867554,-0.022217104211449623,0,0,0,0
7732,-0.042207226157188416,0.8476081490516663,-0.02395445853471756,0,0,0,0
7742,-0.04237914830446243,0.845895528793335,-0.02300313487648964,0,0,0,0
7752,-0.02810526266694069,0.8435857892036438,-0.023520762100815773,0,0,0,0
7762,-0.02642935700714588,0.8418253660202026,-0.023720959201455116,0,0,0,0
7771,0.013427913188934326,0.8874467611312866,-0.022763319313526154,0,0,0,0
7782,-0.12408053129911423,0.992811381816864,-0.013765458948910236,0,0,0,0
7792,-0.12317728996276855,0.9907793998718262,-0.01372938510030508,0,0,0,0
7802,-0.12527547776699066,1.2522085905075073,-0.005116509273648262,0,0,0,0
7812,-0.09676908701658249,1.073783040046692,-0.011887997388839722,0,0,0,0
7822,-0.12884801626205444,0.9669286012649536,-0.01274570357054472,0,0,0,0
7832,-0.12741568684577942,0.967271089553833,-0.012284628115594387,0,0,0,0
7841,-0.18646380305290222,0.8401756286621094,-0.013453970663249493,0,0,0,0
7852,-0.09987248480319977,1.0042798519134521,-0.011888864450156689,0,0,0,0
7862,-0.07796745002269745,0.9465804100036621,-0.014352447353303432,0,0,0,0
7872,-0.084444560110569,0.9770172238349915,-0.012078983709216118,0,0,0,0
7881,-0.2820659875869751,0.8524476885795593,-0.007000237237662077,0,0,0,0
7892,-0.07542364299297333,0.8856493234634399,-0.014864271506667137,0,0,0,0
7902,-0.09792426228523254,0.8231477737426758,-0.016558188945055008,0,0,0,0
7912,-0.09660173952579498,0.8234769701957703,-0.016684940084815025,0,0,0,0
7922,-0.03689669817686081,0.8872239589691162,-0.01758400909602642,0,0,0,0
7932,-0.23511072993278503,0.8771175742149353,-0.008108150213956833,0,0,0,0
7941,-0.07492806762456894,0.8022008538246155,-0.01779492013156414,0,0,0,0
7951,-0.07481451332569122,0.8009063005447388,-0.017067817971110344,0,0,0,0
7961,-0.0745425894856453,0.7981812953948975,-0.01706813834607601,0,0,0,0
7971,-0.16341029107570648,0.7799047231674194,-0.014608606696128845,0,0,0,0
7981,-0.1238701269030571,0.9082327485084534,-0.013090814463794231,0,0,0,0
7991,-0.13333359360694885,0.7819331288337708,-0.01635187491774559,0,0,0,0
8001,-0.141779825091362,0.835942268371582,-0.014811316505074501,0,0,0,0
8011,-0.13733313977718353,0.7701705098152161,-0.017286203801631927,0,0,0,0
8023,-0.10473427921533585,0.8355275988578796,-0.016022905707359314,0,0,0,0
8033,-0.15772917866706848,0.7752548456192017,-0.016891401261091232,0,0,0,0
8041,-0.16465876996517181,0.759071946144104,-0.01630929484963417,0,0,0,0
8051,-0.20055736601352692,0.7446008920669556,-0.015598331578075886,0,0,0,0
8061,-0.259642630815506,0.6913819909095764,-0.014572229236364365,0,0,0,0
8071,-0.18372085690498352,0.7608340978622437,-0.014046328142285347,0,0,0,0
8081,-0.1853020340204239,0.7606703042984009,-0.014553269371390343,0,0,0,0
8091,-0.1839715838432312,0.7608906030654907,-0.014522523619234562,0,0,0,0
8101,-0.19406135380268097,0.8591526746749878,-0.010556587018072605,0,0,0,0
8111,-0.20279808342456818,0.6674262285232544,-0.015133682638406754,0,0,0,0
8121,-0.19809643924236298,0.7412108778953552,-0.013945716433227062,0,0,0,0
8131,-0.2068328708410263,0.7537145614624023,-0.013674195855855942,0,0,0,0
8143,-0.20694558322429657,0.7523015737533569,-0.012199189513921738,0,0,0,0
8151,-0.21635042130947113,0.862454891204834,-0.008820801042020321,0,0,0,0
8161,-0.2397688925266266,0.7584626078605652,-0.0105134854093194,0,0,0,0
8173,-0.25407472252845764,0.7961252331733704,-0.009318654425442219,0,0,0,0
8181,-0.2516383230686188,0.7940952777862549,-0.008911256678402424,0,0,0,0
8191,-0.22052545845508575,0.7378288507461548,-0.011336270719766617,0,0,0,0
8201,-0.24296016991138458,0.7360992431640625,-0.009973027743399143,0,0,0,0
8211,-0.2763925790786743,0.7841616868972778,-0.008379791863262653,0,0,0,0
8221,-0.26748961210250854,0.7282785177230835,-0.009590783156454563,0,0,0,0
8231,-0.28502199053764343,0.7264580130577087,-0.009039119817316532,0,0,0,0
8241,-0.245101198554039,0.7388239502906799,-0.008966531604528427,0,0,0,0
8251,-0.28930047154426575,0.7604456543922424,-0.00636348407715559,0,0,0,0
8261,-0.3177873194217682,0.732263445854187,-0.005309220403432846,0,0,0,0
8271,-0.29925695061683655,0.7184122800827026,-0.00585454236716032,0,0,0,0
8281,-0.3033231198787689,0.8102327585220337,-0.0035485182888805866,0,0,0,0
8291,-0.30610060691833496,0.7116283178329468,-0.005236124154180288,0,0,0,0
8301,-0.30454346537590027,0.7130376696586609,-0.005955278407782316,0,0,0,0
8311,-0.3044740557670593,0.7127162218093872,-0.00536224152892828,0,0,0,0
8321,-0.3046293258666992,0.708381712436676,-0.005197064485400915,0,0,0,0
8331,-0.31209269165992737,0.8146671652793884,-0.0029346251394599676,0,0,0,0
8341,-0.29180845618247986,0.743287980556488,-0.004524603486061096,0,0,0,0
8351,-0.315498411655426,0.7008309364318848,-0.004875496961176395,0,0,0,0
8361,-0.3145628571510315,0.6978307962417603,-0.004493135027587414,0,0,0,0
8371,-0.3080553114414215,0.7617858052253723,-0.0022566979750990868,0,0,0,0
8381,-0.3547331690788269,0.6808952689170837,-0.0031228847801685333,0,0,0,0
8391,-0.35288915038108826,0.6784753203392029,-0.0030898451805114746,0,0,0,0
8403,-0.35248222947120667,0.6779208183288574,-0.0018800959223881364,0,0,0,0
8411,-0.35713112354278564,0.693753719329834,-0.0011786959366872907,0,0,0,0
8421,-0.35639867186546326,0.6935275793075562,-0.0006023945170454681,0,0,0,0
8431,-0.3465741276741028,0.6928145885467529,0.00011414165783207864,0,0,0,0
8442,-0.45213407278060913,0.8210091590881348,0.003346340963616967,0,0,0,0
8451,-0.45171111822128296,0.8200657367706299,0.004250647034496069,0,0,0,0
8461,-0.33384835720062256,0.7958699464797974,0.0017395290778949857,0,0,0,0
8471,-0.35213133692741394,0.675037682056427,0.0018228410044685006,0,0,0,0
8481,-0.36909133195877075,0.6762570738792419,0.0031202752143144608,0,0,0,0
8491,-0.3694722354412079,0.6749414801597595,0.003511572489514947,0,0,0,0
8501,-0.43722033500671387,0.6762054562568665,0.004667461384087801,0,0,0,0
8511,-0.3751541078090668,0.7777016758918762,0.005207856651395559,0,0,0,0
8521,-0.3916837275028229,0.6710913181304932,0.004941028077155352,0,0,0,0
8531,-0.39116913080215454,0.6690074801445007,0.005024420563131571,0,0,0,0
8541,-0.39042285084724426,0.6664719581604004,0.004750443622469902,0,0,0,0
8552,-0.46308988332748413,0.6808100342750549,0.006487940438091755,0,0,0,0
8562,-0.3926806151866913,0.7078091502189636,0.005193483084440231,0,0,0,0
8571,-0.3971697986125946,0.667467474937439,0.004586710594594479,0,0,0,0
8582,-0.396496444940567,0.6665064096450806,0.005117295775562525,0,0,0,0
8592,-0.33217304944992065,0.7475852966308594,0.005439613480120897,0,0,0,0
8601,-0.43655383586883545,0.6735159754753113,0.0058330949395895,0,0,0,0
8611,-0.42545828223228455,0.6606587767601013,0.006951157934963703,0,0,0,0
8621,-0.4411403238773346,0.6617723703384399,0.005679961759597063,0,0,0,0
8631,-0.41594383120536804,0.8347335457801819,0.006468114443123341,0,0,0,0
8641,-0.42119961977005005,0.6503410935401917,0.007486754097044468,0,0,0,0
8651,-0.4239048659801483,0.6746278405189514,0.0066661350429058075,0,0,0,0
8661,-0.41610637307167053,0.6496520042419434,0.006076321471482515,0,0,0,0
8671,-0.43211326003074646,0.6520345211029053,0.005432652775198221,0,0,0,0
8681,-0.5054563283920288,0.677402138710022,0.005098176188766956,0,0,0,0
8691,-0.42017897963523865,0.6892450451850891,0.004187007434666157,0,0,0,0
8701,-0.4235151708126068,0.6545509696006775,0.003809956833720207,0,0,0,0
8711,-0.4222140908241272,0.654719352722168,0.004014044068753719,0,0,0,0
8721,-0.49704793095588684,0.7037796378135681,0.004440903197973967,0,0,0,0
8732,-0.435231477022171,0.6530268788337708,0.004695321898907423,0,0,0,0
8742,-0.43346402049064636,0.6534433364868164,0.004128036554902792,0,0,0,0
8751,-0.39952871203422546,0.7045271396636963,0.0035282631870359182,0,0,0,0
8761,-0.5021346807479858,0.6539483666419983,0.005326034035533667,0,0,0,0
8771,-0.45120969414711,0.7401676774024963,0.0034110774286091328,0,0,0,0
8781,-0.4046230912208557,0.6865224838256836,0.0034181696828454733,0,0,0,0
8791,-0.42086780071258545,0.6849706172943115,0.004904597066342831,0,0,0,0
8801,-0.4123419225215912,0.6488187909126282,0.004966065287590027,0,0,0,0
8811,-0.5077728033065796,0.6725313663482666,0.005508936941623688,0,0,0,0
8821,-0.4486697018146515,0.6822112202644348,0.004427723120898008,0,0,0,0
8831,-0.44914254546165466,0.6360760927200317,0.00463974941521883,0,0,0,0
8841,-0.46064814925193787,0.6491299271583557,0.00572109455242753,0,0,0,0
8851,-0.45949214696884155,0.6490238308906555,0.006050573196262121,0,0,0,0
8861,-0.4623851180076599,0.7549203634262085,0.004989414010196924,0,0,0,0
8871,-0.4624185562133789,0.5146704316139221,0.0075368573889136314,0,0,0,0
8881,-0.4629630148410797,0.5587624907493591,0.0066536287777125835,0,0,0,0
8891,-0.691023051738739,0.5341067314147949,0.009019395336508751,0,0,0,0
8901,-0.640754222869873,0.541665256023407,0.009359398856759071,0,0,0,0
8911,-0.5082436203956604,0.5712535381317139,0.009996814653277397,0,0,0,0
8921,-0.504430890083313,0.6330317854881287,0.00877817627042532,0,0,0,0
8931,-0.49260208010673523,0.5575737953186035,0.009931058622896671,0,0,0,0
8941,-0.6298519372940063,0.5531506538391113,0.010632721707224846,0,0,0,0
8951,-0.48773765563964844,0.6052438020706177,0.01023362297564745,0,0,0,0
8961,-0.6582584977149963,0.44693174958229065,0.01269424520432949,0,0,0,0
8971,-0.612341582775116,0.41916805505752563,0.012889578007161617,0,0,0,0
8981,-0.6035099029541016,0.4801522493362427,0.012197230942547321,0,0,0,0
8991,-0.5843408703804016,0.49355781078338623,0.012835977599024773,0,0,0,0
9001,-0.5833030343055725,0.49248936772346497,0.01399098988622427,0,0,0,0
9011,-0.5411431789398193,0.4822680950164795,0.014853029511868954,0,0,0,0
9021,-0.5687512755393982,0.4750535190105438,0.015253707766532898,0,0,0,0
9031,-0.7852212190628052,0.211070254445076,0.017016099765896797,0,0,0,0
9041,-0.7051178216934204,0.39009132981300354,0.016742462292313576,0,0,0,0
9051,-0.709943413734436,0.3459136486053467,0.017929473891854286,0,0,0,0
9061,-0.7101295590400696,0.34547159075737,0.018260532990098,0,0,0,0
9071,-0.8550779223442078,0.3840808570384979,0.015705745667219162,0,0,0,0
9081,-0.7756391167640686,0.42120030522346497,0.016660993918776512,0,0,0,0
9091,-0.7513092756271362,0.25831443071365356,0.018081245943903923,0,0,0,0
9101,-0.7277888655662537,0.3045222759246826,0.017322251573204994,0,0,0,0
9111,-0.7059999704360962,0.358283132314682,0.01699543185532093,0,0,0,0
9121,-0.7306753993034363,0.3864719271659851,0.016316007822752,0,0,0,0
9131,-0.6858112215995789,0.42285585403442383,0.015419850125908852,0,0,0,0
9141,-0.6553207039833069,0.44698843359947205,0.01631389558315277,0,0,0,0
9151,-0.6257234215736389,0.43502077460289,0.01625828631222248,0,0,0,0
9161,-0.6891704797744751,0.49351581931114197,0.014561597257852554,0,0,0,0
9171,-0.5895190834999084,0.5117623209953308,0.017059259116649628,0,0,0,0
9181,-0.5885000228881836,0.5112037062644958,0.017705162987113,0,0,0,0
9191,-0.5869610905647278,0.5104895830154419,0.017975497990846634,0,0,0,0
9201,-0.587693989276886,0.5100803375244141,0.01739956997334957,0,0,0,0
9211,-0.5712471604347229,0.8100911974906921,0.011744115501642227,0,0,0,0
9221,-0.5715072154998779,0.8102695345878601,0.0122152641415596,0,0,0,0
9231,-0.5309677720069885,0.8670964241027832,0.012214986607432365,0,0,0,0
9241,-0.5188924074172974,0.769629716873169,0.014732623472809792,0,0,0,0
9251,-0.4823645353317261,0.8775185346603394,0.012348389253020287,0,0,0,0
9261,-0.4828718900680542,0.8774223923683167,0.01350102387368679,0,0,0,0
9271,-0.47162193059921265,0.8218064904212952,0.013927558436989784,0,0,0,0
9281,-0.47624531388282776,0.8707769513130188,0.012561257928609848,0,0,0,0
9291,-0.4319932460784912,0.9051222205162048,0.012613167054951191,0,0,0,0
9301,-0.5124538540840149,0.9223559498786926,0.013351465575397015,0,0,0,0
9311,-0.4189608097076416,0.820094108581543,0.014421958476305008,0,0,0,0
9321,-0.45068055391311646,0.8189458847045898,0.014142315834760666,0,0,0,0
9331,-0.42165568470954895,0.8074418902397156,0.014951464720070362,0,0,0,0
9341,-0.6294137835502625,0.9835783243179321,0.015014230273663998,0,0,0,0
9351,-0.5777926445007324,0.7409769892692566,0.0176499392837286,0,0,0,0
9361,-0.5171760320663452,0.7194085121154785,0.018138404935598373,0,0,0,0
9371,-0.5651902556419373,0.6901700496673584,0.018475186079740524,0,0,0,0
9381,-0.5173079371452332,0.6945939660072327,0.018660543486475945,0,0,0,0
9391,-0.5179373621940613,0.699556291103363,0.01844884641468525,0,0,0,0
9401,-0.5156078934669495,0.699123203754425,0.01841874048113823,0,0,0,0
9411,-0.5146980285644531,0.6980116963386536,0.018209632486104965,0,0,0,0
9421,-0.4888545870780945,0.6908465623855591,0.018039580434560776,0,0,0,0
9431,-0.48973655700683594,0.6897366642951965,0.017729831859469414,0,0,0,0
9441,-0.4900296926498413,0.6908518075942993,0.017610862851142883,0,0,0,0
9451,-0.4886346459388733,0.6898751854896545,0.016004139557480812,0,0,0,0
9461,-0.45035219192504883,0.7258731126785278,0.015349915251135826,0,0,0,0
9471,-0.5233069658279419,0.7152462005615234,0.016816290095448494,0,0,0,0
9481,-0.45882466435432434,0.8233968019485474,0.016509264707565308,0,0,0,0
9491,-0.4657552242279053,0.730233907699585,0.01801559515297413,0,0,0,0
9501,-0.4657413363456726,0.7301504611968994,0.018840154632925987,0,0,0,0
9511,-0.45822423696517944,0.7085028290748596,0.019653061404824257,0,0,0,0
9521,-0.5300048589706421,0.8382729887962341,0.020449092611670494,0,0,0,0
9531,-0.4582032561302185,0.7330652475357056,0.020109359174966812,0,0,0,0
9541,-0.4516706168651581,0.713829517364502,0.019735729321837425,0,0,0,0
9551,-0.3992842137813568,0.742056131362915,0.01775442622601986,0,0,0,0
9561,-0.3985465466976166,0.8239076137542725,0.01835734397172928,0,0,0,0
9571,-0.4321678578853607,0.7282072305679321,0.019241392612457275,0,0,0,0
9581,-0.4523650109767914,0.7307718992233276,0.02021365985274315,0,0,0,0
9591,-0.4245363473892212,0.7301921844482422,0.021198609843850136,0,0,0,0
9601,-0.4204099774360657,0.8206146955490112,0.021676255390048027,0,0,0,0
9611,-0.44190505146980286,0.8267215490341187,0.022960197180509567,0,0,0,0
9621,-0.38494470715522766,0.743866503238678,0.02262188121676445,0,0,0,0
9631,-0.4189274311065674,0.7349912524223328,0.02456791140139103,0,0,0,0
9641,-0.4182088077068329,0.7220346331596375,0.024235818535089493,0,0,0,0
9651,-0.6562487483024597,0.6820601224899292,0.028737464919686317,0,0,0,0
9661,-0.5307225584983826,0.8274862766265869,0.027597397565841675,0,0,0,0
9671,-0.5539527535438538,0.8314274549484253,0.0280369371175766,0,0,0,0
9681,-0.5215526819229126,0.8247989416122437,0.02884403057396412,0,0,0,0
9691,-0.49115777015686035,0.8171249628067017,0.02928159385919571,9362,9362,9362,9362
9701,-0.2040155827999115,0.5864329934120178,0.022997865453362465,9362,9362,9362,9362
9711,-0.20414948463439941,0.6414089202880859,0.023538021370768547,9362,9362,9362,9362
9721,-0.21483439207077026,0.6141302585601807,0.0234967190772295,9362,9362,9362,9362
9731,-0.22478221356868744,0.655459463596344,0.02448873035609722,9362,9362,9362,9362
9741,-0.016445038840174675,0.5606096386909485,0.02081763930618763,9362,9362,9362,9362
9751,-0.13811959326267242,0.6342821717262268,0.02297561801970005,9362,9362,9362,9362
9761,-0.19742503762245178,0.6374441385269165,0.023728951811790466,9362,9362,9362,9362
9771,-0.2180231362581253,0.6401092410087585,0.023095792159438133,9362,9362,9362,9362
9781,-0.2717485725879669,0.7722177505493164,0.02632150799036026,9362,9362,9362,9362
9791,-0.2913113534450531,0.7231932282447815,0.024374620988965034,9362,9362,9362,9362
9801,-0.33069881796836853,0.7523790001869202,0.026024961844086647,9362,9362,9362,9362
9811,-0.3435683846473694,0.7922465801239014,0.027756275609135628,9362,9362,9362,9362
9821,-0.3795359134674072,0.7590640187263489,0.026568617671728134,9362,9362,9362,9362
9831,-0.43370485305786133,1.0823078155517578,0.03356163948774338,9362,9362,9362,9362
9841,-0.264053076505661,1.1439958810806274,0.030270656570792198,9362,9362,9362,9362
9851,-0.22758781909942627,1.0990177392959595,0.029169050976634026,9362,9362,9362,9362
9861,-0.25618764758110046,1.0787633657455444,0.029381057247519493,9362,9362,9362,9362
9871,-0.21837873756885529,1.0127907991409302,0.029078228399157524,9362,9362,9362,9362
9881,-0.3251042068004608,1.0000535249710083,0.03034585900604725,9362,9362,9362,9362
9892,-0.29347923398017883,0.9820541739463806,0.03365357592701912,9362,9362,9362,9362
9901,-0.308383971452713,0.9211032390594482,0.027686534449458122,9362,9362,9362,9362
9911,-0.24928179383277893,0.962169885635376,0.03258175402879715,9362,9362,9362,9362
9922,-0.35846662521362305,0.8629629611968994,0.029915036633610725,9362,9362,9362,9362
9931,-0.30560538172721863,0.900705099105835,0.02859342470765114,9362,9362,9362,9362
9941,-0.28717750310897827,0.9031331539154053,0.03603171184659004,9362,9362,9362,9362
9951,-0.29011180996894836,0.7829981446266174,0.023702217265963554,9362,9362,9362,9362
9961,-0.2731288969516754,0.8582058548927307,0.023640425875782967,9362,9362,9362,9362
9971,-0.5189582705497742,0.7523055076599121,0.041331592947244644,9362,9362,9362,9362
9981,-0.5204419493675232,0.7481274008750916,0.028735658153891563,9362,9362,9362,9362
9991,-0.560659646987915,0.7393466830253601,0.018687855452299118,9362,9362,9362,9362
10001,-0.5057974457740784,0.6553313732147217,0.024724867194890976,9362,9362,9362,9362
10011,-0.4915265738964081,0.7376960515975952,0.031245261430740356,9362,9362,9362,9362
10021,-0.513026237487793,0.6650193333625793,0.024860726669430733,9362,9362,9362,9362
10031,-0.4839227795600891,0.6873037219047546,0.01483827643096447,9362,9362,9362,9362
10041,-0.46848973631858826,0.6085642576217651,0.0088015366345644,9362,9362,9362,9362
10051,-0.3869812488555908,0.42971664667129517,0.006288755685091019,9362,9362,9362,9362
10061,-0.21359968185424805,0.29539626836776733,0.005928460042923689,9362,9362,9362,9362
10071,-0.2470112442970276,0.2911035120487213,0.010275136679410934,9362,9362,9362,9362
10081,-0.24755480885505676,0.29108723998069763,0.013145938515663147,9362,9362,9362,9362
10091,-0.24610477685928345,0.35249632596969604,0.014315708540380001,9362,9362,9362,9362
10101,-0.08863142132759094,0.3278479278087616,0.011649485677480698,9362,9362,9362,9362
10111,-0.05037039518356323,0.32562798261642456,0.01133680623024702,9362,9362,9362,9362
10121,-0.21812133491039276,0.35779955983161926,0.011975957080721855,9362,9362,9362,9362
10131,-0.27314820885658264,0.4200299084186554,0.013230339623987675,9362,9362,9362,9362
10141,-0.26924851536750793,0.40265142917633057,0.01426870096474886,9362,9362,9362,9362
10151,-0.17681550979614258,0.3424363434314728,0.014888673089444637,9362,9362,9362,9362
10161,-0.20025302469730377,0.33986422419548035,0.01561550423502922,9362,9362,9362,9362
10171,-0.17061705887317657,0.32439878582954407,0.016882896423339844,9362,9362,9362,9362
10181,-0.07683714479207993,0.31201326847076416,0.018374361097812653,9362,9362,9362,9362
10191,0.08466555923223495,0.2685634195804596,0.019176965579390526,9362,9362,9362,9362
10201,0.06463947147130966,0.21619948744773865,0.01669195108115673,65535,64902,65534,61102
10211,0.07098595798015594,0.2012052834033966,0.009101121686398983,65535,64358,65533,59319
10221,0.03710515424609184,0.2033124715089798,0.021848125383257866,65535,62616,65528,55354
10231,-0.0782623142004013,0.30506327748298645,0.055253904312849045,65535,60117,65530,52595
10241,0.04947027191519737,0.3250574469566345,0.10391172766685486,65535,56245,65495,50381
10251,0.017472602427005768,0.24746517837047577,0.12713268399238586,65535,58419,65471,51806
10261,0.057391468435525894,0.14293281733989716,0.04620470106601715,65534,61330,65495,55144
10271,0.10168834030628204,0.36303210258483887,-0.13035625219345093,65534,62533,65493,50432
10281,0.152605801820755,0.3435843884944916,-0.29621028900146484,65534,57641,65375,54053
10291,0.13892100751399994,0.24821749329566956,-0.48400992155075073,65534,60604,65314,59286
10301,-0.029740208759903908,0.011912853457033634,-0.7536569833755493,65529,62974,65322,44568
10311,-0.09007719159126282,0.18051756918430328,-1.033187747001648,65388,58625,65343,50077
10321,-0.051428958773612976,0.3954448699951172,-1.3732658624649048,65037,57093,65234,55450
10331,-0.7750425338745117,0.5445461869239807,-1.8033521175384521,61995,59966,65262,59613
10341,-1.637830376625061,0.6387677192687988,-2.301676034927368,55953,59651,65007,62645
10351,-2.907313585281372,0.6503888964653015,-2.896782159805298,52769,58181,65153,63098
10361,-4.389231204986572,0.8657193183898926,-3.4333698749542236,51857,51118,64944,60560
10371,-5.530606269836426,0.8793238997459412,-3.9320461750030518,46747,53540,62414,58656
10381,-6.886215686798096,1.0224974155426025,-4.474327087402344,47798,51538,61718,56055
10391,-7.963755130767822,1.1477798223495483,-4.969332695007324,43625,51159,62067,50489
10401,-8.933666229248047,1.3825181722640991,-5.493013381958008,40632,51320,63840,48573
10411,-9.382659912109375,1.5916045904159546,-5.954207420349121,45659,43994,63262,45240
10421,-9.768742561340332,1.8048090934753418,-6.426026821136475,41400,52368,59050,51305
10431,-10.058168411254883,1.8982406854629517,-6.974003314971924,45164,52873,56561,53396
10441,-9.953044891357422,1.8484526872634888,-7.546263217926025,43076,45166,52065,52767
10451,-9.449599266052246,1.6861600875854492,-8.096689224243164,52077,43620,54404,43339
10461,-8.747532844543457,1.4900821447372437,-8.623693466186523,48090,43034,56813,43171
10471,-7.892973899841309,1.1989396810531616,-9.152881622314453,47718,47497,45673,51110
10481,-6.964524269104004,0.7712559700012207,-9.7455415725708,38315,45333,41713,51310
10491,-6.405411243438721,0.28846585750579834,-10.294052124023438,60016,44599,44460,37962
10501,-5.9211578369140625,-0.11863598972558975,-10.777946472167969,46417,53505,44644,49077
10511,-5.178884029388428,-0.49462926387786865,-11.334696769714355,49310,48611,49377,48594
10521,-4.465240955352783,-0.7283952236175537,-11.892172813415527,49318,48497,52794,46251
10531,-3.8327882289886475,-0.9063559174537659,-12.36932373046875,48902,50028,56570,41095
10541,-3.451993942260742,-1.0041483640670776,-12.819644927978516,51282,55400,51934,49025
10551,-2.7247366905212402,-1.0787180662155151,-13.3478422164917,51245,53046,51993,51085
10561,-1.905813455581665,-1.2250025272369385,-13.92979621887207,51567,49568,54924,49418
10571,-1.21040940284729,-1.3388478755950928,-14.398843765258789,54184,49187,51517,45870
10581,-0.7281238436698914,-1.583179235458374,-14.863561630249023,47528,55359,48746,54788
10591,-0.12668640911579132,-1.7974973917007446,-15.364999771118164,53209,50947,53456,49675
10601,0.3974001109600067,-1.9557379484176636,-15.78384017944336,49630,51872,55984,44921
10611,1.0496076345443726,-2.1927576065063477,-16.157508850097656,44297,54220,51697,50075
10621,1.1739200353622437,-2.1947622299194336,-16.642091751098633,54170,50442,50982,50170
10631,1.469543218612671,-2.2901976108551025,-17.035526275634766,53352,48197,52504,48440
10641,1.735438585281372,-2.4779064655303955,-17.40533447265625,45433,54118,46837,55059
10651,1.642848014831543,-2.477748155593872,-17.908565521240234,49368,50956,52347,49734
10661,1.6925513744354248,-2.5951149463653564,-18.311582565307617,50080,44011,49892,42529
10671,1.8451684713363647,-2.7363834381103516,-18.636959075927734,46174,47605,48385,44734
10681,1.768439531326294,-2.8011205196380615,-18.997201919555664,47698,46430,48847,44503
10691,1.6759954690933228,-2.836766481399536,-19.34480857849121,45011,48674,51977,43813
10701,1.6650493144989014,-2.8293426036834717,-19.67245101928711,48371,48069,50651,46633
10711,1.3865824937820435,-2.700040817260742,-20.050540924072266,48937,48199,51316,48120
10721,1.2646924257278442,-2.693669080734253,-20.389019012451172,48884,50458,50740,49873
10731,0.9707298278808594,-2.754916191101074,-20.750652313232422,52206,49530,52265,50168
10741,0.861996054649353,-2.7436373233795166,-21.055570602416992,51647,48610,56112,47514
10751,0.8309322595596313,-2.6459107398986816,-21.323328018188477,45517,49613,50874,48097
10761,0.838344156742096,-2.630145311355591,-21.660308837890625,47037,48712,51174,49142
10771,0.7529977560043335,-2.4182636737823486,-21.953510284423828,53308,45351,54982,43166
10781,0.7369416952133179,-2.267228126525879,-22.16781234741211,49333,48464,56625,43533
10791,0.6700270175933838,-2.1473586559295654,-22.43921661376953,39655,49305,49902,45135
10801,0.7355906367301941,-1.991044044494629,-22.746597290039062,45607,45575,49073,45566
10811,0.784076452255249,-1.7799632549285889,-22.990665435791016,51209,43507,51613,41736
10821,0.8768875002861023,-1.6207826137542725,-23.160249710083008,47277,48401,52612,43115
10831,0.8881462812423706,-1.5675280094146729,-23.393672943115234,36653,47005,45039,43323
10841,0.9438384175300598,-1.4794493913650513,-23.663820266723633,42317,45714,46521,41474
10851,0.9851504564285278,-1.449938416481018,-23.88759422302246,46191,45795,46481,40440
10861,0.977917492389679,-1.4512710571289062,-24.110910415649414,45003,47148,46481,43145
10871,1.0132988691329956,-1.421574354171753,-24.338407516479492,46444,45961,49263,41804
10881,1.0401819944381714,-1.3420073986053467,-24.52586555480957,41166,43693,45493,38993
10891,1.0115408897399902,-1.294420838356018,-24.709306716918945,43662,43013,46406,40699
10901,0.8788432478904724,-1.2381787300109863,-24.895450592041016,44816,45254,47211,41723
10911,0.8070663213729858,-1.144371509552002,-25.074182510375977,43632,45277,50511,42906
10921,0.7601026296615601,-1.0262947082519531,-25.242063522338867,43241,45520,48748,44931
10931,0.6486330628395081,-0.9414885640144348,-25.44870376586914,42692,47799,49529,46607
10941,0.6438245177268982,-0.8080734610557556,-25.656217575073242,43034,48949,50679,46824
10951,0.7008935809135437,-0.6831751465797424,-25.823415756225586,53369,43886,53513,41152
10961,0.7081766128540039,-0.6343340277671814,-25.927125930786133,50456,47837,50863,46771
10971,0.6639862656593323,-0.5816686153411865,-26.08102035522461,52781,45029,52027,46893
10981,0.7568172812461853,-0.5918415188789368,-26.222665786743164,45650,52896,51037,51869
10992,0.846663236618042,-0.6415708065032959,-26.422700881958008,49923,50744,53464,48458
11001,0.9667313694953918,-0.5948243737220764,-26.57554054260254,50489,51233,53149,49489
11011,1.0760477781295776,-0.5724698305130005,-26.718502044677734,53721,44517,54503,49012
11021,1.160466194152832,-0.5603662133216858,-26.809711456298828,51422,52058,53319,47713
11031,1.343599796295166,-0.5200234651565552,-26.944795608520508,47748,55762,52481,48505
11041,1.4089287519454956,-0.4390421509742737,-27.12664031982422,51725,48818,55433,47214
11051,1.5388236045837402,-0.4046490490436554,-27.234468460083008,52538,47576,55929,46883
11061,1.6509149074554443,-0.386766642332077,-27.3635196685791,49314,53725,53524,50436
11071,1.80482017993927,-0.34554505348205566,-27.52460479736328,50497,53447,51037,52340
11081,1.921541452407837,-0.46339040994644165,-27.694377899169922,54950,48741,53319,49607
11091,2.1198086738586426,-0.515113115310669,-27.787363052368164,53235,47542,54443,50278
11101,2.1400017738342285,-0.5893099904060364,-27.895639419555664,52460,51446,54970,49249
11111,1.7802691459655762,-0.6065089702606201,-27.943782806396484,49793,52314,53936,55857
11122,1.7708719968795776,-0.6780818700790405,-28.26058578491211,51652,52999,56564,53435
11131,1.7561291456222534,-0.6872041821479797,-28.26406478881836,54205,49412,57660,50792
11141,1.7480583190917969,-0.6111471056938171,-28.36612319946289,50381,56134,58472,50000
11151,1.7496415376663208,-0.28151413798332214,-28.615978240966797,49399,56762,59621,49950
11161,1.8086730241775513,-0.15009744465351105,-28.732839584350586,54644,49506,58825,49145
11171,1.8502625226974487,-0.037753187119960785,-28.808862686157227,53052,54730,56769,50017
11181,1.9505267143249512,-0.007916267961263657,-28.976564407348633,51589,56807,52111,54983
11191,2.116036891937256,-0.07184655964374542,-29.17308807373047,50904,54865,52298,54426
11201,2.253628969192505,-0.22497504949569702,-29.30478858947754,56684,44395,54963,49980
11211,2.4756133556365967,-0.43811532855033875,-29.386194229125977,54998,52140,52303,49955
11221,2.6562626361846924,-0.6557582020759583,-29.51441764831543,51433,56325,51215,50002
11231,2.7715840339660645,-0.7680258750915527,-29.749835968017578,45324,59553,49638,53792
11241,2.6074059009552,-0.8454253077507019,-30.009937286376953,47257,45110,54395,53015
11251,2.5959653854370117,-0.8100610375404358,-30.093238830566406,53991,37580,56939,48255
11261,2.6151180267333984,-0.8798378705978394,-30.213665008544922,47312,54722,53316,50999
11271,2.660398006439209,-0.8151944875717163,-30.392976760864258,47682,53674,53100,50507
11281,2.579305648803711,-0.7913068532943726,-30.55464744567871,47990,45336,55043,46691
11291,2.64514422416687,-0.777055025100708,-30.66829490661621,47413,53018,50411,48525
11301,2.7521166801452637,-0.7620985507965088,-30.855876922607422,45876,52714,52418,48725
11311,2.872547149658203,-0.7354147434234619,-30.989864349365234,50274,47967,54925,44794
11321,2.719778060913086,-0.7590159177780151,-31.140783309936523,45958,52649,50615,49384
11331,2.852159261703491,-0.73069828748703,-31.34092903137207,47231,52341,50791,50174
11341,2.948957681655884,-0.7833113670349121,-31.491910934448242,53205,40607,54720,47901
11351,3.017436981201172,-0.9287009835243225,-31.554407119750977,54100,46936,54126,45964
11361,3.169997453689575,-0.9917726516723633,-31.677780151367188,47154,61133,45090,54119
11371,3.3391611576080322,-1.025388479232788,-31.92719078063965,47278,51620,55050,45677
11381,3.4353883266448975,-0.9882734417915344,-31.9959716796875,52473,44038,57049,44420
11391,3.462264060974121,-0.9717494249343872,-32.064491271972656,47541,55139,55179,46865
11401,3.4382197856903076,-0.9268300533294678,-32.22128677368164,51200,52338,52176,50754
11411,3.382871389389038,-0.9374657273292542,-32.38919448852539,47914,51933,52985,52289
11421,3.39436936378479,-1.003881573677063,-32.48454284667969,54248,44737,55159,49136
11431,3.439000129699707,-1.1082018613815308,-32.57432556152344,54770,49638,52018,50663
11441,3.4874963760375977,-1.2159005403518677,-32.66497039794922,52662,51588,53736,49873
11451,3.544036388397217,-1.2563161849975586,-32.77169418334961,52866,52150,53498,50078
11461,3.6209332942962646,-1.296613097190857,-32.890499114990234,49657,50966,52089,48831
11471,3.7382616996765137,-1.2892225980758667,-32.983306884765625,50694,49846,55735,44942
11481,3.855257749557495,-1.2931123971939087,-33.062896728515625,50782,53265,54144,45151
11491,3.975391387939453,-1.2952144145965576,-33.18520736694336,49858,52705,54534,45478
11501,4.039517879486084,-1.3045414686203003,-33.270442962646484,51409,43781,51685,47805
11511,4.162689685821533,-1.3536996841430664,-33.35565185546875,50662,50235,49751,48815
11521,4.234678268432617,-1.476421594619751,-33.4652214050293,49775,51077,51800,48749
11531,4.281111717224121,-1.4749603271484375,-33.46049499511719,54004,47405,52015,46569
11541,4.361239910125732,-1.565569519996643,-33.53818893432617,49529,48686,50131,46768
11551,4.4913010597229,-1.6587659120559692,-33.612060546875,49325,48051,51772,46070
11561,4.665503025054932,-1.6919342279434204,-33.69468688964844,52521,44881,53389,43966
11571,4.719048976898193,-1.7806694507598877,-33.75484848022461,52742,45080,52694,45794
11581,4.756110191345215,-1.7984446287155151,-33.7657585144043,46276,57715,49108,49015
11591,4.768884181976318,-1.859023928642273,-33.85597229003906,51061,46108,52722,46924
11601,4.764199256896973,-2.0100858211517334,-34.01306915283203,57485,38560,54364,45404
11611,4.747976779937744,-1.9890700578689575,-33.98121643066406,53384,49283,52268,48752
11621,4.663897514343262,-2.0481159687042236,-33.983985900878906,49076,55575,51810,50895
11631,4.49472713470459,-2.12089204788208,-34.06367111206055,49381,46428,54978,48683
11641,4.244921684265137,-2.1339099407196045,-34.152156829833984,55009,40600,55719,46879
11651,3.948413848876953,-2.1405930519104004,-34.160518646240234,53855,49692,52380,49691
11661,3.6102802753448486,-2.2011656761169434,-34.15247344970703,52118,49808,53469,51514
11671,3.2283637523651123,-2.251952648162842,-34.204158782958984,53231,47540,54554,51992
11681,2.919367551803589,-2.254340648651123,-34.23198699951172,51314,48452,55012,47306
11691,2.5426855087280273,-2.3037567138671875,-34.24314880371094,49972,51525,54152,48879
11701,1.9860011339187622,-2.2384390830993652,-34.289634704589844,53419,46790,57090,45119
11711,1.484073281288147,-2.1623988151550293,-34.319400787353516,47689,54091,54638,51500
11721,1.3685166835784912,-1.9559972286224365,-34.27809524536133,48555,55814,54592,44247
11731,0.8911746740341187,-1.7799075841903687,-34.318092346191406,50831,48115,55079,47202
11741,0.3810735046863556,-1.6421549320220947,-34.36207962036133,52739,44458,55339,48876
11751,-0.1631186157464981,-1.484554648399353,-34.38821792602539,53988,45123,54640,50191
11761,-0.5631749033927917,-1.452886700630188,-34.34537887573242,55487,47141,52016,51569
11771,-0.8067177534103394,-1.4256316423416138,-34.33489227294922,50518,52903,49145,48424
11781,-1.124512791633606,-1.4571586847305298,-34.362972259521484,50379,49270,55000,44749
11791,-1.4436393976211548,-1.4860877990722656,-34.388492584228516,53825,40645,55955,44228
11801,-1.7412108182907104,-1.4651424884796143,-34.35198974609375,51838,45002,53469,47762
11811,-1.9649631977081299,-1.3859695196151733,-34.2838249206543,47360,49372,50701,47369
11821,-2.3356850147247314,-1.348475694656372,-34.28229904174805,47248,50408,52936,46949
11831,-2.717200994491577,-1.2421092987060547,-34.28531265258789,49630,47246,53575,48084
11841,-3.05249285697937,-1.1236985921859741,-34.27090072631836,49683,50555,53249,48451
11851,-3.322935104370117,-1.0468347072601318,-34.245479583740234,52717,48241,54050,47077
11861,-3.6777429580688477,-0.9225452542304993,-34.227455139160156,50003,52028,51797,47463
11871,-3.992048978805542,-0.7832647562026978,-34.17031478881836,50801,48717,54196,47423
11881,-4.2047905921936035,-0.5882786512374878,-34.163352966308594,52112,49578,54974,46432
11891,-4.37513542175293,-0.39507701992988586,-34.10118865966797,52263,50421,55004,47218
11901,-4.434257507324219,-0.3046415448188782,-34.057857513427734,48156,53069,49076,46341
11911,-4.476065635681152,-0.17359761893749237,-34.05729675292969,52696,43683,52015,45705
11921,-4.4933247566223145,-0.03518512472510338,-34.04433822631836,56298,41204,51369,45961
11931,-4.499567985534668,0.030840039253234863,-33.968563079833984,52046,50337,49535,48631
11941,-4.4658732414245605,0.07755493372678757,-33.925167083740234,47064,51088,50416,49722
11951,-4.408593654632568,0.15142671763896942,-33.93747329711914,51556,47310,54976,45381
11961,-4.399435520172119,0.19404128193855286,-33.9176025390625,54339,45578,55150,45953
11971,-4.37326192855835,0.33681759238243103,-33.83583450317383,49074,54276,52276,51251
11981,-4.348973274230957,0.556971549987793,-33.7970085144043,50808,53946,55819,48384
11991,-4.36006498336792,0.7672367095947266,-33.81971740722656,52881,43936,57410,46073
12001,-4.280038833618164,1.0397846698760986,-33.765071868896484,53527,47375,56112,46955
12011,-4.282341003417969,1.2768819332122803,-33.659088134765625,50589,54459,54247,48852
12021,-4.222833633422852,1.521236777305603,-33.61616134643555,52441,52485,54852,50096
12031,-4.104019641876221,1.7683484554290771,-33.606075286865234,52802,49267,53465,48788
12041,-3.9406380653381348,1.9325754642486572,-33.58952713012695,53254,48467,54739,48618
12051,-3.7644824981689453,2.044987916946411,-33.572383880615234,54528,49694,53822,48697
12061,-3.601979970932007,2.1578896045684814,-33.53526306152344,52483,53933,52952,50511
12071,-3.2878761291503906,2.235607862472534,-33.5359992980957,54328,53299,53258,48288
12081,-3.1086840629577637,2.2984888553619385,-33.543601989746094,53114,48290,55367,48787
12091,-2.7631945610046387,2.4151175022125244,-33.53489685058594,53735,49990,55876,48937
12101,-2.4301915168762207,2.4973816871643066,-33.48362731933594,53742,52394,55585,48811
12111,-2.0912842750549316,2.6102101802825928,-33.47248077392578,51971,57826,55070,49115
12121,-1.8561116456985474,2.7196953296661377,-33.48480224609375,55924,47914,56773,51594
12131,-1.4485269784927368,2.7767558097839355,-33.50005340576172,57789,50103,54722,52817
12141,-1.062877893447876,2.7391066551208496,-33.47743606567383,57657,50129,54894,51710
12152,-0.7524889707565308,2.6076714992523193,-33.457252502441406,54524,54756,55006,53282
12162,-0.45807743072509766,2.5569703578948975,-33.48111343383789,54864,54321,55207,51952
12172,-0.1585237979888916,2.4807755947113037,-33.50800323486328,52060,55132,53569,51969
12182,0.17054635286331177,2.4438886642456055,-33.565433502197266,54443,47483,57859,47262
12192,0.5398198962211609,2.484349012374878,-33.59642791748047,52344,51682,57406,47187
12202,0.7176641225814819,2.41841721534729,-33.5383186340332,51999,52106,54862,50568
12212,0.9562825560569763,2.4271602630615234,-33.555023193359375,51876,53211,51884,51715
12222,1.2612258195877075,2.4468231201171875,-33.61884689331055,52305,49363,54768,49194
12232,1.5657424926757812,2.4146177768707275,-33.6884651184082,55243,45506,55572,46649
12242,1.8008463382720947,2.3326425552368164,-33.6817626953125,53872,51918,53031,48260
12251,1.8726614713668823,2.2848081588745117,-33.647117614746094,53611,51503,52657,50202
12261,2.116046905517578,2.117365837097168,-33.697540283203125,52661,48621,53572,50002
12271,2.3763694763183594,1.9254077672958374,-33.727081298828125,49782,54926,52308,49713
12281,2.493753433227539,1.771209716796875,-33.75807189941406,52553,46793,54776,47450
12291,2.777034282684326,1.6879900693893433,-33.80677795410156,50840,56150,52882,46290
12302,3.101898670196533,1.6215835809707642,-33.84156036376953,50518,50222,53565,44781
12311,3.419912338256836,1.585813283920288,-33.89234924316406,49498,53005,55024,43587
12321,3.7269506454467773,1.5625569820404053,-33.938114166259766,51713,51294,55327,43109
12331,3.9986438751220703,1.4944829940795898,-33.94285583496094,53529,49767,52460,45893
12341,4.297266006469727,1.3790018558502197,-33.98264694213867,52490,47772,52358,50106
12351,4.609243392944336,1.2609260082244873,-34.04441452026367,53972,45857,52749,47479
12361,4.870843410491943,1.0398200750350952,-34.06809616088867,53605,47642,52618,49871
12371,5.098568439483643,0.7920871376991272,-34.07327651977539,55394,50454,52195,50122
12381,5.247559547424316,0.47554245591163635,-34.10000991821289,53948,52696,54621,48251
12391,5.348771095275879,0.3545961081981659,-34.13737869262695,50103,48860,54728,47374
12401,5.404396057128906,0.16777557134628296,-34.15517044067383,53011,46309,54912,48179
12411,5.422812461853027,-0.00808474887162447,-34.177398681640625,48647,55223,55579,48205
12421,5.407140254974365,-0.02039858140051365,-34.21310043334961,51783,51566,55991,47334
12431,5.317441940307617,-0.07484804838895798,-34.24513626098633,53622,50961,55385,47583
12441,5.145090103149414,-0.11607477813959122,-34.252376556396484,48744,56199,53766,47533
12451,5.044536113739014,-0.1705239713191986,-34.301387786865234,52106,47810,54575,49433
12461,4.939763069152832,-0.2262803614139557,-34.36161804199219,58031,39698,54846,47863
12471,4.746626853942871,-0.41440171003341675,-34.31011962890625,51940,52553,53006,51580
12481,4.579105377197266,-0.6741265058517456,-34.29903793334961,51539,50952,51010,50226
12491,4.368104457855225,-1.031783938407898,-34.34053421020508,53626,47005,51460,50636
12501,4.184779167175293,-1.3682929277420044,-34.37065887451172,54024,45390,54034,49160
12511,3.9780704975128174,-1.5757087469100952,-34.36429977416992,51934,49932,55549,48166
12521,3.807767868041992,-1.664783000946045,-34.34819793701172,50102,53360,56047,43959
12531,3.536146879196167,-1.7505112886428833,-34.31022262573242,47616,54937,55906,46156
12541,3.2348265647888184,-1.8081634044647217,-34.348304748535156,47314,55144,55746,47344
12551,3.009186267852783,-1.808761477470398,-34.416419982910156,53727,45346,55938,47094
12561,2.751997947692871,-1.8248027563095093,-34.412254333496094,54902,48703,53450,48972
12571,2.437296152114868,-1.8909308910369873,-34.392948150634766,51754,51349,51971,52091
12581,2.1588096618652344,-2.0554046630859375,-34.42060089111328,52728,50565,51760,52310
12591,1.8683258295059204,-2.2980129718780518,-34.46556091308594,56085,43601,53486,51023
12601,1.5530346632003784,-2.5205931663513184,-34.45570755004883,55013,47275,53679,51479
12611,1.2802190780639648,-2.727602481842041,-34.44440841674805,49142,51125,53058,48381
12621,0.9802672266960144,-2.838407039642334,-34.462310791015625,48969,51558,54493,46391
12631,0.6212813854217529,-2.8648314476013184,-34.468231201171875,48983,54528,53306,47867
12641,0.2948175072669983,-2.85438871383667,-34.50204849243164,50578,48272,56098,47750
12651,0.008838877081871033,-2.7727301120758057,-34.53167724609375,55019,41553,56772,46770
12661,-0.3886416554450989,-2.68239426612854,-34.47824478149414,49772,47364,55797,45911
12671,-0.8533163666725159,-2.610199213027954,-34.45773696899414,48905,52709,52125,51128
12681,-1.1873584985733032,-2.5147294998168945,-34.50185012817383,51951,48527,55460,49554
12691,-1.4491947889328003,-2.4279608726501465,-34.51979446411133,57681,43433,55523,47952
12701,-1.5898939371109009,-2.3848073482513428,-34.47674560546875,53246,45544,54626,45751
12711,-1.8603867292404175,-2.3141911029815674,-34.408042907714844,53677,47078,53656,47117
12721,-2.1243820190429688,-2.318403959274292,-34.37754821777344,48711,54786,52655,50728
12731,-2.318047285079956,-2.2728638648986816,-34.39154052734375,53486,44345,56107,49421
12741,-2.474775791168213,-2.1702823638916016,-34.39627456665039,53507,50626,56640,47227
12751,-2.6024866104125977,-2.0151431560516357,-34.326171875,50043,50687,54256,47424
12761,-2.7981371879577637,-1.9290250539779663,-34.30976104736328,50684,52669,54310,47781
12771,-2.913677215576172,-1.8047348260879517,-34.32209396362305,54112,45700,55772,47488
12781,-3.0455403327941895,-1.685054898262024,-34.277137756347656,53727,50633,53920,49374
12791,-3.1521246433258057,-1.5597349405288696,-34.23696517944336,51583,49764,54034,46905
12801,-3.201233148574829,-1.4243625402450562,-34.21994400024414,50552,53180,55170,45723
12811,-3.2577803134918213,-1.2344446182250977,-34.2078742980957,51866,50059,53824,49297
12821,-3.2370336055755615,-1.0987069606781006,-34.19792175292969,56253,42913,55643,48200
12831,-3.183135986328125,-1.0771324634552002,-34.1463623046875,55214,50480,52828,50111
12841,-3.228123426437378,-1.005906105041504,-34.08734893798828,48298,54853,52890,48512
12851,-3.2635879516601562,-0.8550180196762085,-34.12166213989258,53639,47383,54537,46554
12861,-3.2508933544158936,-0.7051628828048706,-34.090450286865234,51647,51424,53935,48237
12871,-3.2274227142333984,-0.5406057834625244,-34.05015182495117,51491,52171,55236,48800
12881,-3.168708086013794,-0.38244500756263733,-34.02827453613281,48602,53062,53776,45290
12891,-3.131770133972168,-0.15210483968257904,-34.025535583496094,52173,46539,55870,43971
12901,-3.0902090072631836,0.041046131402254105,-33.97541809082031,50967,51140,52792,48602
12911,-3.0127367973327637,0.23124364018440247,-33.944454193115234,51924,50710,53371,50156
12921,-2.9212186336517334,0.4038570523262024,-33.946720123291016,53976,51273,52488,50479
12931,-2.8396739959716797,0.558339536190033,-33.95093536376953,54732,44179,53852,48142
12941,-2.7632036209106445,0.6350519061088562,-33.920745849609375,54638,47309,54558,48818
12951,-2.6526570320129395,0.7293614149093628,-33.8751335144043,50089,56637,52952,51797
12961,-2.5110323429107666,0.8454192280769348,-33.88987350463867,53130,51730,56354,49011
12971,-2.3665528297424316,0.9207253456115723,-33.89704132080078,50071,50645,53248,46587
12981,-2.1456542015075684,1.1348559856414795,-33.912506103515625,54936,39436,57029,43561
12991,-1.9879062175750732,1.323309063911438,-33.844276428222656,51995,49546,54120,45741
13001,-1.9222667217254639,1.5377682447433472,-33.783897399902344,48359,55927,50726,51057
13011,-1.7373560667037964,1.7071853876113892,-33.81915283203125,51060,50909,53941,49496
13021,-1.4898344278335571,1.8539226055145264,-33.86688995361328,50669,47739,52429,48400
13031,-1.2997527122497559,1.9250491857528687,-33.887054443359375,54229,42431,53127,48719
13041,-1.171250581741333,1.9586782455444336,-33.88559341430664,53699,48271,54518,47450
13051,-1.0872000455856323,1.9332172870635986,-33.83427429199219,49734,57375,48869,53983
13061,-0.9668660759925842,1.9178454875946045,-33.861045837402344,48446,50057,53385,48845
13071,-0.8438426852226257,2.0216469764709473,-33.95160675048828,49293,50291,56122,46264
13081,-0.6736165285110474,2.156797409057617,-33.93783950805664,49108,51038,56626,44779
13091,-0.5466650128364563,2.337874174118042,-33.92621612548828,52627,48383,54626,46220
13101,-0.4929575026035309,2.4623191356658936,-33.88835144042969,46160,52502,51030,50471
13111,-0.3212891221046448,2.5900840759277344,-33.95706558227539,50755,51091,52102,48710
13121,-0.09969417005777359,2.5972204208374023,-33.982139587402344,52167,50125,50786,50400
13131,0.2105364203453064,2.5716493129730225,-34.01814651489258,54483,45922,52338,49022
13141,0.513647198677063,2.52547287940979,-34.03842544555664,55816,46364,53351,47528
13151,0.8096835613250732,2.4524199962615967,-34.01018142700195,49927,52953,52697,48037
13161,1.1073718070983887,2.3145766258239746,-34.01949691772461,51166,53771,52229,47529
13171,1.4283450841903687,2.238008737564087,-34.05893325805664,49593,50626,54236,49944
13181,1.7418596744537354,2.250229835510254,-34.12070846557617,54404,45613,55687,47741
13191,1.8533679246902466,2.1842308044433594,-34.10116195678711,49687,49030,53786,47250
13201,1.9985885620117188,2.116417169570923,-34.08671569824219,49304,52156,51745,51331
13211,2.2022674083709717,2.065605640411377,-34.13471603393555,51867,49456,53458,49453
13221,2.3477237224578857,2.0189454555511475,-34.17673873901367,51964,49265,52844,50786
13231,2.434443235397339,1.8945035934448242,-34.207130432128906,52907,48217,54122,50384
13241,2.5201656818389893,1.8128700256347656,-34.224735260009766,51618,51241,53287,47452
13251,2.5735318660736084,1.7386068105697632,-34.22105026245117,49026,53497,55128,48800
13261,2.6182003021240234,1.7030855417251587,-34.24778366088867,49610,55155,54233,50371
13271,2.596553325653076,1.6891587972640991,-34.30070114135742,51787,52438,55482,49783
13281,2.630375623703003,1.6396286487579346,-34.32482147216797,51007,51143,54393,48406
13291,2.614727258682251,1.567865252494812,-34.34918212890625,53924,46412,54995,48155
13301,2.5339527130126953,1.5312833786010742,-34.350589752197266,51674,55123,53112,50976
13311,2.537473678588867,1.3787635564804077,-34.347049713134766,51083,54729,52908,53604
13321,2.558088541030884,1.2180732488632202,-34.4328727722168,53743,45112,55715,48663
13331,2.589183807373047,1.057572603225708,-34.423683166503906,51944,52930,53624,49915
13341,2.611039638519287,0.8874131441116333,-34.42145538330078,50724,51966,54829,49662
13351,2.6356210708618164,0.7318572998046875,-34.46266555786133,53990,47731,54957,48589
13362,2.7536892890930176,0.650435209274292,-34.47199249267578,52509,51862,54400,48186
13372,2.752058267593384,0.5264163017272949,-34.48725128173828,48327,53476,53646,47962
13382,2.8154702186584473,0.3440081775188446,-34.51287078857422,51680,51486,52914,48235
13392,2.8832809925079346,0.12237738817930222,-34.54530715942383,50345,54484,52154,49168
13402,2.985964059829712,-0.0818198099732399,-34.59194564819336,53727,48503,53303,49091
13412,3.1032330989837646,-0.32908710837364197,-34.611366271972656,52425,50890,52879,47232
13422,3.139533758163452,-0.518805980682373,-34.60917282104492,50428,53576,51939,50830
13432,3.1953275203704834,-0.7637121677398682,-34.65684127807617,55356,45948,55008,47206
13442,3.1955771446228027,-1.078899621963501,-34.639137268066406,52227,53667,52227,50896
13452,3.1791439056396484,-1.3607420921325684,-34.67308807373047,53595,49525,54652,49739
13462,3.1762850284576416,-1.6192095279693604,-34.7001953125,51402,47964,54647,46283
13472,3.0720102787017822,-1.8550922870635986,-34.7017936706543,51408,47060,53920,47840
13482,2.9943459033966064,-2.003169298171997,-34.72722625732422,52041,48325,54472,46554
13492,2.8973166942596436,-2.144050121307373,-34.72730255126953,50956,49681,53861,49088
13502,2.7319884300231934,-2.306565523147583,-34.74550247192383,49396,51353,53152,51441
13511,2.5669243335723877,-2.4625701904296875,-34.79347610473633,52801,49092,53019,50806
13521,2.4451510906219482,-2.6049582958221436,-34.828956604003906,52621,48823,54658,49405
13532,2.214303970336914,-2.7732059955596924,-34.85823059082031,52873,49055,55890,47828
13542,1.9721847772598267,-2.9202046394348145,-34.87137985229492,53035,50727,55607,47373
13552,1.806949257850647,-3.07033109664917,-34.85885238647461,50834,50516,51957,49800
13562,1.5828816890716553,-3.1856260299682617,-34.89237976074219,49275,53841,52119,49725
13571,1.4245604276657104,-3.2672672271728516,-34.94884490966797,50241,50495,53571,49154
13582,1.1928404569625854,-3.3549718856811523,-35.00129318237305,53363,46515,53456,49602
13592,1.0068281888961792,-3.418489694595337,-34.9962158203125,52449,49277,50855,49853
13602,0.6715867519378662,-3.515928268432617,-35.00348663330078,50570,47607,53959,50031
13612,0.452595591545105,-3.575970411300659,-35.03043746948242,51483,50281,54155,48725
13622,0.24957163631916046,-3.608955144882202,-35.03310775756836,48231,57891,53258,47941
13631,-0.021045615896582603,-3.5787158012390137,-35.08521270751953,50615,52140,53167,50288
