timestamp (ms),stabilizer.roll,stabilizer.pitch,stabilizer.yaw,motor.m1,motor.m2,motor.m3,motor.m4
6169,0.0,0.0,0.0,0,0,0,0
6179,0.0,0.0,0.0,0,0,0,0
6189,0.0,0.0,0.0,0,0,0,0
6199,0.0,0.0,0.0,0,0,0,0
6209,0.0,0.0,0.0,0,0,0,0
6219,0.0,0.0,0.0,0,0,0,0
6229,0.0,0.0,0.0,0,0,0,0
6239,0.0,0.0,0.0,0,0,0,0
6249,0.0,0.0,0.0,0,0,0,0
6259,0.0,0.0,0.0,0,0,0,0
6269,0.0,0.0,0.0,0,0,0,0
6279,0.0,0.0,0.0,0,0,0,0
6289,0.0,0.0,0.0,0,0,0,0
6299,0.0,0.0,0.0,0,0,0,0
6309,0.0,0.0,0.0,0,0,0,0
6319,0.0,0.0,0.0,0,0,0,0
6329,0.0,0.0,0.0,0,0,0,0
6339,0.0,0.0,0.0,0,0,0,0
6349,0.0,0.0,0.0,0,0,0,0
6359,0.0,0.0,0.0,0,0,0,0
6369,0.0,0.0,0.0,0,0,0,0
6379,0.0,0.0,0.0,0,0,0,0
6389,0.0,0.0,0.0,0,0,0,0
6399,0.0,0.0,0.0,0,0,0,0
6409,0.0,0.0,0.0,0,0,0,0
6419,0.0,0.0,0.0,0,0,0,0
6429,0.0,0.0,0.0,0,0,0,0
6439,0.0,0.0,0.0,0,0,0,0
6449,0.0,0.0,0.0,0,0,0,0
6459,0.0,0.0,0.0,0,0,0,0
6469,0.0,0.0,0.0,0,0,0,0
6479,0.0,0.0,0.0,0,0,0,0
6489,0.0,0.0,0.0,0,0,0,0
6499,0.0,0.0,0.0,0,0,0,0
6509,0.0,0.0,0.0,0,0,0,0
6519,0.0,0.0,0.0,0,0,0,0
6529,0.0,0.0,0.0,0,0,0,0
6539,0.0,0.0,0.0,0,0,0,0
6549,0.0,0.0,0.0,0,0,0,0
6559,0.0,0.0,0.0,0,0,0,0
6569,0.0,0.0,0.0,0,0,0,0
6579,0.0,0.0,0.0,0,0,0,0
6589,0.0,0.0,0.0,0,0,0,0
6599,0.0,0.0,0.0,0,0,0,0
6609,0.0,0.0,0.0,0,0,0,0
6619,0.0,0.0,0.0,0,0,0,0
6629,0.0,0.0,0.0,0,0,0,0
6639,0.0,0.0,0.0,0,0,0,0
6649,0.0,0.0,0.0,0,0,0,0
6659,0.0,0.0,0.0,0,0,0,0
6669,0.0,0.0,0.0,0,0,0,0
6679,0.0,0.0,0.0,0,0,0,0
6689,0.0,0.0,0.0,0,0,0,0
6699,0.0,0.0,0.0,0,0,0,0
6709,0.0,0.0,0.0,0,0,0,0
6719,0.0,0.0,0.0,0,0,0,0
6729,0.0,0.0,0.0,0,0,0,0
6739,0.0,0.0,0.0,0,0,0,0
6749,0.0,0.0,0.0,0,0,0,0
6759,0.0,0.0,0.0,0,0,0,0
6769,0.0,0.0,0.0,0,0,0,0
6779,0.0,0.0,0.0,0,0,0,0
6789,0.0,0.0,0.0,0,0,0,0
6799,0.0,0.0,0.0,0,0,0,0
6809,0.0,0.0,0.0,0,0,0,0
6819,0.0,0.0,0.0,0,0,0,0
6829,0.0,0.0,0.0,0,0,0,0
6839,0.0,0.0,0.0,0,0,0,0
6849,0.0,0.0,0.0,0,0,0,0
6859,0.0,0.0,0.0,0,0,0,0
6869,0.0,0.0,0.0,0,0,0,0
6879,0.0,0.0,0.0,0,0,0,0
6889,0.0,0.0,0.0,0,0,0,0
6899,0.0,0.0,0.0,0,0,0,0
6909,0.0,0.0,0.0,0,0,0,0
6919,0.0,0.0,0.0,0,0,0,0
6929,0.0,0.0,0.0,0,0,0,0
6939,0.0,0.0,0.0,0,0,0,0
6949,0.0,0.0,0.0,0,0,0,0
6959,0.0,0.0,0.0,0,0,0,0
6969,0.0,0.0,0.0,0,0,0,0
6979,0.0,0.0,0.0,0,0,0,0
6989,0.0,0.0,0.0,0,0,0,0
6999,0.0,0.0,0.0,0,0,0,0
7009,0.0,0.0,0.0,0,0,0,0
7019,0.0,0.0,0.0,0,0,0,0
7029,0.0,0.0,0.0,0,0,0,0
7039,0.0,0.0,0.0,0,0,0,0
7049,0.0,0.0,0.0,0,0,0,0
7059,0.0,0.0,0.0,0,0,0,0
7069,0.0,0.0,0.0,0,0,0,0
7079,0.0,0.0,0.0,0,0,0,0
7089,0.0,0.0,0.0,0,0,0,0
7099,0.0,0.0,0.0,0,0,0,0
7109,0.0,0.0,0.0,0,0,0,0
7119,0.0,0.0,0.0,0,0,0,0
7129,0.0,0.0,0.0,0,0,0,0
7139,0.0,0.0,0.0,0,0,0,0
7149,0.0,0.0,0.0,0,0,0,0
7159,0.0,0.0,0.0,0,0,0,0
7169,0.0,0.0,0.0,0,0,0,0
7179,0.0,0.0,0.0,0,0,0,0
7189,0.0,0.0,0.0,0,0,0,0
7199,0.0,0.0,0.0,0,0,0,0
7209,0.0,0.0,0.0,0,0,0,0
7219,0.0,0.0,0.0,0,0,0,0
7229,0.0,0.0,0.0,0,0,0,0
7239,0.0,0.0,0.0,0,0,0,0
7249,0.0,0.0,0.0,0,0,0,0
7259,0.0,0.0,0.0,0,0,0,0
7269,0.0,0.0,0.0,0,0,0,0
7279,0.0,0.0,0.0,0,0,0,0
7289,0.0,0.0,0.0,0,0,0,0
7299,0.0,0.0,0.0,0,0,0,0
7309,0.0,0.0,0.0,0,0,0,0
7319,0.0,0.0,0.0,0,0,0,0
7329,0.0,0.0,0.0,0,0,0,0
7339,0.0,0.0,0.0,0,0,0,0
7349,0.0,0.0,0.0,0,0,0,0
7359,0.0,0.0,0.0,0,0,0,0
7369,0.0,0.0,0.0,0,0,0,0
7379,0.0,0.0,0.0,0,0,0,0
7389,0.0,0.0,0.0,0,0,0,0
7399,0.0,0.0,0.0,0,0,0,0
7409,0.0,0.0,0.0,0,0,0,0
7419,0.0,0.0,0.0,0,0,0,0
7429,0.0,0.0,0.0,0,0,0,0
7439,0.0,0.0,0.0,0,0,0,0
7449,0.0,0.0,0.0,0,0,0,0
7459,0.0,0.0,0.0,0,0,0,0
7469,0.0,0.0,0.0,0,0,0,0
7479,0.0,0.0,0.0,0,0,0,0
7489,0.0,0.0,0.0,0,0,0,0
7499,0.0,0.0,0.0,0,0,0,0
7509,0.0,0.0,0.0,0,0,0,0
7519,0.0,0.0,0.0,0,0,0,0
7529,0.0,0.0,0.0,0,0,0,0
7539,0.0,0.0,0.0,0,0,0,0
7549,0.0,0.0,0.0,0,0,0,0
7559,0.0,0.0,0.0,0,0,0,0
7569,0.0,0.0,0.0,0,0,0,0
7579,0.0,0.0,0.0,0,0,0,0
7589,0.0,0.0,0.0,0,0,0,0
7599,0.0,0.0,0.0,0,0,0,0
7609,0.0,0.0,0.0,0,0,0,0
7619,0.0,0.0,0.0,0,0,0,0
7629,0.0,0.0,0.0,0,0,0,0
7639,0.0,0.0,0.0,0,0,0,0
7649,0.0,0.0,0.0,0,0,0,0
7659,0.0,0.0,0.0,0,0,0,0
7669,0.0,0.0,0.0,0,0,0,0
7679,0.0,0.0,0.0,0,0,0,0
7689,0.0,0.0,0.0,0,0,0,0
7699,0.0,0.0,0.0,0,0,0,0
7709,0.0,0.0,0.0,0,0,0,0
7719,0.0,0.0,0.0,0,0,0,0
7729,0.0,0.0,0.0,0,0,0,0
7739,0.0,0.0,0.0,0,0,0,0
7749,0.0,0.0,0.0,0,0,0,0
7759,0.0,0.0,0.0,0,0,0,0
7769,0.0,0.0,0.0,0,0,0,0
7779,0.0,0.0,0.0,0,0,0,0
7789,0.0,0.0,0.0,0,0,0,0
7799,0.0,0.0,0.0,0,0,0,0
7809,0.0,0.0,0.0,0,0,0,0
7819,0.0,0.0,0.0,0,0,0,0
7829,0.0,0.0,0.0,0,0,0,0
7839,0.0,0.0,0.0,0,0,0,0
7849,0.0,0.0,0.0,0,0,0,0
7859,0.0,0.0,0.0,0,0,0,0
7869,0.0,0.0,0.0,0,0,0,0
7879,0.0,0.0,0.0,0,0,0,0
7889,0.0,0.0,0.0,0,0,0,0
7899,0.0,0.0,0.0,0,0,0,0
7909,0.0,0.0,0.0,0,0,0,0
7919,0.0,0.0,0.0,0,0,0,0
7929,0.0,0.0,0.0,0,0,0,0
7939,0.0,0.0,0.0,0,0,0,0
7949,0.0,0.0,0.0,0,0,0,0
7959,0.0,0.0,0.0,0,0,0,0
7969,0.0,0.0,0.0,0,0,0,0
7979,0.0,0.0,0.0,0,0,0,0
7989,0.0,0.0,0.0,0,0,0,0
7999,0.0,0.0,0.0,0,0,0,0
8009,0.0,0.0,0.0,0,0,0,0
8019,0.0,0.0,0.0,0,0,0,0
8029,0.0,0.0,0.0,0,0,0,0
8039,0.0,0.0,0.0,0,0,0,0
8049,0.0,0.0,0.0,0,0,0,0
8059,0.0,0.0,0.0,0,0,0,0
8069,0.0,0.0,0.0,0,0,0,0
8079,0.0,0.0,0.0,0,0,0,0
8089,0.0,0.0,0.0,0,0,0,0
8099,0.0,0.0,0.0,0,0,0,0
8109,0.0,0.0,0.0,0,0,0,0
8119,0.0,0.0,0.0,0,0,0,0
8129,0.0,0.0,0.0,0,0,0,0
8139,0.0,0.0,0.0,0,0,0,0
8149,0.0,0.0,0.0,0,0,0,0
8159,0.0,0.0,0.0,0,0,0,0
8169,0.0,0.0,0.0,0,0,0,0
8179,0.0,0.0,0.0,0,0,0,0
8189,0.0,0.0,0.0,0,0,0,0
8199,0.0,0.0,0.0,0,0,0,0
8209,0.0,0.0,0.0,0,0,0,0
8219,0.0,0.0,0.0,0,0,0,0
8229,0.0,0.0,0.0,0,0,0,0
8239,0.0,0.0,0.0,0,0,0,0
8249,0.0,0.0,0.0,0,0,0,0
8259,0.0,0.0,0.0,0,0,0,0
8269,0.0,0.0,0.0,0,0,0,0
8279,0.0,0.0,0.0,0,0,0,0
8289,0.0,0.0,0.0,0,0,0,0
8299,0.0,0.0,0.0,0,0,0,0
8309,0.0,0.0,0.0,0,0,0,0
8319,0.0,0.0,0.0,0,0,0,0
8329,0.0,0.0,0.0,0,0,0,0
8339,0.0,0.0,0.0,0,0,0,0
8349,0.0,0.0,0.0,0,0,0,0
8359,0.0,0.0,0.0,0,0,0,0
8369,0.0,0.0,0.0,0,0,0,0
8379,0.0,0.0,0.0,0,0,0,0
8389,0.0,0.0,0.0,0,0,0,0
8399,0.0,0.0,0.0,0,0,0,0
8409,0.0,0.0,0.0,0,0,0,0
8419,0.0,0.0,0.0,0,0,0,0
8429,0.0,0.0,0.0,0,0,0,0
8439,0.0,0.0,0.0,0,0,0,0
8449,0.0,0.0,0.0,0,0,0,0
8459,0.0,0.0,0.0,0,0,0,0
8469,0.0,0.0,0.0,0,0,0,0
8479,0.0,0.0,0.0,0,0,0,0
8489,0.0,0.0,0.0,0,0,0,0
8499,0.0,0.0,0.0,0,0,0,0
8509,0.0,0.0,0.0,0,0,0,0
8519,0.0,0.0,0.0,0,0,0,0
8529,0.0,0.0,0.0,0,0,0,0
8539,0.0,0.0,0.0,0,0,0,0
8549,0.0,0.0,0.0,0,0,0,0
8559,0.0,0.0,0.0,0,0,0,0
8569,0.0,0.0,0.0,0,0,0,0
8579,0.0,0.0,0.0,0,0,0,0
8589,0.0,0.0,0.0,0,0,0,0
8599,0.0,0.0,0.0,0,0,0,0
8609,0.0,0.0,0.0,0,0,0,0
8619,0.0,0.0,0.0,0,0,0,0
8629,0.0,0.0,0.0,0,0,0,0
8639,0.0,0.0,0.0,0,0,0,0
8649,0.0,0.0,0.0,0,0,0,0
8659,0.0,0.0,0.0,0,0,0,0
8669,0.0,0.0,0.0,0,0,0,0
8679,0.0,0.0,0.0,0,0,0,0
8689,0.0,0.0,0.0,0,0,0,0
8699,0.0,0.0,0.0,0,0,0,0
8709,0.0,0.0,0.0,0,0,0,0
8719,0.0,0.0,0.0,0,0,0,0
8729,0.0,0.0,0.0,0,0,0,0
8739,0.0,0.0,0.0,0,0,0,0
8749,0.0,0.0,0.0,0,0,0,0
8759,0.0,0.0,0.0,0,0,0,0
8769,0.0,0.0,0.0,0,0,0,0
8779,0.0,0.0,0.0,0,0,0,0
8789,0.0,0.0,0.0,0,0,0,0
8799,0.0,0.0,0.0,0,0,0,0
8809,0.0,0.0,0.0,0,0,0,0
8819,0.0,0.0,0.0,0,0,0,0
8829,0.0,0.0,0.0,0,0,0,0
8839,0.0,0.0,0.0,0,0,0,0
8849,0.0,0.0,0.0,0,0,0,0
8859,0.0,0.0,0.0,0,0,0,0
8869,0.0,0.0,0.0,0,0,0,0
8879,0.0,0.0,0.0,0,0,0,0
8889,0.0,0.0,0.0,0,0,0,0
8899,0.0,0.0,0.0,0,0,0,0
8909,0.0,0.0,0.0,0,0,0,0
8919,0.0,0.0,0.0,0,0,0,0
8929,0.0,0.0,0.0,0,0,0,0
8939,0.0,0.0,0.0,0,0,0,0
8949,0.0,0.0,0.0,0,0,0,0
8959,0.0,0.0,0.0,0,0,0,0
8969,0.0,0.0,0.0,0,0,0,0
8979,0.0,0.0,0.0,0,0,0,0
8989,0.0,0.0,0.0,0,0,0,0
8999,0.0,0.0,0.0,0,0,0,0
9009,0.0,0.0,0.0,0,0,0,0
9019,0.0,0.0,0.0,0,0,0,0
9029,0.0,0.0,0.0,0,0,0,0
9039,0.0,0.0,0.0,0,0,0,0
9049,0.0,0.0,0.0,0,0,0,0
9059,0.0,0.0,0.0,0,0,0,0
9069,0.0,0.0,0.0,0,0,0,0
9079,0.0,0.0,0.0,0,0,0,0
9089,0.0,0.0,0.0,0,0,0,0
9099,0.0,0.0,0.0,0,0,0,0
9109,0.0,0.0,0.0,0,0,0,0
9119,0.0,0.0,0.0,0,0,0,0
9129,0.0,0.0,0.0,0,0,0,0
9139,0.0,0.0,0.0,0,0,0,0
9149,0.0,0.0,0.0,0,0,0,0
9159,0.0,0.0,0.0,0,0,0,0
9169,0.0,0.0,0.0,0,0,0,0
9179,0.0,0.0,0.0,0,0,0,0
9189,0.0,0.0,0.0,0,0,0,0
9199,0.0,0.0,0.0,0,0,0,0
9209,0.0,0.0,0.0,0,0,0,0
9219,0.0,0.0,0.0,0,0,0,0
9229,0.0,0.0,0.0,0,0,0,0
9239,0.0,0.0,0.0,0,0,0,0
9249,0.0,0.0,0.0,0,0,0,0
9259,0.0,0.0,0.0,0,0,0,0
9269,0.0,0.0,0.0,0,0,0,0
9279,0.0,0.0,0.0,0,0,0,0
9289,0.0,0.0,0.0,0,0,0,0
9299,0.0,0.0,0.0,0,0,0,0
9309,0.0,0.0,0.0,0,0,0,0
9319,0.0,0.0,0.0,0,0,0,0
9329,0.0,0.0,0.0,0,0,0,0
9339,0.0,0.0,0.0,0,0,0,0
9349,0.0,0.0,0.0,0,0,0,0
9359,0.0,0.0,0.0,0,0,0,0
9369,0.0,0.0,0.0,0,0,0,0
9379,0.0,0.0,0.0,0,0,0,0
9389,0.0,0.0,0.0,0,0,0,0
9399,0.0,0.0,0.0,0,0,0,0
9409,0.0,0.0,0.0,0,0,0,0
9419,0.0,0.0,0.0,0,0,0,0
9429,0.0,0.0,0.0,0,0,0,0
9439,0.0,0.0,0.0,0,0,0,0
9449,0.0,0.0,0.0,0,0,0,0
9459,0.0,0.0,0.0,0,0,0,0
9469,0.0,0.0,0.0,0,0,0,0
9479,0.0,0.0,0.0,0,0,0,0
9489,0.0,0.0,0.0,0,0,0,0
9499,0.0,0.0,0.0,0,0,0,0
9509,0.0,0.0,0.0,0,0,0,0
9519,0.0,0.0,0.0,0,0,0,0
9529,0.0,0.0,0.0,0,0,0,0
9539,0.0,0.0,0.0,0,0,0,0
9549,0.0,0.0,0.0,0,0,0,0
9559,0.0,0.0,0.0,0,0,0,0
9569,0.0,0.0,0.0,0,0,0,0
9579,0.0,0.0,0.0,0,0,0,0
9589,0.0,0.0,0.0,0,0,0,0
9599,0.0,0.0,0.0,0,0,0,0
9609,0.0,0.0,0.0,0,0,0,0
9619,0.0,0.0,0.0,0,0,0,0
9629,0.0,0.0,0.0,0,0,0,0
9639,0.0,0.0,0.0,0,0,0,0
9649,0.0,0.0,0.0,0,0,0,0
9659,0.0,0.0,0.0,0,0,0,0
9669,0.0,0.0,0.0,0,0,0,0
9679,0.0,0.0,0.0,0,0,0,0
9689,0.0,0.0,0.0,0,0,0,0
9699,0.0,0.0,0.0,0,0,0,0
9709,0.0,0.0,0.0,0,0,0,0
9719,0.0,0.0,0.0,0,0,0,0
9729,0.0,0.0,0.0,0,0,0,0
9739,0.0,0.0,0.0,0,0,0,0
9749,0.0,0.0,0.0,0,0,0,0
9759,0.0,0.0,0.0,0,0,0,0
9769,0.0,0.0,0.0,0,0,0,0
9779,0.0,0.0,0.0,0,0,0,0
9789,0.0,0.0,0.0,0,0,0,0
9799,0.0,0.0,0.0,0,0,0,0
9809,0.0,0.0,0.0,0,0,0,0
9819,0.0,0.0,0.0,0,0,0,0
9829,0.0,0.0,0.0,0,0,0,0
9839,0.0,0.0,0.0,0,0,0,0
9849,0.0,0.0,0.0,0,0,0,0
9859,0.0,0.0,0.0,0,0,0,0
9869,0.0,0.0,0.0,0,0,0,0
9879,0.0,0.0,0.0,0,0,0,0
9889,0.0,0.0,0.0,0,0,0,0
9899,0.0,0.0,0.0,0,0,0,0
9909,0.0,0.0,0.0,0,0,0,0
9919,0.0,0.0,0.0,0,0,0,0
9929,0.0,0.0,0.0,0,0,0,0
9939,0.0,0.0,0.0,0,0,0,0
9949,0.0,0.0,0.0,0,0,0,0
9959,0.0,0.0,0.0,0,0,0,0
9969,0.0,0.0,0.0,0,0,0,0
9979,0.0,0.0,0.0,0,0,0,0
9989,0.0,0.0,0.0,0,0,0,0
9999,0.0,0.0,0.0,0,0,0,0
10009,0.0,0.0,0.0,0,0,0,0
10019,0.0,0.0,0.0,0,0,0,0
10029,0.0,0.0,0.0,0,0,0,0
10039,0.0,0.0,0.0,0,0,0,0
10049,0.0,0.0,0.0,0,0,0,0
10059,0.0,0.0,0.0,0,0,0,0
10069,0.0,0.0,0.0,0,0,0,0
10079,0.0,0.0,0.0,0,0,0,0
10089,0.0,0.0,0.0,0,0,0,0
10099,0.0,0.0,0.0,0,0,0,0
10109,0.0,0.0,0.0,0,0,0,0
10119,0.0,0.0,0.0,0,0,0,0
10129,0.0,0.0,0.0,0,0,0,0
10139,0.0,0.0,0.0,0,0,0,0
10149,0.0,0.0,0.0,0,0,0,0
10159,0.0,0.0,0.0,0,0,0,0
10169,0.0,0.0,0.0,0,0,0,0
10179,0.0,0.0,0.0,0,0,0,0
10189,0.0,0.0,0.0,0,0,0,0
10199,0.0,0.0,0.0,0,0,0,0
10209,0.0,0.0,0.0,0,0,0,0
10219,0.0,0.0,0.0,0,0,0,0
10229,0.0,0.0,0.0,0,0,0,0
10239,0.0,0.0,0.0,0,0,0,0
10249,0.0,0.0,0.0,0,0,0,0
10259,0.0,0.0,0.0,0,0,0,0
10269,0.0,0.0,0.0,0,0,0,0
10279,0.0,0.0,0.0,0,0,0,0
10289,0.0,0.0,0.0,0,0,0,0
10299,0.0,0.0,0.0,0,0,0,0
10309,0.0,0.0,0.0,0,0,0,0
10319,0.0,0.0,0.0,0,0,0,0
10329,0.0,0.0,0.0,0,0,0,0
10339,0.0,0.0,0.0,0,0,0,0
10349,0.0,0.0,0.0,0,0,0,0
10359,0.0,0.0,0.0,0,0,0,0
10369,0.0,0.0,0.0,0,0,0,0
10379,0.0,0.0,0.0,0,0,0,0
10389,0.0,0.0,0.0,0,0,0,0
10399,0.0,0.0,0.0,0,0,0,0
10409,0.0,0.0,0.0,0,0,0,0
10419,0.0,0.0,0.0,0,0,0,0
10429,0.0,0.0,0.0,0,0,0,0
10439,0.0,0.0,0.0,0,0,0,0
10449,0.0,0.0,0.0,0,0,0,0
10459,0.0,0.0,0.0,0,0,0,0
10469,0.0,0.0,0.0,0,0,0,0
10479,0.0,0.0,0.0,0,0,0,0
10489,0.0,0.0,0.0,0,0,0,0
10499,0.0,0.0,0.0,0,0,0,0
10509,0.0,0.0,0.0,0,0,0,0
10519,0.0,0.0,0.0,0,0,0,0
10529,0.0,0.0,0.0,0,0,0,0
10539,0.0,0.0,0.0,0,0,0,0
10549,0.0,0.0,0.0,0,0,0,0
10559,0.0,0.0,0.0,0,0,0,0
10569,0.0,0.0,0.0,0,0,0,0
10579,0.0,0.0,0.0,0,0,0,0
10589,0.0,0.0,0.0,0,0,0,0
10599,0.0,0.0,0.0,0,0,0,0
10609,0.0,0.0,0.0,0,0,0,0
10619,0.0,0.0,0.0,0,0,0,0
10629,0.0,0.0,0.0,0,0,0,0
10639,0.0,0.0,0.0,0,0,0,0
10649,0.0,0.0,0.0,0,0,0,0
10659,0.0,0.0,0.0,0,0,0,0
10669,0.0,0.0,0.0,0,0,0,0
10679,0.0,0.0,0.0,0,0,0,0
10689,0.0,0.0,0.0,0,0,0,0
10699,0.0,0.0,0.0,0,0,0,0
10709,0.0,0.0,0.0,0,0,0,0
10719,0.0,0.0,0.0,0,0,0,0
10729,0.0,0.0,0.0,0,0,0,0
10739,0.0,0.0,0.0,0,0,0,0
10749,0.0,0.0,0.0,0,0,0,0
10759,0.0,0.0,0.0,0,0,0,0
10769,0.0,0.0,0.0,0,0,0,0
10779,0.0,0.0,0.0,0,0,0,0
10789,0.0,0.0,0.0,0,0,0,0
10799,0.0,0.0,0.0,0,0,0,0
10809,0.0,0.0,0.0,0,0,0,0
10819,0.0,0.0,0.0,0,0,0,0
10829,0.0,0.0,0.0,0,0,0,0
10839,0.0,0.0,0.0,0,0,0,0
10849,0.0,0.0,0.0,0,0,0,0
10859,0.0,0.0,0.0,0,0,0,0
10869,0.0,0.0,0.0,0,0,0,0
10879,0.0,0.0,0.0,0,0,0,0
10889,0.0,0.0,0.0,0,0,0,0
10899,0.0,0.0,0.0,0,0,0,0
10909,0.0,0.0,0.0,0,0,0,0
10919,0.0,0.0,0.0,0,0,0,0
10929,0.0,0.0,0.0,0,0,0,0
10939,0.0,0.0,0.0,0,0,0,0
10949,0.0,0.0,0.0,0,0,0,0
10959,0.0,0.0,0.0,0,0,0,0
10969,0.0,0.0,0.0,0,0,0,0
10979,0.0,0.0,0.0,0,0,0,0
10989,0.0,0.0,0.0,0,0,0,0
10999,0.0,0.0,0.0,0,0,0,0
11009,0.0,0.0,0.0,0,0,0,0
11019,0.0,0.0,0.0,0,0,0,0
11029,0.0,0.0,0.0,0,0,0,0
11039,0.0,0.0,0.0,0,0,0,0
11049,0.0,0.0,0.0,0,0,0,0
11059,0.0,0.0,0.0,0,0,0,0
11069,0.0,0.0,0.0,0,0,0,0
11079,0.0,0.0,0.0,0,0,0,0
11089,0.0,0.0,0.0,0,0,0,0
11099,0.0,0.0,0.0,0,0,0,0
11109,0.0,0.0,0.0,0,0,0,0
11119,0.0,0.0,0.0,0,0,0,0
11129,0.0,0.0,0.0,0,0,0,0
11139,0.0,0.0,0.0,0,0,0,0
11149,0.0,0.0,0.0,0,0,0,0
11159,0.0,0.0,0.0,0,0,0,0
11169,0.0,0.0,0.0,0,0,0,0
11179,0.0,0.0,0.0,0,0,0,0
11189,0.0,0.0,0.0,0,0,0,0
11199,0.0,0.0,0.0,0,0,0,0
11209,0.0,0.0,0.0,0,0,0,0
11219,0.0,0.0,0.0,0,0,0,0
11229,0.0,0.0,0.0,0,0,0,0
11239,0.0,0.0,0.0,0,0,0,0
11249,0.0,0.0,0.0,0,0,0,0
11259,0.0,0.0,0.0,0,0,0,0
11269,0.0,0.0,0.0,0,0,0,0
11279,0.0,0.0,0.0,0,0,0,0
11289,0.0,0.0,0.0,0,0,0,0
11299,0.0,0.0,0.0,0,0,0,0
11309,0.0,0.0,0.0,0,0,0,0
11319,0.0,0.0,0.0,0,0,0,0
11329,0.0,0.0,0.0,0,0,0,0
11339,0.0,0.0,0.0,0,0,0,0
11349,0.0,0.0,0.0,0,0,0,0
11359,0.0,0.0,0.0,0,0,0,0
11369,0.0,0.0,0.0,0,0,0,0
11379,0.0,0.0,0.0,0,0,0,0
11389,0.0,0.0,0.0,0,0,0,0
11399,0.0,0.0,0.0,0,0,0,0
11409,0.0,0.0,0.0,0,0,0,0
11419,0.0,0.0,0.0,0,0,0,0
11429,0.0,0.0,0.0,0,0,0,0
11439,0.0,0.0,0.0,0,0,0,0
11449,0.0,0.0,0.0,0,0,0,0
11459,0.0,0.0,0.0,0,0,0,0
11469,0.0,0.0,0.0,0,0,0,0
11479,0.0,0.0,0.0,0,0,0,0
11489,0.0,0.0,0.0,0,0,0,0
11499,0.0,0.0,0.0,0,0,0,0
11509,0.0,0.0,0.0,0,0,0,0
11519,0.0,0.0,0.0,0,0,0,0
11529,0.0,0.0,0.0,0,0,0,0
11539,0.0,0.0,0.0,0,0,0,0
11549,0.0,0.0,0.0,0,0,0,0
11559,0.0,0.0,0.0,0,0,0,0
11569,0.0,0.0,0.0,0,0,0,0
11579,0.0,0.0,0.0,0,0,0,0
11589,0.0,0.0,0.0,0,0,0,0
11599,0.0,0.0,0.0,0,0,0,0
11609,0.0,0.0,0.0,0,0,0,0
11619,0.0,0.0,0.0,0,0,0,0
11629,0.0,0.0,0.0,0,0,0,0
11639,0.0,0.0,0.0,0,0,0,0
11649,0.0,0.0,0.0,0,0,0,0
11659,0.0,0.0,0.0,0,0,0,0
11669,0.0,0.0,0.0,0,0,0,0
11679,0.0,0.0,0.0,0,0,0,0
11689,0.0,0.0,0.0,0,0,0,0
11699,0.0,0.0,0.0,0,0,0,0
11709,0.0,0.0,0.0,0,0,0,0
11719,0.0,0.0,0.0,0,0,0,0
11729,0.0,0.0,0.0,0,0,0,0
11739,0.0,0.0,0.0,0,0,0,0
11749,0.0,0.0,0.0,0,0,0,0
11759,0.0,0.0,0.0,0,0,0,0
11769,0.0,0.0,0.0,0,0,0,0
11779,0.0,0.0,0.0,0,0,0,0
11789,0.0,0.0,0.0,0,0,0,0
11799,0.0,0.0,0.0,0,0,0,0
11809,0.0,0.0,0.0,0,0,0,0
11819,0.0,0.0,0.0,0,0,0,0
11829,0.0,0.0,0.0,0,0,0,0
11839,0.0,0.0,0.0,0,0,0,0
11849,0.0,0.0,0.0,0,0,0,0
11859,0.0,0.0,0.0,0,0,0,0
11869,0.0,0.0,0.0,0,0,0,0
11879,0.0,0.0,0.0,0,0,0,0
11889,0.0,0.0,0.0,0,0,0,0
11899,0.0,0.0,0.0,0,0,0,0
11909,0.0,0.0,0.0,0,0,0,0
11919,0.0,0.0,0.0,0,0,0,0
11929,0.0,0.0,0.0,0,0,0,0
11939,0.0,0.0,0.0,0,0,0,0
11949,0.0,0.0,0.0,0,0,0,0
11959,0.0,0.0,0.0,0,0,0,0
11969,0.0,0.0,0.0,0,0,0,0
11979,0.0,0.0,0.0,0,0,0,0
11989,0.0,0.0,0.0,0,0,0,0
11999,0.0,0.0,0.0,0,0,0,0
12009,0.0,0.0,0.0,0,0,0,0
12019,0.0,0.0,0.0,0,0,0,0
12029,0.0,0.0,0.0,0,0,0,0
12039,0.0,0.0,0.0,0,0,0,0
12049,0.0,0.0,0.0,0,0,0,0
12059,0.0,0.0,0.0,0,0,0,0
12069,0.0,0.0,0.0,0,0,0,0
12079,0.0,0.0,0.0,0,0,0,0
12089,0.0,0.0,0.0,0,0,0,0
12099,0.0,0.0,0.0,0,0,0,0
12109,0.0,0.0,0.0,0,0,0,0
12119,0.0,0.0,0.0,0,0,0,0
12129,0.0,0.0,0.0,0,0,0,0
12139,0.0,0.0,0.0,0,0,0,0
12149,0.0,0.0,0.0,0,0,0,0
12159,0.0,0.0,0.0,0,0,0,0
12169,0.0,0.0,0.0,0,0,0,0
12179,0.0,0.0,0.0,0,0,0,0
12189,0.0,0.0,0.0,0,0,0,0
12199,0.0,0.0,0.0,0,0,0,0
12209,0.0,0.0,0.0,0,0,0,0
12219,0.0,0.0,0.0,0,0,0,0
12229,0.0,0.0,0.0,0,0,0,0
12239,0.0,0.0,0.0,0,0,0,0
12249,0.0,0.0,0.0,0,0,0,0
12259,0.0,0.0,0.0,0,0,0,0
12269,0.0,0.0,0.0,0,0,0,0
12279,0.0,0.0,0.0,0,0,0,0
12289,0.0,0.0,0.0,0,0,0,0
12299,0.0,0.0,0.0,0,0,0,0
12309,0.0,0.0,0.0,0,0,0,0
12319,0.0,0.0,0.0,0,0,0,0
12329,0.0,0.0,0.0,0,0,0,0
12339,0.0,0.0,0.0,0,0,0,0
12349,0.0,0.0,0.0,0,0,0,0
12359,0.0,0.0,0.0,0,0,0,0
12369,0.0,0.0,0.0,0,0,0,0
12379,0.0,0.0,0.0,0,0,0,0
12389,0.0,0.0,0.0,0,0,0,0
12399,0.0,0.0,0.0,0,0,0,0
12409,0.0,0.0,0.0,0,0,0,0
12419,0.0,0.0,0.0,0,0,0,0
12429,0.0,0.0,0.0,0,0,0,0
12439,0.0,0.0,0.0,0,0,0,0
12449,0.0,0.0,0.0,0,0,0,0
12459,0.0,0.0,0.0,0,0,0,0
12469,0.0,0.0,0.0,0,0,0,0
12479,0.0,0.0,0.0,0,0,0,0
12489,0.0,0.0,0.0,0,0,0,0
12499,0.0,0.0,0.0,0,0,0,0
12509,0.0,0.0,0.0,0,0,0,0
12519,0.0,0.0,0.0,0,0,0,0
12529,0.0,0.0,0.0,0,0,0,0
12539,0.0,0.0,0.0,0,0,0,0
12549,0.0,0.0,0.0,0,0,0,0
12559,0.0,0.0,0.0,0,0,0,0
12569,0.0,0.0,0.0,0,0,0,0
12579,0.0,0.0,0.0,0,0,0,0
12589,0.0,0.0,0.0,0,0,0,0
12599,0.0,0.0,0.0,0,0,0,0
12609,0.0,0.0,0.0,0,0,0,0
12619,0.0,0.0,0.0,0,0,0,0
12629,0.0,0.0,0.0,0,0,0,0
12639,0.0,0.0,0.0,0,0,0,0
12649,0.0,0.0,0.0,0,0,0,0
12659,0.0,0.0,0.0,0,0,0,0
12669,0.0,0.0,0.0,0,0,0,0
12679,0.0,0.0,0.0,0,0,0,0
12689,0.0,0.0,0.0,0,0,0,0
12699,0.0,0.0,0.0,0,0,0,0
12709,0.0,0.0,0.0,0,0,0,0
12719,0.0,0.0,0.0,0,0,0,0
12729,0.0,0.0,0.0,0,0,0,0
12739,0.0,0.0,0.0,0,0,0,0
12749,0.0,0.0,0.0,0,0,0,0
12759,0.0,0.0,0.0,0,0,0,0
12769,0.0,0.0,0.0,0,0,0,0
12779,0.0,0.0,0.0,0,0,0,0
12789,0.0,0.0,0.0,0,0,0,0
12799,0.0,0.0,0.0,0,0,0,0
12809,0.0,0.0,0.0,0,0,0,0
12819,0.0,0.0,0.0,0,0,0,0
12829,0.0,0.0,0.0,0,0,0,0
12839,0.0,0.0,0.0,0,0,0,0
12849,0.0,0.0,0.0,0,0,0,0
12859,0.0,0.0,0.0,0,0,0,0
12869,0.0,0.0,0.0,0,0,0,0
12879,0.0,0.0,0.0,0,0,0,0
12889,0.0,0.0,0.0,0,0,0,0
12899,0.0,0.0,0.0,0,0,0,0
12909,0.0,0.0,0.0,0,0,0,0
12919,0.0,0.0,0.0,0,0,0,0
12929,0.0,0.0,0.0,0,0,0,0
12939,0.0,0.0,0.0,0,0,0,0
12949,0.0,0.0,0.0,0,0,0,0
12959,0.0,0.0,0.0,0,0,0,0
12969,0.0,0.0,0.0,0,0,0,0
12979,0.0,0.0,0.0,0,0,0,0
12989,0.0,0.0,0.0,0,0,0,0
12999,0.0,0.0,0.0,0,0,0,0
13009,0.0,0.0,0.0,0,0,0,0
13019,0.0,0.0,0.0,0,0,0,0
13029,0.0,0.0,0.0,0,0,0,0
13039,0.0,0.0,0.0,0,0,0,0
13049,0.0,0.0,0.0,0,0,0,0
13059,0.0,0.0,0.0,0,0,0,0
13069,0.0,0.0,0.0,0,0,0,0
13079,0.0,0.0,0.0,0,0,0,0
13089,0.0,0.0,0.0,0,0,0,0
13099,0.0,0.0,0.0,0,0,0,0
13109,0.0,0.0,0.0,0,0,0,0
13119,0.0,0.0,0.0,0,0,0,0
13129,0.0,0.0,0.0,0,0,0,0
13139,0.0,0.0,0.0,0,0,0,0
13149,0.0,0.0,0.0,0,0,0,0
13159,0.0,0.0,0.0,0,0,0,0
13169,0.0,0.0,0.0,0,0,0,0
13179,0.0,0.0,0.0,0,0,0,0
13190,0.0,0.0,0.0,0,0,0,0
13199,3.85121202270966e-05,0.00040701686521060765,0.0007674425141885877,0,0,0,0
13209,0.02727765217423439,0.003225433174520731,0.0013950694119557738,0,0,0,0
13221,0.34165650606155396,0.2670721411705017,0.0013559864601120353,0,0,0,0
13231,0.17066384851932526,-0.03236247971653938,0.003166624577715993,0,0,0,0
13241,0.22899429500102997,-0.1007227823138237,0.0027396418154239655,0,0,0,0
13249,0.18536578118801117,-0.11942186206579208,0.0027715677861124277,0,0,0,0
13259,0.2992962598800659,0.05465950816869736,0.0024683279916644096,0,0,0,0
13269,0.014611292630434036,0.020153271034359932,0.0019236046355217695,0,0,0,0
13279,-0.12106291204690933,-0.05096590891480446,0.0022234225180000067,0,0,0,0
13289,-0.17094877362251282,0.04790123179554939,0.0020549180917441845,0,0,0,0
13299,-0.30758070945739746,0.46295130252838135,0.00370675977319479,0,0,0,0
13309,-0.5894107818603516,0.29724669456481934,0.00408627325668931,0,0,0,0
13319,-0.31625446677207947,0.19153499603271484,0.0036039052065461874,0,0,0,0
13329,0.7852317690849304,-0.9028760194778442,0.008712333627045155,0,0,0,0
13339,0.24159103631973267,-0.8010993003845215,0.005002012010663748,0,0,0,0
13349,0.1376553773880005,0.3602117896080017,0.0033651497215032578,0,0,0,0
13359,0.9362347722053528,-0.733342170715332,0.01026233658194542,0,0,0,0
13369,0.6072971820831299,-0.729807436466217,0.00782738160341978,0,0,0,0
13379,0.6072407364845276,-0.6246739625930786,0.0065905191004276276,0,0,0,0
13389,-0.22193852066993713,-0.8119842410087585,-0.0017152500804513693,0,0,0,0
13399,0.13154534995555878,-0.27442798018455505,0.0021929126232862473,0,0,0,0
13409,0.2585517466068268,-0.20317716896533966,0.0033783623948693275,0,0,0,0
13419,-0.12042535096406937,0.03905261307954788,0.0012843445874750614,0,0,0,0
13429,-0.5487333536148071,0.8293390870094299,0.006666478235274553,0,0,0,0
13439,-1.2603415250778198,0.41230735182762146,0.005749208386987448,0,0,0,0
13449,-1.096982479095459,0.16598312556743622,0.0032708444632589817,0,0,0,0
13459,-1.353305697441101,0.3952829837799072,0.005917140282690525,0,0,0,0
13469,-0.7534346580505371,-0.07108850032091141,0.0032831025309860706,0,0,0,0
13479,-1.5149333477020264,0.8495082259178162,0.010473822243511677,0,0,0,0
13489,-0.6999170184135437,-0.0033083204180002213,0.004553579725325108,0,0,0,0
13499,-0.9570780992507935,0.14884260296821594,0.0046797641552984715,0,0,0,0
13509,-0.8706368803977966,0.250607430934906,0.004414236638695002,0,0,0,0
13519,-0.8630074858665466,0.3447469174861908,0.0034881499595940113,0,0,0,0
13529,-0.8540294766426086,0.02952413819730282,0.004358063451945782,0,0,0,0
13539,-1.002382755279541,0.10439745336771011,0.004488267935812473,0,0,0,0
13549,-0.6943524479866028,0.1080666333436966,0.003176615573465824,0,0,0,0
13559,-0.9700897932052612,0.8669835329055786,0.0015090636443346739,0,0,0,0
13569,-0.8315471410751343,0.8070458769798279,0.0009619644843041897,0,0,0,0
13579,-0.7911922335624695,0.7793712019920349,0.001247792155481875,0,0,0,0
13589,-0.7851302623748779,0.3615904152393341,0.004091953858733177,0,0,0,0
13599,-0.8860037326812744,0.37389132380485535,0.004811475053429604,0,0,0,0
13609,-0.7614714503288269,0.9482461810112,-0.001590743544511497,0,0,0,0
13621,-0.7616242170333862,0.9471083283424377,-0.0008105612942017615,0,0,0,0
13629,-0.7550609707832336,1.017675757408142,-0.0014113810611888766,0,0,0,0
13640,-0.7491258978843689,0.8922469615936279,0.0010314417304471135,0,0,0,0
13649,-0.820107102394104,0.9102885127067566,0.0031447657383978367,0,0,0,0
13660,-0.6067299246788025,0.7710474729537964,0.00035156175727024674,0,0,0,0
13669,-0.6049351096153259,0.7705225944519043,-0.0005570314242504537,0,0,0,0
13679,-0.810492753982544,0.8445590138435364,0.0035582315176725388,0,0,0,0
13689,-0.7288403511047363,0.6529614925384521,0.005014642141759396,0,0,0,0
13699,-0.585446834564209,0.40976518392562866,0.0038140187971293926,0,0,0,0
13709,-0.34570226073265076,0.3450332283973694,0.0008041758555918932,0,0,0,0
13719,-0.3698812425136566,0.3314496576786041,0.0017937264638021588,0,0,0,0
13729,-0.4119028151035309,0.2562217116355896,0.0032363582868129015,0,0,0,0
13739,-0.8286312222480774,-0.294139564037323,0.015902824699878693,0,0,0,0
13749,-1.0006901025772095,-0.5445951223373413,0.020377540960907936,0,0,0,0
13759,-0.8911609649658203,-0.568549394607544,0.02002841793000698,0,0,0,0
13769,-0.96822589635849,-0.36943548917770386,0.017782092094421387,0,0,0,0
13779,-0.9056046009063721,-0.7490561008453369,0.021934224292635918,0,0,0,0
13789,-0.9056873321533203,-0.7499964833259583,0.021436333656311035,0,0,0,0
13802,-0.801288366317749,-0.6500555872917175,0.02073555439710617,0,0,0,0
13809,-0.9216156005859375,-0.6007139086723328,0.02039927989244461,0,0,0,0
13819,-0.8362276554107666,-0.5484663248062134,0.020168587565422058,0,0,0,0
13830,-0.4269702136516571,-0.3380727767944336,0.02248772792518139,0,0,0,0
13839,-0.42597639560699463,-0.33735817670822144,0.02205551043152809,0,0,0,0
13849,-0.4936336576938629,-0.18908970057964325,0.019923359155654907,0,0,0,0
13859,-0.4919390082359314,-0.1894330531358719,0.019882604479789734,0,0,0,0
13869,-0.49809926748275757,-0.15952928364276886,0.02016032673418522,0,0,0,0
13879,-0.35427701473236084,-0.0055680894292891026,0.020611083135008812,0,0,0,0
13889,-0.5177712440490723,-0.04918930307030678,0.018787501379847527,0,0,0,0
13899,-0.46821558475494385,0.03852563351392746,0.018385153263807297,0,0,0,0
13909,-0.5269322991371155,0.04790410026907921,0.017083751037716866,0,0,0,0
13919,-0.562439501285553,0.22072450816631317,0.016290731728076935,0,0,0,0
13929,-0.39854249358177185,-0.06065194308757782,0.02042340114712715,0,0,0,0
13939,-0.39679431915283203,-0.061803463846445084,0.020085301250219345,0,0,0,0
13949,-0.47258979082107544,0.08377083390951157,0.018792374059557915,0,0,0,0
13959,-0.43424710631370544,-0.20919354259967804,0.020764771848917007,0,0,0,0
13969,-0.4354234039783478,-0.20928989350795746,0.022640550509095192,0,0,0,0
13979,-0.38333746790885925,-0.17562761902809143,0.023040862753987312,0,0,0,0
13989,-0.4433635473251343,-0.0979141891002655,0.022681692615151405,0,0,0,0
13999,-0.4526103436946869,0.03070903569459915,0.022755581885576248,0,0,0,0
14009,-0.4160245656967163,-0.12520690262317657,0.024075130000710487,0,0,0,0
14019,-0.4672640562057495,0.0578840970993042,0.02342347800731659,0,0,0,0
14029,-0.4318303167819977,0.059798914939165115,0.02377912402153015,0,0,0,0
14039,-0.46909233927726746,0.11502562463283539,0.024711184203624725,0,0,0,0
14049,-0.48946478962898254,0.18139272928237915,0.024551745504140854,0,0,0,0
14059,-0.45468834042549133,0.21351726353168488,0.025948910042643547,0,0,0,0
14069,-0.5688283443450928,0.3222508728504181,0.02558739483356476,0,0,0,0
14079,-0.5297324061393738,0.2660064697265625,0.02637653984129429,0,0,0,0
14089,-0.5327867865562439,0.09880096465349197,0.025676913559436798,0,0,0,0
14099,-0.49746933579444885,0.1870710700750351,0.026039760559797287,0,0,0,0
14109,-0.49758416414260864,0.18658232688903809,0.02598525397479534,0,0,0,0
14119,-0.4226571023464203,0.16873952746391296,0.027123793959617615,0,0,0,0
14129,-0.4458087682723999,0.28506919741630554,0.027875497937202454,0,0,0,0
14139,-0.47826290130615234,0.2345769703388214,0.027430424466729164,0,0,0,0
14149,-0.46812939643859863,0.29287081956863403,0.026356475427746773,0,0,0,0
14159,-0.46288296580314636,0.3596692979335785,0.02613927610218525,0,0,0,0
14169,-0.47016817331314087,0.31873849034309387,0.025485217571258545,0,0,0,0
14179,-0.5527359843254089,0.4544414281845093,0.02716970629990101,0,0,0,0
14189,-0.4766176640987396,0.46899133920669556,0.02564029023051262,0,0,0,0
14199,-0.4833620488643646,0.4214288294315338,0.026114122942090034,0,0,0,0
14209,-0.5403326153755188,0.5029574036598206,0.027233988046646118,0,0,0,0
14219,-0.47800329327583313,0.4031082093715668,0.026045219972729683,0,0,0,0
14229,-0.5336320996284485,0.48534056544303894,0.02818118967115879,0,0,0,0
14239,-0.5465194582939148,0.5001609921455383,0.028035176917910576,0,0,0,0
14249,-0.4975801706314087,0.5009896159172058,0.027506554499268532,0,0,0,0
14259,-0.4983522295951843,0.4988024830818176,0.027346886694431305,0,0,0,0
14269,-0.49778032302856445,0.4986884593963623,0.02775976061820984,0,0,0,0
14279,-0.4245491325855255,0.4738949239253998,0.02554459124803543,0,0,0,0
14289,-0.42431551218032837,0.4741726815700531,0.0253798458725214,0,0,0,0
14299,-0.4884447157382965,0.4911339581012726,0.026138294488191605,0,0,0,0
14309,-0.4888558089733124,0.4905258119106293,0.026918886229395866,0,0,0,0
14319,-0.4934753179550171,0.43947020173072815,0.026635030284523964,0,0,0,0
14329,-0.48387062549591064,0.4062105417251587,0.02643474191427231,0,0,0,0
14339,-0.5557948350906372,0.5230603814125061,0.02912295050919056,0,0,0,0
14349,-0.49333348870277405,0.44510555267333984,0.027211584150791168,0,0,0,0
14359,-0.4951525032520294,0.445412278175354,0.028032435104250908,0,0,0,0
14369,-0.4863944351673126,0.3961184024810791,0.029534390196204185,0,0,0,0
14379,-0.45026862621307373,0.4187614917755127,0.02968735806643963,0,0,0,0
14389,-0.45208609104156494,0.4176095426082611,0.029590412974357605,0,0,0,0
14399,-0.4751895070075989,0.4257221519947052,0.03134467080235481,0,0,0,0
14409,-0.5207895040512085,0.5154820084571838,0.032215964049100876,0,0,0,0
14419,-0.5088236927986145,0.47773799300193787,0.03305096551775932,0,0,0,0
14429,-0.5016067028045654,0.48085665702819824,0.0326571986079216,0,0,0,0
14439,-0.5059799551963806,0.5613813996315002,0.03249835968017578,0,0,0,0
14449,-0.5616204142570496,0.6376245617866516,0.035324566066265106,0,0,0,0
14459,-0.5001705288887024,0.5176781415939331,0.034514494240283966,0,0,0,0
14469,-0.4791322946548462,0.5330008268356323,0.033839691430330276,0,0,0,0
14479,-0.47670236229896545,0.5325354337692261,0.03440113365650177,0,0,0,0
14489,-0.5976310968399048,0.5457602143287659,0.040075693279504776,0,0,0,0
14499,-0.5956992506980896,0.5449535250663757,0.040291424840688705,0,0,0,0
14509,-0.5924249887466431,0.5176767110824585,0.039754148572683334,0,0,0,0
14519,-0.6507265567779541,0.6335439085960388,0.04283054545521736,0,0,0,0
14529,-0.32812315225601196,0.6907212138175964,0.03325020521879196,0,0,0,0
14539,-0.32788437604904175,0.6890150904655457,0.032277897000312805,0,0,0,0
14549,-0.38449376821517944,0.7285084128379822,0.03473915904760361,0,0,0,0
14559,-0.29756179451942444,0.7253161072731018,0.0313936248421669,0,0,0,0
14569,-0.35296159982681274,0.6484626531600952,0.032723527401685715,0,0,0,0
14579,-0.3069682717323303,0.8197399377822876,0.03338466212153435,0,0,0,0
14589,-0.3745824992656708,0.6417988538742065,0.03501077741384506,0,0,0,0
14599,-0.38711124658584595,0.6928556561470032,0.037009529769420624,0,0,0,0
14609,-0.4220036566257477,0.6351622939109802,0.03813289850950241,0,0,0,0
14619,-0.4311031401157379,0.695177435874939,0.03975735232234001,0,0,0,0
14629,-0.3952358663082123,0.7407382130622864,0.038956478238105774,0,0,0,0
14639,-0.40838339924812317,0.6713739037513733,0.03850889950990677,0,0,0,0
14649,-0.4886639416217804,0.7293737530708313,0.042730458080768585,0,0,0,0
14659,-0.5369925498962402,0.7812412977218628,0.0456460602581501,0,0,0,0
14669,-0.4260137975215912,0.6739072203636169,0.04014100506901741,0,0,0,0
14679,-0.47897210717201233,0.6732236742973328,0.04222218319773674,0,0,0,0
14689,-0.44170892238616943,0.6390893459320068,0.04078910872340202,0,0,0,0
14699,-0.5375460386276245,0.7282438278198242,0.04529327154159546,0,0,0,0
14709,-0.8380734920501709,0.5717967748641968,0.056901656091213226,0,0,0,0
14719,-0.8389014005661011,0.5692862868309021,0.05657050386071205,0,0,0,0
14729,-0.7957262992858887,0.575840950012207,0.05519958212971687,0,0,0,0
14739,-0.803224503993988,0.5285357236862183,0.0546661913394928,0,0,0,0
14749,-0.9714056849479675,0.7010917067527771,0.06194644421339035,0,0,0,0
14759,-0.8126627206802368,0.5824787616729736,0.05535874515771866,0,0,0,0
14769,-0.8605809807777405,0.6561915874481201,0.05799003690481186,0,0,0,0
14779,-0.8498325347900391,0.6573958992958069,0.05816439539194107,0,0,0,0
14789,-0.8278212547302246,0.532204806804657,0.05919551104307175,0,0,0,0
14799,-0.671013355255127,0.47449570894241333,0.05259028822183609,0,0,0,0
14809,-0.6706312894821167,0.4742160737514496,0.053021449595689774,0,0,0,0
14819,-0.6694923639297485,0.472217321395874,0.05175388976931572,0,0,0,0
14829,-0.7080697417259216,0.5370876789093018,0.0537564717233181,0,0,0,0
14839,-0.8306673169136047,0.6078782677650452,0.058342672884464264,0,0,0,0
14849,-0.8315016031265259,0.6081656217575073,0.057927872985601425,0,0,0,0
14859,-0.7547817230224609,0.5743088126182556,0.05658934265375137,0,0,0,0
14869,-0.8503968119621277,0.6203316450119019,0.06019427999854088,0,0,0,0
14879,-0.8243808746337891,0.6863533854484558,0.05858294293284416,0,0,0,0
14889,-0.8256270289421082,0.6845772862434387,0.05992146581411362,0,0,0,0
14899,-0.7458260655403137,0.6835839748382568,0.05762676149606705,0,0,0,0
14909,-0.7889649271965027,0.6827107667922974,0.05917459353804588,0,0,0,0
14919,-0.7530561089515686,0.6314398646354675,0.059590160846710205,0,0,0,0
14929,-1.0429649353027344,0.7064299583435059,0.06787875294685364,0,0,0,0
14939,-1.0419522523880005,0.7077029943466187,0.06848463416099548,0,0,0,0
14950,-1.0125113725662231,0.768409013748169,0.06738215684890747,0,0,0,0
14959,-1.0117219686508179,0.7675504684448242,0.0678936019539833,0,0,0,0
14970,-1.0213805437088013,0.7593023180961609,0.0690440684556961,0,0,0,0
14979,-1.0199021100997925,0.7576110363006592,0.06868278235197067,0,0,0,0
14989,-1.0191618204116821,0.7593448758125305,0.0684666708111763,0,0,0,0
14999,-0.9824821949005127,0.8090946674346924,0.06686551868915558,0,0,0,0
15009,-0.9938796758651733,0.7694987654685974,0.07022692263126373,0,0,0,0
15019,-1.2989863157272339,0.8682461380958557,0.07899608463048935,0,0,0,0
15029,-1.17573881149292,0.9183862209320068,0.07438123226165771,0,0,0,0
15039,-1.176300048828125,0.9166569113731384,0.07547459006309509,0,0,0,0
15049,-1.112626314163208,0.9197177886962891,0.07415589690208435,0,0,0,0
15059,-1.0568251609802246,0.8178706169128418,0.07483489066362381,0,0,0,0
15069,-1.0551966428756714,0.8162492513656616,0.07449109852313995,0,0,0,0
15079,-1.0428643226623535,0.8295720219612122,0.0733208879828453,0,0,0,0
15089,-0.9913486242294312,0.7739426493644714,0.07277244329452515,0,0,0,0
15099,-0.9342142343521118,0.8284254670143127,0.06985137611627579,0,0,0,0
15109,-0.7782546877861023,0.7738925814628601,0.06586338579654694,0,0,0,0
15119,-0.8687984347343445,0.7602406144142151,0.06971075385808945,0,0,0,0
15129,-0.8193361163139343,0.772907018661499,0.06867071241140366,0,0,0,0
15139,-0.7994185090065002,0.6672161817550659,0.07125020027160645,0,0,0,0
15149,-0.732445240020752,0.7682297825813293,0.06576056778430939,0,0,0,0
15159,-0.7081855535507202,0.6773969531059265,0.06737532466650009,0,0,0,0
15169,-0.7189084887504578,0.6831921935081482,0.06937474757432938,0,0,0,0
15179,-0.6720619201660156,0.7448590397834778,0.06673412024974823,0,0,0,0
15189,-0.6728785037994385,0.6758503317832947,0.06829420477151871,0,0,0,0
15199,-0.9428913593292236,0.7019942402839661,0.07829590886831284,0,0,0,0
15209,-0.9573956727981567,0.7597893476486206,0.0771448090672493,0,0,0,0
15219,-0.8727188110351562,0.6948286890983582,0.07501697540283203,0,0,0,0
15229,-0.8468617796897888,0.7410258650779724,0.07389920949935913,0,0,0,0
15239,-0.5777333974838257,0.7083880305290222,0.06497469544410706,0,0,0,0
15249,-0.5758674144744873,0.7084953188896179,0.06550847738981247,0,0,0,0
15259,-0.573753297328949,0.7079419493675232,0.06575540453195572,0,0,0,0
15269,-0.6047453284263611,0.6970651745796204,0.06649858504533768,0,0,0,0
15279,-0.5830113887786865,0.9254549145698547,0.06222463399171829,0,0,0,0
15289,-0.5808271765708923,0.923716127872467,0.06290411949157715,0,0,0,0
15299,-0.48581165075302124,0.8593544960021973,0.06121181324124336,0,0,0,0
15309,-0.4731234312057495,0.8477917909622192,0.061122678220272064,0,0,0,0
15319,-0.47164279222488403,0.8455542922019958,0.06133595481514931,0,0,0,0
15329,-0.47198861837387085,0.7942938208580017,0.06085154041647911,0,0,0,0
15339,-0.4867509603500366,0.7770227789878845,0.06254833936691284,0,0,0,0
15349,-0.43618038296699524,0.7836543917655945,0.060171376913785934,0,0,0,0
15359,-0.5040966272354126,0.7647091746330261,0.06215016916394234,0,0,0,0
15369,-0.5283676385879517,0.8320667743682861,0.06451306492090225,0,0,0,0
15379,-0.5275028944015503,0.8326635956764221,0.06655894964933395,0,0,0,0
15389,-0.5231826901435852,0.8113479018211365,0.06588943302631378,0,0,0,0
15399,-0.5080034136772156,0.7539718151092529,0.06461864709854126,0,0,0,0
15409,-0.7410860061645508,0.8342401385307312,0.0723944678902626,0,0,0,0
15419,-0.6023048758506775,0.7621017694473267,0.06851144134998322,0,0,0,0
15429,-0.521892249584198,0.373328298330307,0.06326200813055038,0,0,0,0
15439,-0.5103559494018555,0.4628157913684845,0.06361155956983566,0,0,0,0
15449,-0.5307283401489258,0.4392423629760742,0.06393181532621384,0,0,0,0
15459,-0.8314229249954224,0.33503666520118713,0.06963086873292923,0,0,0,0
15469,-0.8338576555252075,0.38979092240333557,0.06841397285461426,0,0,0,0
15479,-0.8109006881713867,0.3709963858127594,0.06882195919752121,0,0,0,0
15489,-0.7674402594566345,0.36510413885116577,0.06857030093669891,0,0,0,0
15499,-0.7363325357437134,0.38516661524772644,0.06837373971939087,0,0,0,0
15509,-0.7359599471092224,0.3834046721458435,0.06789453327655792,0,0,0,0
15519,-0.6464484333992004,0.3800463378429413,0.06736359000205994,0,0,0,0
15529,-0.6717289090156555,0.3649432957172394,0.06804324686527252,0,0,0,0
15539,-0.5864331126213074,0.350451797246933,0.06765342503786087,0,0,0,0
15549,-0.6483259201049805,0.47636276483535767,0.0688207745552063,0,0,0,0
15559,-0.5904372334480286,0.37512296438217163,0.06779513508081436,0,0,0,0
15569,-0.6266785860061646,0.48789480328559875,0.06837993115186691,0,0,0,0
15579,-0.571698009967804,0.3883441984653473,0.06658725440502167,0,0,0,0
15589,-0.4949491024017334,0.5650280714035034,0.06858967989683151,0,0,0,0
15599,-0.48025137186050415,0.4402395784854889,0.06801407784223557,0,0,0,0
15609,-0.49009090662002563,0.4016418755054474,0.06745892763137817,0,0,0,0
15619,-0.45375680923461914,0.44151046872138977,0.06931141763925552,0,0,0,0
15629,-0.4094878137111664,0.6878299713134766,0.07258738577365875,0,0,0,0
15639,-0.4081171751022339,0.6886938214302063,0.07210052013397217,0,0,0,0
15649,-0.40145862102508545,0.7340060472488403,0.07191365957260132,0,0,0,0
15659,-0.4406183362007141,0.7208371162414551,0.07272342592477798,0,0,0,0
15669,-0.6783982515335083,0.8169727921485901,0.07493916898965836,0,0,0,0
15679,-0.5447804927825928,0.7642610669136047,0.0734015703201294,0,0,0,0
15689,-0.29587626457214355,0.7463348507881165,0.07262630760669708,0,0,0,0
15699,-0.3399246335029602,0.7641335129737854,0.073979452252388,0,0,0,0
15709,-0.3395390510559082,0.7620028257369995,0.07504726946353912,0,0,0,0
15719,-0.33872997760772705,0.6981906890869141,0.07426926493644714,0,0,0,0
15729,-0.33729618787765503,0.7065466642379761,0.07520732283592224,0,0,0,0
15739,-0.33797672390937805,0.6790207624435425,0.07486048340797424,0,0,0,0
15749,-0.30433768033981323,0.6134886145591736,0.07353893667459488,0,0,0,0
15759,-0.32843002676963806,0.7054923176765442,0.07578224688768387,0,0,0,0
15769,-0.3278430104255676,0.6568450927734375,0.07441014796495438,0,0,0,0
15779,-0.30650845170021057,0.5799404382705688,0.07238250225782394,0,0,0,0
15789,-0.318694531917572,0.67362380027771,0.07609698921442032,0,0,0,0
15799,-0.33082953095436096,0.5651717185974121,0.07346446812152863,0,0,0,0
15809,-0.34081947803497314,0.6352923512458801,0.07599682360887527,0,0,0,0
15819,-0.24340005218982697,0.5837774872779846,0.07410746067762375,0,0,0,0
15829,-0.32573118805885315,0.6307092308998108,0.07794128358364105,0,0,0,0
15839,-0.3175428509712219,0.5883260369300842,0.07708609104156494,0,0,0,0
15849,-0.5234293937683105,0.6128576397895813,0.07919006049633026,0,0,0,0
15859,-0.4156457185745239,0.39015451073646545,0.07153060287237167,0,0,0,0
15869,-0.3881855905056,0.39470845460891724,0.07172102481126785,0,0,0,0
15879,-0.39768826961517334,0.390715628862381,0.07228358834981918,0,0,0,0
15889,-0.35185766220092773,0.44048750400543213,0.07450885325670242,0,0,0,0
15899,-0.35076823830604553,0.44126152992248535,0.07467513531446457,0,0,0,0
15909,-0.3496380150318146,0.44175171852111816,0.07568009942770004,0,0,0,0
15919,-0.3759583532810211,0.5216720104217529,0.07887091487646103,0,0,0,0
15929,-0.4099876582622528,0.5698773264884949,0.08038516342639923,0,0,0,0
15939,-0.5136930346488953,0.6501585841178894,0.08334917575120926,0,0,0,0
15949,-0.4682023525238037,0.5796934962272644,0.0820167139172554,0,0,0,0
15959,-0.4493725299835205,0.3955369293689728,0.07734791934490204,0,0,0,0
15969,-0.44414135813713074,0.3545234501361847,0.07707574218511581,0,0,0,0
15979,-0.4634758532047272,0.5152290463447571,0.0819539949297905,0,0,0,0
15989,-0.4340881407260895,0.4557042717933655,0.0800686776638031,0,0,0,0
15999,-0.4299924373626709,0.4089435935020447,0.07774652540683746,0,0,0,0
16009,-0.43005725741386414,0.40951213240623474,0.0769750326871872,0,0,0,0
16019,-0.3777253329753876,0.416730672121048,0.07861396670341492,0,0,0,0
16029,-0.3781352937221527,0.416881799697876,0.07946904003620148,0,0,0,0
16039,-0.3748989403247833,0.4729599356651306,0.08151593804359436,0,0,0,0
16049,-0.41085243225097656,0.44996196031570435,0.08091574907302856,0,0,0,0
16060,-0.395317405462265,0.36677587032318115,0.08002308011054993,0,0,0,0
16070,-0.39524996280670166,0.4113174378871918,0.0801304429769516,0,0,0,0
16080,-0.3931102752685547,0.48030826449394226,0.08245500922203064,0,0,0,0
16090,-0.3810079097747803,0.4696182608604431,0.08387558162212372,0,0,0,0
16099,-0.38142603635787964,0.4461822807788849,0.08372198790311813,0,0,0,0
16109,-0.47574010491371155,0.688558042049408,0.08928108960390091,0,0,0,0
16119,-0.47623544931411743,0.6879294514656067,0.08801445364952087,0,0,0,0
16129,-0.4759773910045624,0.6877560615539551,0.08831889182329178,0,0,0,0
16139,-0.5234233140945435,0.7511737942695618,0.09068212658166885,0,0,0,0
16149,-0.5004273653030396,0.7203190922737122,0.089200459420681,0,0,0,0
16159,-0.49965205788612366,0.7199448347091675,0.08887643367052078,0,0,0,0
16169,-0.4538253843784332,0.6534838080406189,0.08718139678239822,0,0,0,0
16179,-0.45554110407829285,0.6539943218231201,0.08775028586387634,0,0,0,0
16189,-0.42300352454185486,0.6434247493743896,0.08741981536149979,0,0,0,0
16199,-0.4238341450691223,0.6213400363922119,0.08676008135080338,0,0,0,0
16209,-0.4226244390010834,0.6211118698120117,0.0880545973777771,0,0,0,0
16219,-0.42056572437286377,0.6631449460983276,0.08963995426893234,0,0,0,0
16229,-0.4204048812389374,0.6614902019500732,0.0888003334403038,0,0,0,0
16239,-0.4188912510871887,0.5273771286010742,0.08738734573125839,0,0,0,0
16249,-0.14138442277908325,0.5261286497116089,0.0872882530093193,0,0,0,0
16259,-0.10039515793323517,0.46219903230667114,0.08697135001420975,0,0,0,0
16269,-0.16271410882472992,0.39014989137649536,0.08660969883203506,0,0,0,0
16279,-0.18321502208709717,0.37549787759780884,0.08737022429704666,0,0,0,0
16289,-0.15422514081001282,0.29167911410331726,0.08537442237138748,0,0,0,0
16299,-0.1970997005701065,0.4133778512477875,0.0885017067193985,0,0,0,0
16309,-0.20047570765018463,0.42122066020965576,0.08755724132061005,0,0,0,0
16319,-0.20118562877178192,0.42253196239471436,0.08839448541402817,0,0,0,0
16329,-0.15917253494262695,0.3709588348865509,0.08697716146707535,0,0,0,0
16339,-0.15845806896686554,0.37070608139038086,0.08819089829921722,0,0,0,0
16349,-0.1598595380783081,0.37136387825012207,0.08964404463768005,0,0,0,0
16359,-0.23680606484413147,0.43622326850891113,0.09133416414260864,0,0,0,0
16369,-0.19021184742450714,0.32957586646080017,0.08981932699680328,0,0,0,0
16379,-0.1621541678905487,0.3211544156074524,0.08937420696020126,0,0,0,0
16389,-0.16294316947460175,0.32050636410713196,0.08957163244485855,0,0,0,0
16399,-0.18775448203086853,0.37941622734069824,0.09067302197217941,0,0,0,0
16409,-0.25095629692077637,0.3549049198627472,0.08942312747240067,0,0,0,0
16419,-0.25153619050979614,0.35311973094940186,0.09095712006092072,0,0,0,0
16429,-0.25153619050979614,0.35311973094940186,0.09095712006092072,0,0,0,0
16439,-0.2523268163204193,0.3529721796512604,0.09159589558839798,0,0,0,0
16449,-0.34968605637550354,0.3721245229244232,0.09081694483757019,0,0,0,0
16459,-0.30829063057899475,0.3897314965724945,0.09184962511062622,0,0,0,0
16469,-0.3945164382457733,0.6800260543823242,0.10001698136329651,0,0,0,0
16479,-0.43270400166511536,0.7268339395523071,0.10072913020849228,0,0,0,0
16489,-0.43149620294570923,0.7255529165267944,0.10109760612249374,0,0,0,0
16499,-0.4785454273223877,0.6627015471458435,0.09979076683521271,0,0,0,0
16509,-0.5557668209075928,0.5929891467094421,0.09750358015298843,0,0,0,0
16519,-0.554252028465271,0.5923104286193848,0.0979258343577385,0,0,0,0
16529,-0.5529409646987915,0.5768808722496033,0.09896422922611237,0,0,0,0
16539,-0.6012493968009949,0.5892577171325684,0.09852326661348343,0,0,0,0
16549,-0.6000903248786926,0.5870135426521301,0.09828954935073853,0,0,0,0
16559,-0.5979964733123779,0.5845088362693787,0.09893271327018738,0,0,0,0
16569,-0.591571569442749,0.5133671760559082,0.09944688528776169,0,0,0,0
16579,-0.5867080688476562,0.5563073754310608,0.10092489421367645,0,0,0,0
16589,-0.5281735062599182,0.5690776705741882,0.10077086091041565,0,0,0,0
16599,-0.5524300336837769,0.530110239982605,0.10100747644901276,0,0,0,0
16609,-0.574134349822998,0.5827642679214478,0.10201722383499146,0,0,0,0
16619,-0.545381486415863,0.5300228595733643,0.10203692317008972,0,0,0,0
16629,-0.5446912050247192,0.5198974013328552,0.10218776017427444,0,0,0,0
16639,-0.5419302582740784,0.5350213646888733,0.10341857373714447,0,0,0,0
16649,-0.5135758519172668,0.5596756935119629,0.10358819365501404,0,0,0,0
16659,-0.5599323511123657,0.5808439254760742,0.10432489961385727,0,0,0,0
16669,-0.5449652075767517,0.5678269267082214,0.10519350320100784,0,0,0,0
16679,-0.5085533261299133,0.5793066620826721,0.10653453320264816,0,0,0,0
16689,-0.5989745259284973,0.5321095585823059,0.10621097683906555,0,0,0,0
16699,-0.5120798945426941,0.5420116782188416,0.10691049695014954,0,0,0,0
16709,-0.5113908648490906,0.5414304733276367,0.10719310492277145,0,0,0,0
16719,-0.5350571274757385,0.5555704832077026,0.10841069370508194,0,0,0,0
16729,-0.592320442199707,0.6131755709648132,0.10860699415206909,0,0,0,0
16739,-0.5171680450439453,0.6901283860206604,0.10795274376869202,0,0,0,0
16749,-0.6416240930557251,0.555370032787323,0.1092669889330864,0,0,0,0
16759,-0.4666941463947296,0.7087699770927429,0.10778605192899704,0,0,0,0
16769,-0.30288854241371155,0.6993768811225891,0.10730894654989243,0,0,0,0
16779,-0.3181819021701813,0.6357290744781494,0.10801083594560623,0,0,0,0
16789,-0.4849637746810913,0.6732679605484009,0.10972760617733002,0,0,0,0
16799,-0.48656925559043884,0.6320124268531799,0.1107359528541565,0,0,0,0
16809,-0.5417031645774841,0.6483221054077148,0.11041287332773209,0,0,0,0
16819,-0.3799988925457001,0.7071159482002258,0.10677605122327805,0,0,0,0
16829,-0.49538928270339966,0.6434662938117981,0.10815628618001938,0,0,0,0
16839,-0.48486465215682983,0.5939232110977173,0.10717205703258514,0,0,0,0
16849,-0.5076220631599426,0.6010253429412842,0.10834022611379623,0,0,0,0
16859,-0.5381214022636414,0.6610132455825806,0.10778306424617767,0,0,0,0
16869,-0.5025392770767212,0.5253308415412903,0.10927896201610565,0,0,0,0
16879,-0.49305322766304016,0.515628457069397,0.1092878133058548,0,0,0,0
16889,-0.49374404549598694,0.5264082551002502,0.10928969830274582,0,0,0,0
16899,-0.4522342085838318,0.4432111084461212,0.10914330184459686,0,0,0,0
16909,-0.4544753134250641,0.5024092793464661,0.10988932102918625,0,0,0,0
16919,-0.48926055431365967,0.5235593914985657,0.11078415811061859,0,0,0,0
16929,-0.4916895925998688,0.4913021922111511,0.11229775846004486,0,0,0,0
16939,-0.4905495047569275,0.49112755060195923,0.11338996887207031,0,0,0,0
16949,-0.7415894269943237,0.6191445589065552,0.11512865871191025,0,0,0,0
16959,-0.741055428981781,0.6188732385635376,0.11596368253231049,0,0,0,0
16969,-0.6843734979629517,0.5998700857162476,0.11576632410287857,0,0,0,0
16979,-0.6829338669776917,0.5610347390174866,0.1160534992814064,0,0,0,0
16989,-0.7506811618804932,0.795285165309906,0.11397746950387955,0,0,0,0
16999,-0.7101337909698486,0.7779218554496765,0.11366462707519531,0,0,0,0
17009,-0.6828882694244385,0.7029531002044678,0.11501302570104599,0,0,0,0
17019,-0.6817447543144226,0.6916816234588623,0.11597605794668198,0,0,0,0
17029,-0.6440069079399109,0.5758070945739746,0.11765137314796448,0,0,0,0
17039,-0.6431353092193604,0.5761928558349609,0.11814145743846893,0,0,0,0
17049,-0.6187443733215332,0.5472459197044373,0.11819284409284592,0,0,0,0
17060,-0.5579743385314941,0.6049454808235168,0.11614242196083069,0,0,0,0
17070,-0.6593326330184937,0.49179941415786743,0.11961789429187775,0,0,0,0
17080,-0.5874592065811157,0.506237268447876,0.11890535801649094,0,0,0,0
17090,-0.5771608948707581,0.5675467252731323,0.11950347572565079,0,0,0,0
17100,-0.5204397439956665,0.4926643371582031,0.11952757090330124,0,0,0,0
17110,-0.6215713620185852,0.49414947628974915,0.12083294987678528,0,0,0,0
17120,-0.5630647540092468,0.5772499442100525,0.11972129344940186,0,0,0,0
17130,-0.6466860175132751,0.7825114727020264,0.11716828495264053,0,0,0,0
17140,-0.5989689230918884,0.766168475151062,0.11767245084047318,0,0,0,0
17150,-0.6247278451919556,0.7167235016822815,0.11954370886087418,0,0,0,0
17160,-0.6697514653205872,0.7382031083106995,0.12159637361764908,0,0,0,0
17170,-0.6670288443565369,0.8950404524803162,0.12063618004322052,0,0,0,0
17180,-0.667807936668396,0.8949174284934998,0.12044009566307068,0,0,0,0
17190,-0.7101905941963196,0.9293311834335327,0.12089751660823822,0,0,0,0
17200,-0.6437851786613464,0.8529598712921143,0.12087132781744003,0,0,0,0
17209,-0.6762469410896301,0.8875206708908081,0.12210845947265625,0,0,0,0
17219,-0.9787828922271729,0.9565459489822388,0.1300402730703354,0,0,0,0
17229,-0.9796247482299805,0.9560813903808594,0.12923245131969452,0,0,0,0
17239,-1.0030100345611572,0.9736368060112,0.13076633214950562,0,0,0,0
17249,-0.9258955121040344,0.8535962104797363,0.13078013062477112,0,0,0,0
17259,-0.9874923825263977,0.9960195422172546,0.12971605360507965,0,0,0,0
17269,-0.828693151473999,0.8398808240890503,0.1270957589149475,0,0,0,0
17279,-0.8290173411369324,0.8406985998153687,0.12865997850894928,0,0,0,0
17289,-0.8609301447868347,0.8780189752578735,0.12759843468666077,0,0,0,0
17299,-0.7914775013923645,0.7426357269287109,0.12921032309532166,0,0,0,0
17309,-0.6440322399139404,0.40028733015060425,0.1326787918806076,0,0,0,0
17319,-0.6389252543449402,0.44337379932403564,0.13139645755290985,0,0,0,0
17329,-0.5862082839012146,0.3534499704837799,0.13119466602802277,0,0,0,0
17339,-0.5840471386909485,0.3517669141292572,0.13148978352546692,0,0,0,0
17349,-0.9070000052452087,0.5881438255310059,0.1330634504556656,0,0,0,0
17359,-0.9086978435516357,0.5884013772010803,0.13348615169525146,0,0,0,0
17369,-0.8307282328605652,0.5950002670288086,0.1317758560180664,0,0,0,0
17379,-0.8463850021362305,0.5629685521125793,0.13205774128437042,0,0,0,0
17389,-0.8583282828330994,0.6321158409118652,0.13114193081855774,0,0,0,0
17399,-0.8245351910591125,0.7414146065711975,0.12850090861320496,0,0,0,0
17409,-0.7473203539848328,0.5588802695274353,0.13230012357234955,0,0,0,0
17419,-0.711361825466156,0.5574091672897339,0.13128384947776794,0,0,0,0
17429,-0.709737241268158,0.5556387305259705,0.13202404975891113,0,0,0,0
17439,-0.6745872497558594,0.5827118754386902,0.1315765529870987,0,0,0,0
17449,-0.6413832306861877,0.5897427797317505,0.1315479427576065,0,0,0,0
17459,-0.6218459606170654,0.5259703993797302,0.13303576409816742,0,0,0,0
17469,-0.570572555065155,0.5138458013534546,0.13352207839488983,0,0,0,0
17479,-0.24832360446453094,0.4362994134426117,0.1313547044992447,0,0,0,0
17489,-0.06705823540687561,0.6633098721504211,0.12586860358715057,0,0,0,0
17499,-0.08861575275659561,0.6083726286888123,0.12746290862560272,0,0,0,0
17509,-0.1415122151374817,0.633881688117981,0.1267644613981247,0,0,0,0
17519,-0.06991467624902725,0.8645359873771667,0.12592008709907532,0,0,0,0
17529,-0.07113499194383621,0.8652596473693848,0.12484560906887054,0,0,0,0
17539,-0.03895774483680725,0.8149470686912537,0.12380891293287277,0,0,0,0
17549,-0.04134657233953476,0.8146396279335022,0.12358085066080093,0,0,0,0
17559,-0.04092275723814964,0.8154428005218506,0.12506678700447083,0,0,0,0
17569,0.2764563262462616,0.6459523439407349,0.1173587292432785,0,0,0,0
17579,0.20837219059467316,0.6820507645606995,0.1185426190495491,0,0,0,0
17589,0.18251805007457733,0.5633028149604797,0.11633791029453278,0,0,0,0
17599,0.1826888769865036,0.5621271729469299,0.11612773686647415,0,0,0,0
17609,0.1488833874464035,0.5551878809928894,0.11685633659362793,0,0,0,0
17619,0.033018406480550766,0.5768102407455444,0.11921482533216476,0,0,0,0
17629,0.034399740397930145,0.5769781470298767,0.1195058524608612,0,0,0,0
17639,0.034814003854990005,0.5780443549156189,0.11833630502223969,0,0,0,0
17649,-0.05477261543273926,0.5681989789009094,0.12052072584629059,0,0,0,0
17659,0.02302110381424427,0.5097191333770752,0.11743539571762085,0,0,0,0
17669,-0.12592922151088715,0.6149120330810547,0.12237635999917984,0,0,0,0
17679,-0.0937378779053688,0.5415610671043396,0.11851372569799423,0,0,0,0
17689,-0.18451444804668427,0.570419430732727,0.12048032879829407,0,0,0,0
17699,-0.11535057425498962,0.47899484634399414,0.11568533629179001,0,0,0,0
17709,-0.11528071016073227,0.47736209630966187,0.11477570980787277,0,0,0,0
17719,-0.19749227166175842,0.5120629668235779,0.11657176911830902,0,0,0,0
17729,-0.16298899054527283,0.4230826199054718,0.11128464341163635,0,0,0,0
17739,-0.2032303661108017,0.40011531114578247,0.11022762954235077,0,0,0,0
17749,-0.3162817358970642,0.5114898681640625,0.11689922958612442,0,0,0,0
17759,-0.30114445090293884,0.4827433228492737,0.11567694693803787,0,0,0,0
17769,-0.29932907223701477,0.5043690800666809,0.11680761724710464,0,0,0,0
17779,-0.5510275959968567,0.5725153088569641,0.1193925142288208,0,0,0,0
17789,-0.5524588227272034,0.5720653533935547,0.12101699411869049,0,0,0,0
17799,-0.5105291604995728,0.5301882028579712,0.12008239328861237,0,0,0,0
17809,-0.3349591791629791,0.33074697852134705,0.11358322203159332,0,0,0,0
17819,-0.36424458026885986,0.3852149546146393,0.11590424925088882,0,0,0,0
17829,-0.40285998582839966,0.3667148947715759,0.11568775027990341,0,0,0,0
17839,-0.4053729474544525,0.4170372486114502,0.11886079609394073,0,0,0,0
17849,-0.4301437735557556,0.40948039293289185,0.119076669216156,0,0,0,0
17859,-0.42261457443237305,0.367068886756897,0.118384450674057,0,0,0,0
17869,-0.43745869398117065,0.3965100646018982,0.11980769783258438,0,0,0,0
17879,-0.452281653881073,0.4107542634010315,0.12015610933303833,0,0,0,0
17889,-0.45172685384750366,0.4102323055267334,0.11981228739023209,0,0,0,0
17899,-0.4739525020122528,0.4147895872592926,0.1217740997672081,0,0,0,0
17909,-0.47409379482269287,0.41575586795806885,0.12209209054708481,0,0,0,0
17919,-0.6674667000770569,0.5865112543106079,0.12315735965967178,0,0,0,0
17929,-0.6632022857666016,0.5444484949111938,0.12226300686597824,0,0,0,0
17939,-0.6467795968055725,0.3432750999927521,0.11883149296045303,0,0,0,0
17949,-0.6781237721443176,0.39943641424179077,0.12030991911888123,0,0,0,0
17959,-0.6425729393959045,0.3463455140590668,0.12102995812892914,0,0,0,0
17969,-0.6407461166381836,0.34676894545555115,0.12136160582304001,0,0,0,0
17979,-0.6851658821105957,0.4038254916667938,0.12090150266885757,0,0,0,0
17989,-0.6329663395881653,0.3057662844657898,0.12073564529418945,0,0,0,0
17999,-0.6192362904548645,0.31983423233032227,0.12285914272069931,0,0,0,0
18009,-0.6758087873458862,0.42221799492836,0.12271858751773834,0,0,0,0
18019,-0.6005479693412781,0.3376713693141937,0.1238170638680458,0,0,0,0
18029,-0.6120595932006836,0.34805816411972046,0.12420208752155304,0,0,0,0
18039,-0.6537647247314453,0.4464748799800873,0.1222308948636055,0,0,0,0
18049,-0.8344826698303223,0.47359398007392883,0.11855476349592209,0,0,0,0
18059,-0.7191257476806641,0.43230271339416504,0.12115439772605896,0,0,0,0
18069,-0.7173041701316833,0.43188291788101196,0.12081734091043472,0,0,0,0
18079,-0.6958217024803162,0.4231241047382355,0.12096363306045532,0,0,0,0
18089,-0.6510935425758362,0.3816656470298767,0.12298958003520966,0,0,0,0
18099,-0.6499759554862976,0.3835037648677826,0.1227756217122078,0,0,0,0
18109,-0.6491265296936035,0.3815014064311981,0.12262192368507385,0,0,0,0
18119,-0.6430314779281616,0.43042731285095215,0.12251318991184235,0,0,0,0
18129,-0.6728836894035339,0.38654109835624695,0.12230481207370758,0,0,0,0
18139,-0.6641858816146851,0.7207134366035461,0.1181304082274437,0,0,0,0
18149,-0.6449652314186096,0.6576372385025024,0.11894191056489944,0,0,0,0
18160,-0.6019307374954224,0.5349367260932922,0.12185429036617279,0,0,0,0
18170,-0.6473836302757263,0.694496214389801,0.12067840248346329,0,0,0,0
18180,-0.546912431716919,0.6827822923660278,0.12149687856435776,0,0,0,0
18190,-0.40213093161582947,0.438549280166626,0.12623877823352814,0,0,0,0
18200,-0.4024721682071686,0.438387006521225,0.12624146044254303,0,0,0,0
18210,-0.3755141496658325,0.43116265535354614,0.12777219712734222,0,0,0,0
18220,-0.4323171079158783,0.4383372664451599,0.12597069144248962,0,0,0,0
18230,-0.5320972800254822,0.5491671562194824,0.12411800771951675,0,0,0,0
18239,-0.4310349225997925,0.46432793140411377,0.12651441991329193,0,0,0,0
18250,-0.4314489960670471,0.4639092981815338,0.1273462325334549,0,0,0,0
18260,-0.23290401697158813,0.41785773634910583,0.12977518141269684,0,0,0,0
18270,-0.2550920844078064,0.45995163917541504,0.13014207780361176,0,0,0,0
18280,-0.13047946989536285,0.17683391273021698,0.13190093636512756,0,0,0,0
18290,-0.20539343357086182,0.24510647356510162,0.1308315247297287,0,0,0,0
18300,-0.22703993320465088,0.22627931833267212,0.12990638613700867,0,0,0,0
18310,-0.38520482182502747,0.32416871190071106,0.12818871438503265,0,0,0,0
18319,-0.38495969772338867,0.32560276985168457,0.12839603424072266,0,0,0,0
18330,-0.38386330008506775,0.3232254981994629,0.1286563128232956,0,0,0,0
18340,-0.45653367042541504,0.36017435789108276,0.12751291692256927,0,0,0,0
18350,-0.4280585050582886,0.297985702753067,0.1285575032234192,0,0,0,0
18360,-0.4744373857975006,0.42029133439064026,0.1272277683019638,0,0,0,0
18370,-0.7926812171936035,0.4263837933540344,0.12169990688562393,0,0,0,0
18380,-0.7770226001739502,0.2818009555339813,0.12155243009328842,0,0,0,0
18389,-0.7635441422462463,0.24078042805194855,0.12172549217939377,0,0,0,0
18400,-0.764091432094574,0.2412281334400177,0.12147381156682968,0,0,0,0
18410,-0.7982515096664429,0.429734468460083,0.12190566211938858,0,0,0,0
18419,-1.1175235509872437,0.5691395401954651,0.11508865654468536,0,0,0,0
18430,-1.1175614595413208,0.5681359767913818,0.11538641899824142,0,0,0,0
18440,-0.7957893013954163,0.6818116903305054,0.11932961642742157,0,0,0,0
18450,-0.7950440645217896,0.6810315847396851,0.11917930096387863,0,0,0,0
18460,-0.683258056640625,0.659044623374939,0.12197837978601456,0,0,0,0
18470,-0.5824740529060364,0.6266822814941406,0.12441622465848923,0,0,0,0
18480,-0.6272138357162476,0.619265079498291,0.12485937029123306,0,0,0,0
18490,-0.5539733171463013,0.5577684640884399,0.12746647000312805,0,0,0,0
18500,-0.5313485860824585,0.5459019541740417,0.12668226659297943,0,0,0,0
18510,-0.567353367805481,0.5793668031692505,0.12766119837760925,0,0,0,0
18520,-0.532424807548523,0.5562013983726501,0.12815360724925995,0,0,0,0
18530,-0.5552729368209839,0.5541146397590637,0.12816442549228668,0,0,0,0
18540,-0.6091493964195251,0.6495986580848694,0.1271817535161972,0,0,0,0
18550,-0.5717496275901794,0.6004955172538757,0.1284213364124298,0,0,0,0
18560,-0.5264483690261841,0.5285757780075073,0.12776891887187958,0,0,0,0
18571,-0.5718631744384766,0.6273773312568665,0.12634557485580444,0,0,0,0
18580,-0.5676571130752563,0.5326796174049377,0.12769551575183868,0,0,0,0
18590,-0.3425656855106354,0.5754784345626831,0.12573088705539703,0,0,0,0
18600,-0.36794552206993103,0.616539716720581,0.1252172440290451,0,0,0,0
18610,-0.3601221442222595,0.5788286328315735,0.12625017762184143,0,0,0,0
18620,-0.38228684663772583,0.534572184085846,0.12749801576137543,0,0,0,0
18630,-0.3189612925052643,0.5777772665023804,0.127102330327034,0,0,0,0
18640,-0.4122214913368225,0.6051682233810425,0.128079354763031,0,0,0,0
18650,-0.41057783365249634,0.5786001682281494,0.12811708450317383,0,0,0,0
18661,-0.5050880312919617,0.6627213358879089,0.12915270030498505,0,0,0,0
18670,-0.5039904117584229,0.6618579626083374,0.13010922074317932,0,0,0,0
18680,-0.49823933839797974,0.5885676741600037,0.1304779201745987,0,0,0,0
18689,-0.45916345715522766,0.5848121643066406,0.13008488714694977,0,0,0,0
18699,-0.41262581944465637,0.5708363056182861,0.1291836053133011,0,0,0,0
18709,-0.45604509115219116,0.49084779620170593,0.1306736320257187,0,0,0,0
18719,-0.47119274735450745,0.578067421913147,0.13159127533435822,0,0,0,0
18729,-0.4891638159751892,0.5733803510665894,0.13232800364494324,0,0,0,0
18739,-0.4885818660259247,0.57286536693573,0.13208767771720886,0,0,0,0
18751,-0.5380520820617676,0.5820842981338501,0.13314436376094818,0,0,0,0
18759,-0.37678441405296326,0.6321682333946228,0.13213691115379333,0,0,0,0
18769,-0.5222292542457581,0.5697817802429199,0.13418743014335632,0,0,0,0
18779,-0.522526204586029,0.5691839456558228,0.13338054716587067,0,0,0,0
18789,-0.5599493980407715,0.5404239892959595,0.13495489954948425,0,0,0,0
18799,-0.7972916960716248,0.515640914440155,0.13794708251953125,0,0,0,0
18809,-0.7487371563911438,0.2709241211414337,0.13634465634822845,0,0,0,0
18819,-0.6339158415794373,0.19200116395950317,0.13550066947937012,0,0,0,0
18831,-0.6340853571891785,0.19062934815883636,0.13531145453453064,0,0,0,0
18839,-0.6553775072097778,0.1646682322025299,0.13613329827785492,0,0,0,0
18849,-0.648142397403717,0.20001783967018127,0.13619647920131683,0,0,0,0
18859,-0.6551454663276672,0.24437619745731354,0.13647505640983582,0,0,0,0
18871,-0.6125935912132263,0.2649688422679901,0.13623085618019104,0,0,0,0
18879,-0.5728394985198975,0.18940779566764832,0.1366213709115982,0,0,0,0
18889,-0.5620183944702148,0.5060902237892151,0.13687655329704285,0,0,0,0
18899,-0.5863422155380249,0.2726844847202301,0.13718649744987488,0,0,0,0
