timestamp (ms),stabilizer.roll,stabilizer.pitch,stabilizer.yaw,motor.m1,motor.m2,motor.m3,motor.m4
4753,0.0,0.0,0.0,0,0,0,0
4763,0.0,0.0,0.0,0,0,0,0
4773,0.0,0.0,0.0,0,0,0,0
4783,0.0,0.0,0.0,0,0,0,0
4793,0.0,0.0,0.0,0,0,0,0
4803,0.0,0.0,0.0,0,0,0,0
4813,0.0,0.0,0.0,0,0,0,0
4823,0.0,0.0,0.0,0,0,0,0
4833,0.0,0.0,0.0,0,0,0,0
4843,0.0,0.0,0.0,0,0,0,0
4853,0.0,0.0,0.0,0,0,0,0
4863,0.0,0.0,0.0,0,0,0,0
4873,0.0,0.0,0.0,0,0,0,0
4883,0.0,0.0,0.0,0,0,0,0
4893,0.0,0.0,0.0,0,0,0,0
4903,0.0,0.0,0.0,0,0,0,0
4913,0.0,0.0,0.0,0,0,0,0
4923,0.0,0.0,0.0,0,0,0,0
4933,0.0,0.0,0.0,0,0,0,0
4943,0.0,0.0,0.0,0,0,0,0
4953,0.0,0.0,0.0,0,0,0,0
4963,0.0,0.0,0.0,0,0,0,0
4973,0.0,0.0,0.0,0,0,0,0
4983,0.0,0.0,0.0,0,0,0,0
4993,0.0,0.0,0.0,0,0,0,0
5003,0.0,0.0,0.0,0,0,0,0
5013,0.0,0.0,0.0,0,0,0,0
5023,0.0,0.0,0.0,0,0,0,0
5033,0.0,0.0,0.0,0,0,0,0
5043,0.0,0.0,0.0,0,0,0,0
5053,0.0,0.0,0.0,0,0,0,0
5063,0.0,0.0,0.0,0,0,0,0
5073,0.0,0.0,0.0,0,0,0,0
5083,0.0,0.0,0.0,0,0,0,0
5093,0.0,0.0,0.0,0,0,0,0
5103,0.0,0.0,0.0,0,0,0,0
5113,0.0,0.0,0.0,0,0,0,0
5123,0.0,0.0,0.0,0,0,0,0
5133,0.0,0.0,0.0,0,0,0,0
5143,0.0,0.0,0.0,0,0,0,0
5153,0.0,0.0,0.0,0,0,0,0
5163,0.0,0.0,0.0,0,0,0,0
5173,0.0,0.0,0.0,0,0,0,0
5183,0.0,0.0,0.0,0,0,0,0
5193,0.0,0.0,0.0,0,0,0,0
5203,0.0,0.0,0.0,0,0,0,0
5213,0.0,0.0,0.0,0,0,0,0
5223,0.0,0.0,0.0,0,0,0,0
5233,0.0,0.0,0.0,0,0,0,0
5243,0.0,0.0,0.0,0,0,0,0
5253,0.0,0.0,0.0,0,0,0,0
5263,0.0,0.0,0.0,0,0,0,0
5273,0.0,0.0,0.0,0,0,0,0
5283,0.0,0.0,0.0,0,0,0,0
5293,0.0,0.0,0.0,0,0,0,0
5303,0.0,0.0,0.0,0,0,0,0
5313,0.0,0.0,0.0,0,0,0,0
5323,0.0,0.0,0.0,0,0,0,0
5333,0.0,0.0,0.0,0,0,0,0
5343,0.0,0.0,0.0,0,0,0,0
5353,0.0,0.0,0.0,0,0,0,0
5363,0.0,0.0,0.0,0,0,0,0
5373,0.0,0.0,0.0,0,0,0,0
5383,0.0,0.0,0.0,0,0,0,0
5393,0.0,0.0,0.0,0,0,0,0
5403,0.0,0.0,0.0,0,0,0,0
5413,0.0,0.0,0.0,0,0,0,0
5423,0.0,0.0,0.0,0,0,0,0
5433,0.0,0.0,0.0,0,0,0,0
5443,0.0,0.0,0.0,0,0,0,0
5453,0.0,0.0,0.0,0,0,0,0
5463,0.0,0.0,0.0,0,0,0,0
5473,0.0,0.0,0.0,0,0,0,0
5483,0.0,0.0,0.0,0,0,0,0
5493,0.0,0.0,0.0,0,0,0,0
5503,0.0,0.0,0.0,0,0,0,0
5513,0.0,0.0,0.0,0,0,0,0
5523,0.0,0.0,0.0,0,0,0,0
5533,0.0,0.0,0.0,0,0,0,0
5543,0.0,0.0,0.0,0,0,0,0
5553,0.0,0.0,0.0,0,0,0,0
5563,0.0,0.0,0.0,0,0,0,0
5573,0.0,0.0,0.0,0,0,0,0
5583,0.0,0.0,0.0,0,0,0,0
5593,0.0,0.0,0.0,0,0,0,0
5603,0.0,0.0,0.0,0,0,0,0
5613,0.0,0.0,0.0,0,0,0,0
5623,0.0,0.0,0.0,0,0,0,0
5633,0.0,0.0,0.0,0,0,0,0
5643,0.0,0.0,0.0,0,0,0,0
5653,0.0,0.0,0.0,0,0,0,0
5663,0.0,0.0,0.0,0,0,0,0
5673,0.0,0.0,0.0,0,0,0,0
5683,0.0,0.0,0.0,0,0,0,0
5693,0.0,0.0,0.0,0,0,0,0
5703,0.0,0.0,0.0,0,0,0,0
5713,0.0,0.0,0.0,0,0,0,0
5723,0.0,0.0,0.0,0,0,0,0
5733,0.0,0.0,0.0,0,0,0,0
5743,0.0,0.0,0.0,0,0,0,0
5753,0.0,0.0,0.0,0,0,0,0
5763,0.0,0.0,0.0,0,0,0,0
5773,0.0,0.0,0.0,0,0,0,0
5783,0.0,0.0,0.0,0,0,0,0
5793,0.0,0.0,0.0,0,0,0,0
5803,0.0,0.0,0.0,0,0,0,0
5813,0.0,0.0,0.0,0,0,0,0
5823,0.0,0.0,0.0,0,0,0,0
5833,0.0,0.0,0.0,0,0,0,0
5843,0.0,0.0,0.0,0,0,0,0
5853,0.0,0.0,0.0,0,0,0,0
5863,0.0,0.0,0.0,0,0,0,0
5873,0.0,0.0,0.0,0,0,0,0
5883,0.0,0.0,0.0,0,0,0,0
5893,0.0,0.0,0.0,0,0,0,0
5903,0.0,0.0,0.0,0,0,0,0
5913,0.0,0.0,0.0,0,0,0,0
5923,0.0,0.0,0.0,0,0,0,0
5933,0.0,0.0,0.0,0,0,0,0
5943,0.0,0.0,0.0,0,0,0,0
5953,0.0,0.0,0.0,0,0,0,0
5963,0.0,0.0,0.0,0,0,0,0
5973,0.0,0.0,0.0,0,0,0,0
5983,0.0,0.0,0.0,0,0,0,0
5993,0.0,0.0,0.0,0,0,0,0
6003,0.0,0.0,0.0,0,0,0,0
6013,0.0,0.0,0.0,0,0,0,0
6023,0.0,0.0,0.0,0,0,0,0
6033,0.0,0.0,0.0,0,0,0,0
6043,0.0,0.0,0.0,0,0,0,0
6053,0.0,0.0,0.0,0,0,0,0
6063,0.0,0.0,0.0,0,0,0,0
6073,0.0,0.0,0.0,0,0,0,0
6083,0.0,0.0,0.0,0,0,0,0
6093,0.0,0.0,0.0,0,0,0,0
6103,0.0,0.0,0.0,0,0,0,0
6113,0.0,0.0,0.0,0,0,0,0
6123,0.0,0.0,0.0,0,0,0,0
6133,0.0,0.0,0.0,0,0,0,0
6143,0.0,0.0,0.0,0,0,0,0
6153,0.0,0.0,0.0,0,0,0,0
6163,0.0,0.0,0.0,0,0,0,0
6173,0.0,0.0,0.0,0,0,0,0
6183,0.0,0.0,0.0,0,0,0,0
6193,0.0,0.0,0.0,0,0,0,0
6203,0.0,0.0,0.0,0,0,0,0
6213,0.0,0.0,0.0,0,0,0,0
6223,0.0,0.0,0.0,0,0,0,0
6233,0.0,0.0,0.0,0,0,0,0
6243,0.0,0.0,0.0,0,0,0,0
6253,0.0,0.0,0.0,0,0,0,0
6263,0.0,0.0,0.0,0,0,0,0
6273,0.0,0.0,0.0,0,0,0,0
6283,0.0,0.0,0.0,0,0,0,0
6293,0.0,0.0,0.0,0,0,0,0
6303,0.0,0.0,0.0,0,0,0,0
6313,0.0,0.0,0.0,0,0,0,0
6323,0.0,0.0,0.0,0,0,0,0
6333,0.0,0.0,0.0,0,0,0,0
6343,0.0,0.0,0.0,0,0,0,0
6353,0.0,0.0,0.0,0,0,0,0
6363,0.0,0.0,0.0,0,0,0,0
6373,0.0,0.0,0.0,0,0,0,0
6383,0.0,0.0,0.0,0,0,0,0
6393,0.0,0.0,0.0,0,0,0,0
6403,0.0,0.0,0.0,0,0,0,0
6413,0.0,0.0,0.0,0,0,0,0
6423,0.0,0.0,0.0,0,0,0,0
6433,0.0,0.0,0.0,0,0,0,0
6443,0.0,0.0,0.0,0,0,0,0
6453,0.0,0.0,0.0,0,0,0,0
6463,0.0,0.0,0.0,0,0,0,0
6473,0.0,0.0,0.0,0,0,0,0
6483,0.0,0.0,0.0,0,0,0,0
6493,0.0,0.0,0.0,0,0,0,0
6503,0.0,0.0,0.0,0,0,0,0
6513,0.0,0.0,0.0,0,0,0,0
6523,0.0,0.0,0.0,0,0,0,0
6533,0.0,0.0,0.0,0,0,0,0
6543,0.0,0.0,0.0,0,0,0,0
6553,0.0,0.0,0.0,0,0,0,0
6563,0.0,0.0,0.0,0,0,0,0
6573,0.0,0.0,0.0,0,0,0,0
6583,0.0,0.0,0.0,0,0,0,0
6593,0.0,0.0,0.0,0,0,0,0
6603,0.0,0.0,0.0,0,0,0,0
6613,0.0,0.0,0.0,0,0,0,0
6623,0.0,0.0,0.0,0,0,0,0
6633,0.0,0.0,0.0,0,0,0,0
6643,0.0,0.0,0.0,0,0,0,0
6653,0.0,0.0,0.0,0,0,0,0
6663,0.0,0.0,0.0,0,0,0,0
6673,0.0,0.0,0.0,0,0,0,0
6683,0.0,0.0,0.0,0,0,0,0
6693,0.0,0.0,0.0,0,0,0,0
6703,0.0,0.0,0.0,0,0,0,0
6713,0.0,0.0,0.0,0,0,0,0
6723,0.0,0.0,0.0,0,0,0,0
6733,0.0,0.0,0.0,0,0,0,0
6743,0.0,0.0,0.0,0,0,0,0
6753,0.0,0.0,0.0,0,0,0,0
6763,0.0,0.0,0.0,0,0,0,0
6773,0.0,0.0,0.0,0,0,0,0
6783,0.0,0.0,0.0,0,0,0,0
6793,0.0,0.0,0.0,0,0,0,0
6803,0.0,0.0,0.0,0,0,0,0
6813,0.0,0.0,0.0,0,0,0,0
6823,0.0,0.0,0.0,0,0,0,0
6833,0.0,0.0,0.0,0,0,0,0
6843,0.0,0.0,0.0,0,0,0,0
6853,0.0,0.0,0.0,0,0,0,0
6863,0.0,0.0,0.0,0,0,0,0
6873,0.0,0.0,0.0,0,0,0,0
6883,0.0,0.0,0.0,0,0,0,0
6893,0.0,0.0,0.0,0,0,0,0
6903,0.0,0.0,0.0,0,0,0,0
6913,0.0,0.0,0.0,0,0,0,0
6923,0.0,0.0,0.0,0,0,0,0
6933,0.0,0.0,0.0,0,0,0,0
6943,0.0,0.0,0.0,0,0,0,0
6953,0.0,0.0,0.0,0,0,0,0
6963,0.0,0.0,0.0,0,0,0,0
6973,0.0,0.0,0.0,0,0,0,0
6983,0.0,0.0,0.0,0,0,0,0
6993,0.0,0.0,0.0,0,0,0,0
7003,0.0,0.0,0.0,0,0,0,0
7013,0.0,0.0,0.0,0,0,0,0
7023,0.0,0.0,0.0,0,0,0,0
7033,0.0,0.0,0.0,0,0,0,0
7043,0.0,0.0,0.0,0,0,0,0
7053,0.0,0.0,0.0,0,0,0,0
7063,0.0,0.0,0.0,0,0,0,0
7073,0.0,0.0,0.0,0,0,0,0
7083,0.0,0.0,0.0,0,0,0,0
7093,0.0,0.0,0.0,0,0,0,0
7103,0.0,0.0,0.0,0,0,0,0
7113,0.0,0.0,0.0,0,0,0,0
7123,0.0,0.0,0.0,0,0,0,0
7133,0.0,0.0,0.0,0,0,0,0
7143,0.0,0.0,0.0,0,0,0,0
7153,0.0,0.0,0.0,0,0,0,0
7163,0.0,0.0,0.0,0,0,0,0
7173,0.0,0.0,0.0,0,0,0,0
7183,0.0,0.0,0.0,0,0,0,0
7193,0.0,0.0,0.0,0,0,0,0
7203,0.0,0.0,0.0,0,0,0,0
7213,0.0,0.0,0.0,0,0,0,0
7223,0.0,0.0,0.0,0,0,0,0
7233,0.0,0.0,0.0,0,0,0,0
7243,0.0,0.0,0.0,0,0,0,0
7253,0.0,0.0,0.0,0,0,0,0
7263,0.0,0.0,0.0,0,0,0,0
7273,0.0,0.0,0.0,0,0,0,0
7283,0.0,0.0,0.0,0,0,0,0
7293,0.0,0.0,0.0,0,0,0,0
7303,0.0,0.0,0.0,0,0,0,0
7313,0.0,0.0,0.0,0,0,0,0
7323,0.0,0.0,0.0,0,0,0,0
7333,0.0,0.0,0.0,0,0,0,0
7343,0.0,0.0,0.0,0,0,0,0
7353,0.0,0.0,0.0,0,0,0,0
7363,0.0,0.0,0.0,0,0,0,0
7373,0.0,0.0,0.0,0,0,0,0
7383,0.0,0.0,0.0,0,0,0,0
7393,0.0,0.0,0.0,0,0,0,0
7403,0.0,0.0,0.0,0,0,0,0
7413,0.0,0.0,0.0,0,0,0,0
7423,0.0,0.0,0.0,0,0,0,0
7433,0.0,0.0,0.0,0,0,0,0
7443,0.0,0.0,0.0,0,0,0,0
7453,0.0,0.0,0.0,0,0,0,0
7463,0.0,0.0,0.0,0,0,0,0
7473,0.0,0.0,0.0,0,0,0,0
7483,0.0,0.0,0.0,0,0,0,0
7493,0.0,0.0,0.0,0,0,0,0
7503,0.0,0.0,0.0,0,0,0,0
7513,0.0,0.0,0.0,0,0,0,0
7523,0.0,0.0,0.0,0,0,0,0
7533,0.0,0.0,0.0,0,0,0,0
7543,0.0,0.0,0.0,0,0,0,0
7553,0.0,0.0,0.0,0,0,0,0
7563,0.0,0.0,0.0,0,0,0,0
7573,0.0,0.0,0.0,0,0,0,0
7583,0.0,0.0,0.0,0,0,0,0
7593,0.0,0.0,0.0,0,0,0,0
7603,0.0,0.0,0.0,0,0,0,0
7613,0.0,0.0,0.0,0,0,0,0
7623,0.0,0.0,0.0,0,0,0,0
7633,0.0,0.0,0.0,0,0,0,0
7643,0.0,0.0,0.0,0,0,0,0
7653,0.0,0.0,0.0,0,0,0,0
7663,0.0,0.0,0.0,0,0,0,0
7673,0.0,0.0,0.0,0,0,0,0
7683,0.0,0.0,0.0,0,0,0,0
7693,0.0,0.0,0.0,0,0,0,0
7703,0.0,0.0,0.0,0,0,0,0
7713,0.0,0.0,0.0,0,0,0,0
7723,0.0,0.0,0.0,0,0,0,0
7733,0.0,0.0,0.0,0,0,0,0
7743,0.0,0.0,0.0,0,0,0,0
7753,0.0,0.0,0.0,0,0,0,0
7763,0.0,0.0,0.0,0,0,0,0
7773,0.0,0.0,0.0,0,0,0,0
7783,0.0,0.0,0.0,0,0,0,0
7793,0.0,0.0,0.0,0,0,0,0
7803,0.0,0.0,0.0,0,0,0,0
7813,0.0,0.0,0.0,0,0,0,0
7823,0.0,0.0,0.0,0,0,0,0
7833,0.0,0.0,0.0,0,0,0,0
7843,0.0,0.0,0.0,0,0,0,0
7853,0.0,0.0,0.0,0,0,0,0
7863,0.0,0.0,0.0,0,0,0,0
7873,0.0,0.0,0.0,0,0,0,0
7883,0.0,0.0,0.0,0,0,0,0
7893,0.0,0.0,0.0,0,0,0,0
7903,0.0,0.0,0.0,0,0,0,0
7913,0.0,0.0,0.0,0,0,0,0
7923,0.0,0.0,0.0,0,0,0,0
7933,0.0,0.0,0.0,0,0,0,0
7943,0.0,0.0,0.0,0,0,0,0
7953,0.0,0.0,0.0,0,0,0,0
7963,0.0,0.0,0.0,0,0,0,0
7973,0.0,0.0,0.0,0,0,0,0
7983,0.0,0.0,0.0,0,0,0,0
7993,0.0,0.0,0.0,0,0,0,0
8003,0.0,0.0,0.0,0,0,0,0
8013,0.0,0.0,0.0,0,0,0,0
8023,0.0,0.0,0.0,0,0,0,0
8033,0.0,0.0,0.0,0,0,0,0
8043,0.0,0.0,0.0,0,0,0,0
8053,0.0,0.0,0.0,0,0,0,0
8063,0.0,0.0,0.0,0,0,0,0
8073,0.0,0.0,0.0,0,0,0,0
8083,0.0,0.0,0.0,0,0,0,0
8093,0.0,0.0,0.0,0,0,0,0
8103,0.0,0.0,0.0,0,0,0,0
8113,0.0,0.0,0.0,0,0,0,0
8123,0.0,0.0,0.0,0,0,0,0
8133,0.0,0.0,0.0,0,0,0,0
8143,0.0,0.0,0.0,0,0,0,0
8153,0.0,0.0,0.0,0,0,0,0
8163,0.0,0.0,0.0,0,0,0,0
8173,0.0,0.0,0.0,0,0,0,0
8183,0.0,0.0,0.0,0,0,0,0
8193,0.0,0.0,0.0,0,0,0,0
8203,0.0,0.0,0.0,0,0,0,0
8213,0.0,0.0,0.0,0,0,0,0
8223,0.0,0.0,0.0,0,0,0,0
8233,0.0,0.0,0.0,0,0,0,0
8243,0.0,0.0,0.0,0,0,0,0
8253,0.0,0.0,0.0,0,0,0,0
8263,0.0,0.0,0.0,0,0,0,0
8273,0.0,0.0,0.0,0,0,0,0
8283,0.0,0.0,0.0,0,0,0,0
8293,0.0,0.0,0.0,0,0,0,0
8303,0.0,0.0,0.0,0,0,0,0
8313,0.0,0.0,0.0,0,0,0,0
8323,0.0,0.0,0.0,0,0,0,0
8333,0.0,0.0,0.0,0,0,0,0
8343,0.0,0.0,0.0,0,0,0,0
8353,0.0,0.0,0.0,0,0,0,0
8363,0.0,0.0,0.0,0,0,0,0
8373,0.0,0.0,0.0,0,0,0,0
8383,0.0,0.0,0.0,0,0,0,0
8393,0.0,0.0,0.0,0,0,0,0
8403,0.0,0.0,0.0,0,0,0,0
8413,0.0,0.0,0.0,0,0,0,0
8423,0.0,0.0,0.0,0,0,0,0
8433,0.0,0.0,0.0,0,0,0,0
8443,0.0,0.0,0.0,0,0,0,0
8453,0.0,0.0,0.0,0,0,0,0
8463,0.0,0.0,0.0,0,0,0,0
8473,0.0,0.0,0.0,0,0,0,0
8483,0.0,0.0,0.0,0,0,0,0
8493,0.0,0.0,0.0,0,0,0,0
8503,0.0,0.0,0.0,0,0,0,0
8513,0.0,0.0,0.0,0,0,0,0
8523,0.0,0.0,0.0,0,0,0,0
8533,0.0,0.0,0.0,0,0,0,0
8543,0.0,0.0,0.0,0,0,0,0
8553,0.0,0.0,0.0,0,0,0,0
8563,0.0,0.0,0.0,0,0,0,0
8573,0.0,0.0,0.0,0,0,0,0
8583,0.0,0.0,0.0,0,0,0,0
8593,0.0,0.0,0.0,0,0,0,0
8603,0.0,0.0,0.0,0,0,0,0
8613,0.0,0.0,0.0,0,0,0,0
8623,0.0,0.0,0.0,0,0,0,0
8633,0.0,0.0,0.0,0,0,0,0
8643,0.0,0.0,0.0,0,0,0,0
8653,0.0,0.0,0.0,0,0,0,0
8663,0.0,0.0,0.0,0,0,0,0
8673,0.0,0.0,0.0,0,0,0,0
8683,0.0,0.0,0.0,0,0,0,0
8693,0.0,0.0,0.0,0,0,0,0
8703,0.0,0.0,0.0,0,0,0,0
8713,0.0,0.0,0.0,0,0,0,0
8723,0.0,0.0,0.0,0,0,0,0
8733,0.0,0.0,0.0,0,0,0,0
8743,0.0,0.0,0.0,0,0,0,0
8753,0.0,0.0,0.0,0,0,0,0
8763,0.0,0.0,0.0,0,0,0,0
8773,0.0,0.0,0.0,0,0,0,0
8783,0.0,0.0,0.0,0,0,0,0
8793,0.0,0.0,0.0,0,0,0,0
8803,0.0,0.0,0.0,0,0,0,0
8813,0.0,0.0,0.0,0,0,0,0
8823,0.0,0.0,0.0,0,0,0,0
8833,0.0,0.0,0.0,0,0,0,0
8843,0.0,0.0,0.0,0,0,0,0
8853,0.0,0.0,0.0,0,0,0,0
8863,0.0,0.0,0.0,0,0,0,0
8873,0.0,0.0,0.0,0,0,0,0
8883,0.0,0.0,0.0,0,0,0,0
8893,0.0,0.0,0.0,0,0,0,0
8903,0.0,0.0,0.0,0,0,0,0
8913,0.0,0.0,0.0,0,0,0,0
8923,0.0,0.0,0.0,0,0,0,0
8933,0.0,0.0,0.0,0,0,0,0
8943,0.0,0.0,0.0,0,0,0,0
8953,0.0,0.0,0.0,0,0,0,0
8963,0.0,0.0,0.0,0,0,0,0
8973,0.0,0.0,0.0,0,0,0,0
8983,0.0,0.0,0.0,0,0,0,0
8993,0.0,0.0,0.0,0,0,0,0
9003,0.0,0.0,0.0,0,0,0,0
9013,0.0,0.0,0.0,0,0,0,0
9023,0.0,0.0,0.0,0,0,0,0
9033,0.0,0.0,0.0,0,0,0,0
9043,0.0,0.0,0.0,0,0,0,0
9053,0.0,0.0,0.0,0,0,0,0
9063,0.0,0.0,0.0,0,0,0,0
9073,0.0,0.0,0.0,0,0,0,0
9083,0.0,0.0,0.0,0,0,0,0
9093,0.0,0.0,0.0,0,0,0,0
9103,0.0,0.0,0.0,0,0,0,0
9113,0.0,0.0,0.0,0,0,0,0
9123,0.0,0.0,0.0,0,0,0,0
9133,0.0,0.0,0.0,0,0,0,0
9143,0.0,0.0,0.0,0,0,0,0
9153,0.0,0.0,0.0,0,0,0,0
9163,0.0,0.0,0.0,0,0,0,0
9173,0.0,0.0,0.0,0,0,0,0
9183,0.0,0.0,0.0,0,0,0,0
9193,0.0,0.0,0.0,0,0,0,0
9203,0.0,0.0,0.0,0,0,0,0
9213,0.0,0.0,0.0,0,0,0,0
9223,0.0,0.0,0.0,0,0,0,0
9233,0.0,0.0,0.0,0,0,0,0
9243,0.0,0.0,0.0,0,0,0,0
9253,0.0,0.0,0.0,0,0,0,0
9263,0.0,0.0,0.0,0,0,0,0
9273,0.0,0.0,0.0,0,0,0,0
9283,0.0,0.0,0.0,0,0,0,0
9293,0.0,0.0,0.0,0,0,0,0
9303,0.0,0.0,0.0,0,0,0,0
9313,0.0,0.0,0.0,0,0,0,0
9323,0.0,0.0,0.0,0,0,0,0
9333,0.0,0.0,0.0,0,0,0,0
9343,0.0,0.0,0.0,0,0,0,0
9353,0.0,0.0,0.0,0,0,0,0
9363,0.0,0.0,0.0,0,0,0,0
9373,0.0,0.0,0.0,0,0,0,0
9383,0.0,0.0,0.0,0,0,0,0
9393,0.0,0.0,0.0,0,0,0,0
9403,0.0,0.0,0.0,0,0,0,0
9413,0.0,0.0,0.0,0,0,0,0
9423,0.0,0.0,0.0,0,0,0,0
9433,0.0,0.0,0.0,0,0,0,0
9443,0.0,0.0,0.0,0,0,0,0
9453,0.0,0.0,0.0,0,0,0,0
9463,0.0,0.0,0.0,0,0,0,0
9473,0.0,0.0,0.0,0,0,0,0
9483,0.0,0.0,0.0,0,0,0,0
9493,0.0,0.0,0.0,0,0,0,0
9503,0.0,0.0,0.0,0,0,0,0
9513,0.0,0.0,0.0,0,0,0,0
9523,0.0,0.0,0.0,0,0,0,0
9533,0.0,0.0,0.0,0,0,0,0
9543,0.0,0.0,0.0,0,0,0,0
9553,0.0,0.0,0.0,0,0,0,0
9563,0.0,0.0,0.0,0,0,0,0
9573,0.0,0.0,0.0,0,0,0,0
9583,0.0,0.0,0.0,0,0,0,0
9593,0.0,0.0,0.0,0,0,0,0
9603,0.0,0.0,0.0,0,0,0,0
9613,0.0,0.0,0.0,0,0,0,0
9623,0.0,0.0,0.0,0,0,0,0
9633,0.0,0.0,0.0,0,0,0,0
9643,0.0,0.0,0.0,0,0,0,0
9653,0.0,0.0,0.0,0,0,0,0
9663,0.0,0.0,0.0,0,0,0,0
9673,0.0,0.0,0.0,0,0,0,0
9683,0.0,0.0,0.0,0,0,0,0
9693,0.0,0.0,0.0,0,0,0,0
9703,0.0,0.0,0.0,0,0,0,0
9713,0.0,0.0,0.0,0,0,0,0
9723,0.0,0.0,0.0,0,0,0,0
9733,0.0,0.0,0.0,0,0,0,0
9743,0.0,0.0,0.0,0,0,0,0
9753,0.0,0.0,0.0,0,0,0,0
9763,0.0,0.0,0.0,0,0,0,0
9773,0.0,0.0,0.0,0,0,0,0
9783,0.0,0.0,0.0,0,0,0,0
9793,0.0,0.0,0.0,0,0,0,0
9803,0.0,0.0,0.0,0,0,0,0
9813,0.0,0.0,0.0,0,0,0,0
9823,0.0,0.0,0.0,0,0,0,0
9833,0.0,0.0,0.0,0,0,0,0
9843,0.0,0.0,0.0,0,0,0,0
9853,0.0,0.0,0.0,0,0,0,0
9863,0.0,0.0,0.0,0,0,0,0
9873,0.0,0.0,0.0,0,0,0,0
9883,0.0,0.0,0.0,0,0,0,0
9893,0.0,0.0,0.0,0,0,0,0
9903,0.0,0.0,0.0,0,0,0,0
9913,0.0,0.0,0.0,0,0,0,0
9923,0.0,0.0,0.0,0,0,0,0
9933,0.0,0.0,0.0,0,0,0,0
9943,0.0,0.0,0.0,0,0,0,0
9953,0.0,0.0,0.0,0,0,0,0
9963,0.0,0.0,0.0,0,0,0,0
9973,0.0,0.0,0.0,0,0,0,0
9983,0.0,0.0,0.0,0,0,0,0
9993,0.0,0.0,0.0,0,0,0,0
10003,0.0,0.0,0.0,0,0,0,0
10013,0.0,0.0,0.0,0,0,0,0
10023,0.0,0.0,0.0,0,0,0,0
10033,0.0,0.0,0.0,0,0,0,0
10043,0.0,0.0,0.0,0,0,0,0
10053,0.0,0.0,0.0,0,0,0,0
10063,0.0,0.0,0.0,0,0,0,0
10073,0.0,0.0,0.0,0,0,0,0
10083,0.0,0.0,0.0,0,0,0,0
10093,0.0,0.0,0.0,0,0,0,0
10103,0.0,0.0,0.0,0,0,0,0
10113,0.0,0.0,0.0,0,0,0,0
10123,0.0,0.0,0.0,0,0,0,0
10133,0.0,0.0,0.0,0,0,0,0
10143,0.0,0.0,0.0,0,0,0,0
10153,0.0,0.0,0.0,0,0,0,0
10163,0.0,0.0,0.0,0,0,0,0
10173,0.0,0.0,0.0,0,0,0,0
10183,0.0,0.0,0.0,0,0,0,0
10193,0.0,0.0,0.0,0,0,0,0
10203,0.0,0.0,0.0,0,0,0,0
10213,0.0,0.0,0.0,0,0,0,0
10223,0.0,0.0,0.0,0,0,0,0
10233,0.0,0.0,0.0,0,0,0,0
10243,0.0,0.0,0.0,0,0,0,0
10253,0.0,0.0,0.0,0,0,0,0
10263,0.0,0.0,0.0,0,0,0,0
10273,0.0,0.0,0.0,0,0,0,0
10283,0.0,0.0,0.0,0,0,0,0
10293,0.0,0.0,0.0,0,0,0,0
10303,0.0,0.0,0.0,0,0,0,0
10313,0.0,0.0,0.0,0,0,0,0
10323,0.0,0.0,0.0,0,0,0,0
10333,0.0,0.0,0.0,0,0,0,0
10343,0.0,0.0,0.0,0,0,0,0
10353,0.0,0.0,0.0,0,0,0,0
10363,0.0,0.0,0.0,0,0,0,0
10373,0.0,0.0,0.0,0,0,0,0
10383,0.0,0.0,0.0,0,0,0,0
10393,0.0,0.0,0.0,0,0,0,0
10403,0.0,0.0,0.0,0,0,0,0
10413,0.0,0.0,0.0,0,0,0,0
10423,0.0,0.0,0.0,0,0,0,0
10433,0.0,0.0,0.0,0,0,0,0
10443,0.0,0.0,0.0,0,0,0,0
10453,0.0,0.0,0.0,0,0,0,0
10463,0.0,0.0,0.0,0,0,0,0
10473,0.0,0.0,0.0,0,0,0,0
10483,0.0,0.0,0.0,0,0,0,0
10493,0.0,0.0,0.0,0,0,0,0
10503,0.0,0.0,0.0,0,0,0,0
10513,0.0,0.0,0.0,0,0,0,0
10523,0.0,0.0,0.0,0,0,0,0
10533,0.0,0.0,0.0,0,0,0,0
10543,0.0,0.0,0.0,0,0,0,0
10553,0.0,0.0,0.0,0,0,0,0
10563,0.0,0.0,0.0,0,0,0,0
10573,0.0,0.0,0.0,0,0,0,0
10583,0.0,0.0,0.0,0,0,0,0
10593,0.0,0.0,0.0,0,0,0,0
10603,0.0,0.0,0.0,0,0,0,0
10613,0.0,0.0,0.0,0,0,0,0
10623,0.0,0.0,0.0,0,0,0,0
10633,0.0,0.0,0.0,0,0,0,0
10643,0.0,0.0,0.0,0,0,0,0
10653,0.0,0.0,0.0,0,0,0,0
10663,0.0,0.0,0.0,0,0,0,0
10673,0.0,0.0,0.0,0,0,0,0
10683,0.0,0.0,0.0,0,0,0,0
10693,0.0,0.0,0.0,0,0,0,0
10703,0.0,0.0,0.0,0,0,0,0
10713,0.0,0.0,0.0,0,0,0,0
10723,0.0,0.0,0.0,0,0,0,0
10733,0.0,0.0,0.0,0,0,0,0
10743,0.0,0.0,0.0,0,0,0,0
10753,0.0,0.0,0.0,0,0,0,0
10763,0.0,0.0,0.0,0,0,0,0
10773,0.0,0.0,0.0,0,0,0,0
10783,0.0,0.0,0.0,0,0,0,0
10793,0.0,0.0,0.0,0,0,0,0
10803,0.0,0.0,0.0,0,0,0,0
10813,0.0,0.0,0.0,0,0,0,0
10823,0.0,0.0,0.0,0,0,0,0
10833,0.0,0.0,0.0,0,0,0,0
10843,0.0,0.0,0.0,0,0,0,0
10853,0.0,0.0,0.0,0,0,0,0
10863,0.0,0.0,0.0,0,0,0,0
10873,0.0,0.0,0.0,0,0,0,0
10883,0.0,0.0,0.0,0,0,0,0
10893,0.0,0.0,0.0,0,0,0,0
10903,0.0,0.0,0.0,0,0,0,0
10913,0.0,0.0,0.0,0,0,0,0
10923,0.0,0.0,0.0,0,0,0,0
10933,0.0,0.0,0.0,0,0,0,0
10943,0.0,0.0,0.0,0,0,0,0
10953,0.0,0.0,0.0,0,0,0,0
10963,0.0,0.0,0.0,0,0,0,0
10973,0.0,0.0,0.0,0,0,0,0
10983,0.0,0.0,0.0,0,0,0,0
10993,0.0,0.0,0.0,0,0,0,0
11003,0.0,0.0,0.0,0,0,0,0
11013,0.0,0.0,0.0,0,0,0,0
11023,0.0,0.0,0.0,0,0,0,0
11033,0.0,0.0,0.0,0,0,0,0
11043,0.0,0.0,0.0,0,0,0,0
11053,0.0,0.0,0.0,0,0,0,0
11063,0.0,0.0,0.0,0,0,0,0
11073,0.0,0.0,0.0,0,0,0,0
11083,0.0,0.0,0.0,0,0,0,0
11093,0.0,0.0,0.0,0,0,0,0
11103,0.0,0.0,0.0,0,0,0,0
11113,0.0,0.0,0.0,0,0,0,0
11123,0.0,0.0,0.0,0,0,0,0
11133,0.0,0.0,0.0,0,0,0,0
11143,0.0,0.0,0.0,0,0,0,0
11153,0.0,0.0,0.0,0,0,0,0
11163,0.0,0.0,0.0,0,0,0,0
11173,0.0,0.0,0.0,0,0,0,0
11183,0.0,0.0,0.0,0,0,0,0
11193,0.0,0.0,0.0,0,0,0,0
11203,0.0,0.0,0.0,0,0,0,0
11213,0.0,0.0,0.0,0,0,0,0
11223,0.0,0.0,0.0,0,0,0,0
11233,0.0,0.0,0.0,0,0,0,0
11243,0.0,0.0,0.0,0,0,0,0
11253,0.0,0.0,0.0,0,0,0,0
11263,0.0,0.0,0.0,0,0,0,0
11273,0.0,0.0,0.0,0,0,0,0
11283,0.0,0.0,0.0,0,0,0,0
11293,0.0,0.0,0.0,0,0,0,0
11303,0.0,0.0,0.0,0,0,0,0
11313,0.0,0.0,0.0,0,0,0,0
11323,0.0,0.0,0.0,0,0,0,0
11333,0.0,0.0,0.0,0,0,0,0
11343,0.0,0.0,0.0,0,0,0,0
11353,0.0,0.0,0.0,0,0,0,0
11363,0.0,0.0,0.0,0,0,0,0
11373,0.0,0.0,0.0,0,0,0,0
11383,0.0,0.0,0.0,0,0,0,0
11393,0.0,0.0,0.0,0,0,0,0
11403,0.0,0.0,0.0,0,0,0,0
11413,0.0,0.0,0.0,0,0,0,0
11423,0.0,0.0,0.0,0,0,0,0
11433,0.0,0.0,0.0,0,0,0,0
11443,0.0,0.0,0.0,0,0,0,0
11453,0.0,0.0,0.0,0,0,0,0
11463,0.0,0.0,0.0,0,0,0,0
11473,0.0,0.0,0.0,0,0,0,0
11483,0.0,0.0,0.0,0,0,0,0
11493,0.0,0.0,0.0,0,0,0,0
11503,0.0,0.0,0.0,0,0,0,0
11513,0.0,0.0,0.0,0,0,0,0
11523,0.0,0.0,0.0,0,0,0,0
11533,0.0,0.0,0.0,0,0,0,0
11543,0.0,0.0,0.0,0,0,0,0
11553,0.0,0.0,0.0,0,0,0,0
11563,0.0,0.0,0.0,0,0,0,0
11573,0.0,0.0,0.0,0,0,0,0
11583,0.0,0.0,0.0,0,0,0,0
11593,0.0,0.0,0.0,0,0,0,0
11603,0.0,0.0,0.0,0,0,0,0
11613,0.0,0.0,0.0,0,0,0,0
11623,0.0,0.0,0.0,0,0,0,0
11633,0.0,0.0,0.0,0,0,0,0
11643,0.0,0.0,0.0,0,0,0,0
11653,0.0,0.0,0.0,0,0,0,0
11663,0.0,0.0,0.0,0,0,0,0
11673,0.0,0.0,0.0,0,0,0,0
11683,0.0,0.0,0.0,0,0,0,0
11693,0.0,0.0,0.0,0,0,0,0
11703,0.0,0.0,0.0,0,0,0,0
11713,0.0,0.0,0.0,0,0,0,0
11723,0.0,0.0,0.0,0,0,0,0
11733,0.0,0.0,0.0,0,0,0,0
11743,0.0,0.0,0.0,0,0,0,0
11753,0.0,0.0,0.0,0,0,0,0
11763,0.0,0.0,0.0,0,0,0,0
11773,0.0,0.0,0.0,0,0,0,0
11783,0.0,0.0,0.0,0,0,0,0
11793,0.0,0.0,0.0,0,0,0,0
11803,0.0,0.0,0.0,0,0,0,0
11813,0.0,0.0,0.0,0,0,0,0
11823,0.0,0.0,0.0,0,0,0,0
11833,0.0,0.0,0.0,0,0,0,0
11843,0.0,0.0,0.0,0,0,0,0
11853,0.0,0.0,0.0,0,0,0,0
11863,0.0,0.0,0.0,0,0,0,0
11873,0.0,0.0,0.0,0,0,0,0
11883,0.0,0.0,0.0,0,0,0,0
11893,0.0,0.0,0.0,0,0,0,0
11903,0.0,0.0,0.0,0,0,0,0
11913,0.0,0.0,0.0,0,0,0,0
11923,0.0,0.0,0.0,0,0,0,0
11933,0.0,0.0,0.0,0,0,0,0
11943,0.0,0.0,0.0,0,0,0,0
11953,0.0,0.0,0.0,0,0,0,0
11963,0.0,0.0,0.0,0,0,0,0
11973,0.0,0.0,0.0,0,0,0,0
11983,0.0,0.0,0.0,0,0,0,0
11993,0.0,0.0,0.0,0,0,0,0
12003,0.0,0.0,0.0,0,0,0,0
12013,0.0,0.0,0.0,0,0,0,0
12023,0.0,0.0,0.0,0,0,0,0
12033,0.0,0.0,0.0,0,0,0,0
12043,0.0,0.0,0.0,0,0,0,0
12053,0.0,0.0,0.0,0,0,0,0
12063,0.0,0.0,0.0,0,0,0,0
12073,0.0,0.0,0.0,0,0,0,0
12083,0.0,0.0,0.0,0,0,0,0
12093,0.0,0.0,0.0,0,0,0,0
12103,0.0,0.0,0.0,0,0,0,0
12113,0.0,0.0,0.0,0,0,0,0
12123,0.0,0.0,0.0,0,0,0,0
12133,0.0,0.0,0.0,0,0,0,0
12143,0.0,0.0,0.0,0,0,0,0
12153,0.0,0.0,0.0,0,0,0,0
12163,0.0,0.0,0.0,0,0,0,0
12173,0.0,0.0,0.0,0,0,0,0
12183,0.0,0.0,0.0,0,0,0,0
12193,0.0,0.0,0.0,0,0,0,0
12203,0.0,0.0,0.0,0,0,0,0
12213,0.0,0.0,0.0,0,0,0,0
12223,0.0,0.0,0.0,0,0,0,0
12233,0.0,0.0,0.0,0,0,0,0
12243,0.0,0.0,0.0,0,0,0,0
12253,0.0,0.0,0.0,0,0,0,0
12263,0.0,0.0,0.0,0,0,0,0
12273,0.0,0.0,0.0,0,0,0,0
12283,0.0,0.0,0.0,0,0,0,0
12293,0.0,0.0,0.0,0,0,0,0
12303,0.0,0.0,0.0,0,0,0,0
12313,0.0,0.0,0.0,0,0,0,0
12323,0.0,0.0,0.0,0,0,0,0
12333,0.0,0.0,0.0,0,0,0,0
12343,0.0,0.0,0.0,0,0,0,0
12353,0.0,0.0,0.0,0,0,0,0
12363,0.0,0.0,0.0,0,0,0,0
12373,0.0,0.0,0.0,0,0,0,0
12383,0.0,0.0,0.0,0,0,0,0
12393,0.0,0.0,0.0,0,0,0,0
12403,0.0,0.0,0.0,0,0,0,0
12413,0.0,0.0,0.0,0,0,0,0
12423,0.0,0.0,0.0,0,0,0,0
12433,0.0,0.0,0.0,0,0,0,0
12443,0.0,0.0,0.0,0,0,0,0
12453,0.0,0.0,0.0,0,0,0,0
12463,0.0,0.0,0.0,0,0,0,0
12473,0.0,0.0,0.0,0,0,0,0
12483,0.0,0.0,0.0,0,0,0,0
12493,0.0,0.0,0.0,0,0,0,0
12503,0.0,0.0,0.0,0,0,0,0
12513,0.0,0.0,0.0,0,0,0,0
12523,0.0,0.0,0.0,0,0,0,0
12533,0.0,0.0,0.0,0,0,0,0
12543,0.0,0.0,0.0,0,0,0,0
12553,0.0,0.0,0.0,0,0,0,0
12563,0.0,0.0,0.0,0,0,0,0
12573,0.0,0.0,0.0,0,0,0,0
12583,0.0,0.0,0.0,0,0,0,0
12593,0.0,0.0,0.0,0,0,0,0
12603,0.0,0.0,0.0,0,0,0,0
12613,0.0,0.0,0.0,0,0,0,0
12623,0.0,0.0,0.0,0,0,0,0
12633,0.0,0.0,0.0,0,0,0,0
12643,0.0,0.0,0.0,0,0,0,0
12653,0.0,0.0,0.0,0,0,0,0
12663,0.0,0.0,0.0,0,0,0,0
12673,0.0,0.0,0.0,0,0,0,0
12683,0.0,0.0,0.0,0,0,0,0
12693,0.0,0.0,0.0,0,0,0,0
12703,0.0,0.0,0.0,0,0,0,0
12713,0.0,0.0,0.0,0,0,0,0
12723,0.0,0.0,0.0,0,0,0,0
12733,0.0,0.0,0.0,0,0,0,0
12743,0.0,0.0,0.0,0,0,0,0
12753,0.0,0.0,0.0,0,0,0,0
12763,0.0,0.0,0.0,0,0,0,0
12773,0.0,0.0,0.0,0,0,0,0
12783,0.0,0.0,0.0,0,0,0,0
12793,0.0,0.0,0.0,0,0,0,0
12803,0.0,0.0,0.0,0,0,0,0
12813,0.0,0.0,0.0,0,0,0,0
12823,0.0,0.0,0.0,0,0,0,0
12833,0.0,0.0,0.0,0,0,0,0
12843,0.0,0.0,0.0,0,0,0,0
12853,0.0,0.0,0.0,0,0,0,0
12863,0.0,0.0,0.0,0,0,0,0
12873,0.0,0.0,0.0,0,0,0,0
12883,0.0,0.0,0.0,0,0,0,0
12893,0.0,0.0,0.0,0,0,0,0
12903,0.0,0.0,0.0,0,0,0,0
12913,0.0,0.0,0.0,0,0,0,0
12923,0.0,0.0,0.0,0,0,0,0
12933,0.0,0.0,0.0,0,0,0,0
12943,0.0,0.0,0.0,0,0,0,0
12953,0.0,0.0,0.0,0,0,0,0
12963,0.0,0.0,0.0,0,0,0,0
12973,0.0,0.0,0.0,0,0,0,0
12983,0.0,0.0,0.0,0,0,0,0
12993,0.0,0.0,0.0,0,0,0,0
13003,0.0,0.0,0.0,0,0,0,0
13013,0.0,0.0,0.0,0,0,0,0
13023,0.0,0.0,0.0,0,0,0,0
13033,0.0,0.0,0.0,0,0,0,0
13043,0.0,0.0,0.0,0,0,0,0
13053,0.0,0.0,0.0,0,0,0,0
13063,0.0,0.0,0.0,0,0,0,0
13073,0.0,0.0,0.0,0,0,0,0
13083,0.0,0.0,0.0,0,0,0,0
13093,0.0,0.0,0.0,0,0,0,0
13103,0.0,0.0,0.0,0,0,0,0
13113,0.0,0.0,0.0,0,0,0,0
13123,0.0,0.0,0.0,0,0,0,0
13133,0.0,0.0,0.0,0,0,0,0
13143,0.0,0.0,0.0,0,0,0,0
13153,0.0,0.0,0.0,0,0,0,0
13163,0.0,0.0,0.0,0,0,0,0
13173,0.0,0.0,0.0,0,0,0,0
13183,0.0,0.0,0.0,0,0,0,0
13193,0.0,0.0,0.0,0,0,0,0
13203,0.0,0.0,0.0,0,0,0,0
13213,0.0,0.0,0.0,0,0,0,0
13223,0.0,0.0,0.0,0,0,0,0
13233,0.0,0.0,0.0,0,0,0,0
13243,0.0,0.0,0.0,0,0,0,0
13253,0.0,0.0,0.0,0,0,0,0
13263,0.0,0.0,0.0,0,0,0,0
13273,0.0,0.0,0.0,0,0,0,0
13283,0.0,0.0,0.0,0,0,0,0
13293,0.0,0.0,0.0,0,0,0,0
13303,0.0,0.0,0.0,0,0,0,0
13313,0.0,0.0,0.0,0,0,0,0
13323,0.0,0.0,0.0,0,0,0,0
13333,0.0,0.0,0.0,0,0,0,0
13343,0.0,0.0,0.0,0,0,0,0
13353,0.0,0.0,0.0,0,0,0,0
13363,0.0,0.0,0.0,0,0,0,0
13373,0.0,0.0,0.0,0,0,0,0
13383,0.0,0.0,0.0,0,0,0,0
13393,0.0,0.0,0.0,0,0,0,0
13403,0.0,0.0,0.0,0,0,0,0
13413,0.0,0.0,0.0,0,0,0,0
13423,0.0,0.0,0.0,0,0,0,0
13433,0.0,0.0,0.0,0,0,0,0
13443,0.0,0.0,0.0,0,0,0,0
13453,0.0,0.0,0.0,0,0,0,0
13463,0.0,0.0,0.0,0,0,0,0
13473,0.0,0.0,0.0,0,0,0,0
13483,0.0,0.0,0.0,0,0,0,0
13493,0.0,0.0,0.0,0,0,0,0
13503,0.0,0.0,0.0,0,0,0,0
13513,0.0,0.0,0.0,0,0,0,0
13523,0.0,0.0,0.0,0,0,0,0
13533,0.0,0.0,0.0,0,0,0,0
13543,0.0,0.0,0.0,0,0,0,0
13553,0.0,0.0,0.0,0,0,0,0
13563,0.0,0.0,0.0,0,0,0,0
13573,0.0,0.0,0.0,0,0,0,0
13583,0.0,0.0,0.0,0,0,0,0
13593,0.0,0.0,0.0,0,0,0,0
13603,0.0,0.0,0.0,0,0,0,0
13613,0.0,0.0,0.0,0,0,0,0
13623,0.0,0.0,0.0,0,0,0,0
13633,0.0,0.0,0.0,0,0,0,0
13643,0.0,0.0,0.0,0,0,0,0
13653,0.0,0.0,0.0,0,0,0,0
13663,0.0,0.0,0.0,0,0,0,0
13673,0.0,0.0,0.0,0,0,0,0
13683,0.0,0.0,0.0,0,0,0,0
13693,0.0,0.0,0.0,0,0,0,0
13703,0.0,0.0,0.0,0,0,0,0
13713,0.0,0.0,0.0,0,0,0,0
13723,0.0,0.0,0.0,0,0,0,0
13733,0.0,0.0,0.0,0,0,0,0
13743,0.0,0.0,0.0,0,0,0,0
13753,0.0,0.0,0.0,0,0,0,0
13763,0.0,0.0,0.0,0,0,0,0
13773,0.0,0.0,0.0,0,0,0,0
13783,0.0,0.0,0.0,0,0,0,0
13793,0.0,0.0,0.0,0,0,0,0
13803,0.0,0.0,0.0,0,0,0,0
13813,0.0,0.0,0.0,0,0,0,0
13823,0.0,0.0,0.0,0,0,0,0
13833,0.0,0.0,0.0,0,0,0,0
13843,0.0,0.0,0.0,0,0,0,0
13853,0.0,0.0,0.0,0,0,0,0
13863,0.0,0.0,0.0,0,0,0,0
13873,0.0,0.0,0.0,0,0,0,0
13883,0.0,0.0,0.0,0,0,0,0
13893,0.0,0.0,0.0,0,0,0,0
13903,0.0,0.0,0.0,0,0,0,0
13913,0.0,0.0,0.0,0,0,0,0
13923,0.0,0.0,0.0,0,0,0,0
13933,0.0,0.0,0.0,0,0,0,0
13943,0.0,0.0,0.0,0,0,0,0
13953,0.0,0.0,0.0,0,0,0,0
13963,0.0,0.0,0.0,0,0,0,0
13973,0.0,0.0,0.0,0,0,0,0
13983,0.0,0.0,0.0,0,0,0,0
13993,0.0,0.0,0.0,0,0,0,0
14003,0.0,0.0,0.0,0,0,0,0
14013,0.0,0.0,0.0,0,0,0,0
14023,0.0,0.0,0.0,0,0,0,0
14033,0.0,0.0,0.0,0,0,0,0
14043,0.0,0.0,0.0,0,0,0,0
14053,0.0,0.0,0.0,0,0,0,0
14063,0.0,0.0,0.0,0,0,0,0
14073,0.0,0.0,0.0,0,0,0,0
14083,0.0,0.0,0.0,0,0,0,0
14093,0.0,0.0,0.0,0,0,0,0
14103,0.0,0.0,0.0,0,0,0,0
14113,0.0,0.0,0.0,0,0,0,0
14123,0.0,0.0,0.0,0,0,0,0
14133,0.0,0.0,0.0,0,0,0,0
14143,0.0,0.0,0.0,0,0,0,0
14153,0.0,0.0,0.0,0,0,0,0
14163,0.0,0.0,0.0,0,0,0,0
14173,0.0,0.0,0.0,0,0,0,0
14183,0.0,0.0,0.0,0,0,0,0
14193,0.0,0.0,0.0,0,0,0,0
14203,0.0,0.0,0.0,0,0,0,0
14213,0.0,0.0,0.0,0,0,0,0
14223,0.0,0.0,0.0,0,0,0,0
14233,0.0,0.0,0.0,0,0,0,0
14243,0.0,0.0,0.0,0,0,0,0
14253,0.0,0.0,0.0,0,0,0,0
14263,0.0,0.0,0.0,0,0,0,0
14273,0.0,0.0,0.0,0,0,0,0
14283,0.0,0.0,0.0,0,0,0,0
14293,0.0,0.0,0.0,0,0,0,0
14303,0.0,0.0,0.0,0,0,0,0
14313,0.0,0.0,0.0,0,0,0,0
14323,0.0,0.0,0.0,0,0,0,0
14333,0.0,0.0,0.0,0,0,0,0
14343,0.0,0.0,0.0,0,0,0,0
14353,0.0,0.0,0.0,0,0,0,0
14363,0.0,0.0,0.0,0,0,0,0
14373,0.0,0.0,0.0,0,0,0,0
14383,0.0,0.0,0.0,0,0,0,0
14393,0.0,0.0,0.0,0,0,0,0
14403,0.0,0.0,0.0,0,0,0,0
14413,0.0,0.0,0.0,0,0,0,0
14423,0.0,0.0,0.0,0,0,0,0
14433,0.0,0.0,0.0,0,0,0,0
14443,0.0,0.0,0.0,0,0,0,0
14453,0.0,0.0,0.0,0,0,0,0
14463,0.0,0.0,0.0,0,0,0,0
14473,0.0,0.0,0.0,0,0,0,0
14483,0.0,0.0,0.0,0,0,0,0
14493,0.0,0.0,0.0,0,0,0,0
14503,0.0,0.0,0.0,0,0,0,0
14513,0.0,0.0,0.0,0,0,0,0
14523,0.0,0.0,0.0,0,0,0,0
14533,0.0,0.0,0.0,0,0,0,0
14543,0.0,0.0,0.0,0,0,0,0
14553,0.0,0.0,0.0,0,0,0,0
14563,0.0,0.0,0.0,0,0,0,0
14573,0.0,0.0,0.0,0,0,0,0
14583,0.0,0.0,0.0,0,0,0,0
14593,0.0,0.0,0.0,0,0,0,0
14603,0.0,0.0,0.0,0,0,0,0
14613,0.0,0.0,0.0,0,0,0,0
14623,0.0,0.0,0.0,0,0,0,0
14633,0.0,0.0,0.0,0,0,0,0
14643,0.0,0.0,0.0,0,0,0,0
14653,0.0,0.0,0.0,0,0,0,0
14663,0.0,0.0,0.0,0,0,0,0
14673,0.0,0.0,0.0,0,0,0,0
14683,0.0,0.0,0.0,0,0,0,0
14693,0.0,0.0,0.0,0,0,0,0
14703,0.0,0.0,0.0,0,0,0,0
14713,0.0,0.0,0.0,0,0,0,0
14723,0.0,0.0,0.0,0,0,0,0
14733,0.0,0.0,0.0,0,0,0,0
14743,0.0,0.0,0.0,0,0,0,0
14753,0.0,0.0,0.0,0,0,0,0
14763,0.0,0.0,0.0,0,0,0,0
14773,0.0,0.0,0.0,0,0,0,0
14783,0.0,0.0,0.0,0,0,0,0
14793,0.0,0.0,0.0,0,0,0,0
14803,0.0,0.0,0.0,0,0,0,0
14813,0.0,0.0,0.0,0,0,0,0
14823,0.0,0.0,0.0,0,0,0,0
14833,0.0,0.0,0.0,0,0,0,0
14843,0.0,0.0,0.0,0,0,0,0
14853,0.0,0.0,0.0,0,0,0,0
14863,0.0,0.0,0.0,0,0,0,0
14873,0.0,0.0,0.0,0,0,0,0
14883,0.0,0.0,0.0,0,0,0,0
14893,0.0,0.0,0.0,0,0,0,0
14903,0.0,0.0,0.0,0,0,0,0
14913,0.0,0.0,0.0,0,0,0,0
14923,0.0,0.0,0.0,0,0,0,0
14933,0.0,0.0,0.0,0,0,0,0
14943,0.0,0.0,0.0,0,0,0,0
14953,0.0,0.0,0.0,0,0,0,0
14963,0.0,0.0,0.0,0,0,0,0
14973,0.0,0.0,0.0,0,0,0,0
14983,0.0,0.0,0.0,0,0,0,0
14993,0.0,0.0,0.0,0,0,0,0
15003,0.0,0.0,0.0,0,0,0,0
15013,0.0,0.0,0.0,0,0,0,0
15023,0.0,0.0,0.0,0,0,0,0
15033,0.0,0.0,0.0,0,0,0,0
15043,0.0,0.0,0.0,0,0,0,0
15053,0.0,0.0,0.0,0,0,0,0
15063,0.0,0.0,0.0,0,0,0,0
15073,0.0,0.0,0.0,0,0,0,0
15083,0.0,0.0,0.0,0,0,0,0
15093,0.0,0.0,0.0,0,0,0,0
15103,0.0,0.0,0.0,0,0,0,0
15113,0.0,0.0,0.0,0,0,0,0
15123,0.0,0.0,0.0,0,0,0,0
15133,0.0,0.0,0.0,0,0,0,0
15143,0.0,0.0,0.0,0,0,0,0
15153,0.0,0.0,0.0,0,0,0,0
15163,0.0,0.0,0.0,0,0,0,0
15173,0.0,0.0,0.0,0,0,0,0
15183,0.0,0.0,0.0,0,0,0,0
15193,0.0,0.0,0.0,0,0,0,0
15203,0.0,0.0,0.0,0,0,0,0
15213,0.0,0.0,0.0,0,0,0,0
15223,0.0,0.0,0.0,0,0,0,0
15233,0.0,0.0,0.0,0,0,0,0
15243,0.0,0.0,0.0,0,0,0,0
15253,0.0,0.0,0.0,0,0,0,0
15263,0.0,0.0,0.0,0,0,0,0
15273,0.0,0.0,0.0,0,0,0,0
15283,0.0,0.0,0.0,0,0,0,0
15293,0.0,0.0,0.0,0,0,0,0
15303,0.0,0.0,0.0,0,0,0,0
15313,0.0,0.0,0.0,0,0,0,0
15323,0.0,0.0,0.0,0,0,0,0
15333,0.0,0.0,0.0,0,0,0,0
15343,0.0,0.0,0.0,0,0,0,0
15353,0.0,0.0,0.0,0,0,0,0
15363,0.0,0.0,0.0,0,0,0,0
15373,0.0,0.0,0.0,0,0,0,0
15383,0.0,0.0,0.0,0,0,0,0
15393,0.0,0.0,0.0,0,0,0,0
15403,0.0,0.0,0.0,0,0,0,0
15413,0.0,0.0,0.0,0,0,0,0
15423,0.0,0.0,0.0,0,0,0,0
15433,0.0,0.0,0.0,0,0,0,0
15443,0.0,0.0,0.0,0,0,0,0
15453,0.0,0.0,0.0,0,0,0,0
15463,0.0,0.0,0.0,0,0,0,0
15473,0.0,0.0,0.0,0,0,0,0
15483,0.0,0.0,0.0,0,0,0,0
15493,0.0,0.0,0.0,0,0,0,0
15503,0.0,0.0,0.0,0,0,0,0
15513,0.0,0.0,0.0,0,0,0,0
15523,0.0,0.0,0.0,0,0,0,0
15533,0.0,0.0,0.0,0,0,0,0
15543,0.0,0.0,0.0,0,0,0,0
15553,0.0,0.0,0.0,0,0,0,0
15563,0.0,0.0,0.0,0,0,0,0
15573,0.0,0.0,0.0,0,0,0,0
15583,0.0,0.0,0.0,0,0,0,0
15593,0.0,0.0,0.0,0,0,0,0
15603,0.0,0.0,0.0,0,0,0,0
15613,0.0,0.0,0.0,0,0,0,0
15623,0.0,0.0,0.0,0,0,0,0
15633,0.0,0.0,0.0,0,0,0,0
15643,0.0,0.0,0.0,0,0,0,0
15653,0.0,0.0,0.0,0,0,0,0
15663,0.0,0.0,0.0,0,0,0,0
15673,0.0,0.0,0.0,0,0,0,0
15683,0.0,0.0,0.0,0,0,0,0
15693,0.0,0.0,0.0,0,0,0,0
15703,0.0,0.0,0.0,0,0,0,0
15713,0.0,0.0,0.0,0,0,0,0
15723,0.0,0.0,0.0,0,0,0,0
15733,0.0,0.0,0.0,0,0,0,0
15743,0.0,0.0,0.0,0,0,0,0
15753,0.0,0.0,0.0,0,0,0,0
15763,0.0,0.0,0.0,0,0,0,0
15773,0.0,0.0,0.0,0,0,0,0
15783,0.0,0.0,0.0,0,0,0,0
15793,0.0,0.0,0.0,0,0,0,0
15803,0.0,0.0,0.0,0,0,0,0
15813,0.0,0.0,0.0,0,0,0,0
15823,0.0,0.0,0.0,0,0,0,0
15833,0.0,0.0,0.0,0,0,0,0
15843,0.0,0.0,0.0,0,0,0,0
15853,0.0,0.0,0.0,0,0,0,0
15863,0.0,0.0,0.0,0,0,0,0
15873,0.0,0.0,0.0,0,0,0,0
15883,0.0,0.0,0.0,0,0,0,0
15893,0.0,0.0,0.0,0,0,0,0
15903,0.0,0.0,0.0,0,0,0,0
15913,0.0,0.0,0.0,0,0,0,0
15923,0.0,0.0,0.0,0,0,0,0
15933,0.0,0.0,0.0,0,0,0,0
15943,0.0,0.0,0.0,0,0,0,0
15953,0.0,0.0,0.0,0,0,0,0
15963,0.0,0.0,0.0,0,0,0,0
15973,0.0,0.0,0.0,0,0,0,0
15983,0.0,0.0,0.0,0,0,0,0
15993,0.0,0.0,0.0,0,0,0,0
16003,0.0,0.0,0.0,0,0,0,0
16013,0.0,0.0,0.0,0,0,0,0
16023,0.0,0.0,0.0,0,0,0,0
16033,0.0,0.0,0.0,0,0,0,0
16043,0.0,0.0,0.0,0,0,0,0
16053,0.0,0.0,0.0,0,0,0,0
16063,0.0,0.0,0.0,0,0,0,0
16073,0.0,0.0,0.0,0,0,0,0
16083,0.0,0.0,0.0,0,0,0,0
16093,0.0,0.0,0.0,0,0,0,0
16103,0.0,0.0,0.0,0,0,0,0
16113,0.0,0.0,0.0,0,0,0,0
16123,0.0,0.0,0.0,0,0,0,0
16133,0.0,0.0,0.0,0,0,0,0
16143,0.0,0.0,0.0,0,0,0,0
16153,0.0,0.0,0.0,0,0,0,0
16163,0.0,0.0,0.0,0,0,0,0
16173,0.0,0.0,0.0,0,0,0,0
16183,0.0,0.0,0.0,0,0,0,0
16193,0.0,0.0,0.0,0,0,0,0
16203,0.0,0.0,0.0,0,0,0,0
16213,0.0,0.0,0.0,0,0,0,0
16223,0.0,0.0,0.0,0,0,0,0
16233,0.0,0.0,0.0,0,0,0,0
16243,0.0,0.0,0.0,0,0,0,0
16253,0.0,0.0,0.0,0,0,0,0
16263,0.0,0.0,0.0,0,0,0,0
16273,0.0,0.0,0.0,0,0,0,0
16283,0.0,0.0,0.0,0,0,0,0
16293,0.0,0.0,0.0,0,0,0,0
16303,0.0,0.0,0.0,0,0,0,0
16313,0.0,0.0,0.0,0,0,0,0
16323,0.0,0.0,0.0,0,0,0,0
16333,0.0,0.0,0.0,0,0,0,0
16343,0.0,0.0,0.0,0,0,0,0
16353,0.0,0.0,0.0,0,0,0,0
16363,0.0,0.0,0.0,0,0,0,0
16373,0.0,0.0,0.0,0,0,0,0
16383,0.0,0.0,0.0,0,0,0,0
16393,0.0,0.0,0.0,0,0,0,0
16403,0.0,0.0,0.0,0,0,0,0
16413,0.0,0.0,0.0,0,0,0,0
16423,0.0,0.0,0.0,0,0,0,0
16433,0.0,0.0,0.0,0,0,0,0
16443,0.0,0.0,0.0,0,0,0,0
16453,0.0,0.0,0.0,0,0,0,0
16463,0.0,0.0,0.0,0,0,0,0
16473,0.0,0.0,0.0,0,0,0,0
16483,0.0,0.0,0.0,0,0,0,0
16493,0.0,0.0,0.0,0,0,0,0
16503,0.0,0.0,0.0,0,0,0,0
16513,0.0,0.0,0.0,0,0,0,0
16523,0.0,0.0,0.0,0,0,0,0
16533,0.0,0.0,0.0,0,0,0,0
16543,0.0,0.0,0.0,0,0,0,0
16553,0.0,0.0,0.0,0,0,0,0
16563,0.0,0.0,0.0,0,0,0,0
16573,0.0,0.0,0.0,0,0,0,0
16583,0.0,0.0,0.0,0,0,0,0
16593,0.0,0.0,0.0,0,0,0,0
16603,0.0,0.0,0.0,0,0,0,0
16613,0.0,0.0,0.0,0,0,0,0
16623,0.0,0.0,0.0,0,0,0,0
16633,0.0,0.0,0.0,0,0,0,0
16643,0.0,0.0,0.0,0,0,0,0
16653,0.0,0.0,0.0,0,0,0,0
16663,0.0,0.0,0.0,0,0,0,0
16673,0.0,0.0,0.0,0,0,0,0
16683,0.0,0.0,0.0,0,0,0,0
16693,0.0,0.0,0.0,0,0,0,0
16703,0.0,0.0,0.0,0,0,0,0
16713,0.0,0.0,0.0,0,0,0,0
16723,0.0,0.0,0.0,0,0,0,0
16733,0.0,0.0,0.0,0,0,0,0
16743,0.0,0.0,0.0,0,0,0,0
16753,0.0,0.0,0.0,0,0,0,0
16763,0.0,0.0,0.0,0,0,0,0
16773,0.0,0.0,0.0,0,0,0,0
16783,0.0,0.0,0.0,0,0,0,0
16793,0.0,0.0,0.0,0,0,0,0
16803,0.0,0.0,0.0,0,0,0,0
16813,0.0,0.0,0.0,0,0,0,0
16823,0.0,0.0,0.0,0,0,0,0
16833,0.0,0.0,0.0,0,0,0,0
16843,0.0,0.0,0.0,0,0,0,0
16853,0.0,0.0,0.0,0,0,0,0
16863,0.0,0.0,0.0,0,0,0,0
16873,0.0,0.0,0.0,0,0,0,0
16883,0.0,0.0,0.0,0,0,0,0
16893,0.0,0.0,0.0,0,0,0,0
16903,0.0,0.0,0.0,0,0,0,0
16913,0.0,0.0,0.0,0,0,0,0
16923,0.0,0.0,0.0,0,0,0,0
16933,0.0,0.0,0.0,0,0,0,0
16943,0.0,0.0,0.0,0,0,0,0
16953,0.0,0.0,0.0,0,0,0,0
16963,0.0,0.0,0.0,0,0,0,0
16973,0.0,0.0,0.0,0,0,0,0
16983,0.0,0.0,0.0,0,0,0,0
16993,0.0,0.0,0.0,0,0,0,0
17003,0.0,0.0,0.0,0,0,0,0
17013,0.0,0.0,0.0,0,0,0,0
17023,0.0,0.0,0.0,0,0,0,0
17033,0.0,0.0,0.0,0,0,0,0
17043,0.0,0.0,0.0,0,0,0,0
17053,0.0,0.0,0.0,0,0,0,0
17063,0.0,0.0,0.0,0,0,0,0
17073,0.0,0.0,0.0,0,0,0,0
17083,0.0,0.0,0.0,0,0,0,0
17093,0.0,0.0,0.0,0,0,0,0
17103,0.0,0.0,0.0,0,0,0,0
17113,0.0,0.0,0.0,0,0,0,0
17123,0.0,0.0,0.0,0,0,0,0
17133,0.0,0.0,0.0,0,0,0,0
17143,0.0,0.0,0.0,0,0,0,0
17153,0.0,0.0,0.0,0,0,0,0
17163,0.0,0.0,0.0,0,0,0,0
17173,0.0,0.0,0.0,0,0,0,0
17183,0.0,0.0,0.0,0,0,0,0
17193,0.0,0.0,0.0,0,0,0,0
17203,0.0,0.0,0.0,0,0,0,0
17213,0.0,0.0,0.0,0,0,0,0
17223,0.0,0.0,0.0,0,0,0,0
17233,0.0,0.0,0.0,0,0,0,0
17243,0.0,0.0,0.0,0,0,0,0
17253,0.0,0.0,0.0,0,0,0,0
17263,-0.005434154532849789,-0.026557667180895805,-0.00023970309121068567,0,0,0,0
17273,0.041653476655483246,-0.013885274529457092,-0.0002617775462567806,0,0,0,0
17283,-0.20166447758674622,0.01726403459906578,-0.0005849680164828897,0,0,0,0
17293,0.014087911695241928,-0.09032614529132843,0.0007150211604312062,0,0,0,0
17303,0.17491891980171204,-0.045923106372356415,0.0010279507841914892,0,0,0,0
17313,-0.1268094778060913,-0.02743428573012352,0.00029460000223480165,0,0,0,0
17323,-1.052632212638855,0.424823135137558,0.004550093784928322,0,0,0,0
17333,-1.4084950685501099,-0.36934176087379456,-0.002757254522293806,0,0,0,0
17343,-1.463181495666504,-0.7743831872940063,-0.005300793331116438,0,0,0,0
17353,-1.3808122873306274,-0.4986906051635742,-0.0021420163102447987,0,0,0,0
17363,-1.2963664531707764,-0.6451075673103333,-0.002111326903104782,0,0,0,0
17373,-2.0765984058380127,-1.2589882612228394,-0.016333693638443947,0,0,0,0
17383,-1.8678795099258423,-1.1385979652404785,-0.012557662092149258,0,0,0,0
17393,-1.7179713249206543,-1.1195859909057617,-0.01097963284701109,0,0,0,0
17403,-1.5285557508468628,-0.9952008724212646,-0.007129670586436987,0,0,0,0
17413,-1.3531752824783325,-2.161458969116211,-0.00660757627338171,0,0,0,0
17423,-0.9453859329223633,-2.2178051471710205,0.003607176011428237,0,0,0,0
17433,-0.7239441871643066,-1.7197824716567993,0.007259974721819162,0,0,0,0
17443,-0.47897660732269287,-1.697656512260437,0.01256877277046442,0,0,0,0
17453,-0.4505157768726349,-1.197965383529663,0.009959835559129715,0,0,0,0
17463,0.40293416380882263,-2.126568078994751,0.04086338356137276,0,0,0,0
17473,0.43042969703674316,-1.8112913370132446,0.03842519223690033,0,0,0,0
17483,0.5866523385047913,-1.3948308229446411,0.03674282878637314,0,0,0,0
17493,0.20498071610927582,-1.3216427564620972,0.027802199125289917,0,0,0,0
17503,0.20148876309394836,-0.20651645958423615,0.02149653062224388,0,0,0,0
17513,0.19651035964488983,-0.23843111097812653,0.02285720780491829,0,0,0,0
17523,0.19604821503162384,-0.2383272498846054,0.023508332669734955,0,0,0,0
17533,0.016302304342389107,-0.051159780472517014,0.020258178934454918,0,0,0,0
17543,0.7076572179794312,0.6362841725349426,0.02430896833539009,0,0,0,0
17553,1.2640013694763184,0.8429418802261353,0.024080008268356323,0,0,0,0
17563,1.290291428565979,0.9449836015701294,0.023949798196554184,0,0,0,0
17573,1.1631996631622314,0.889678955078125,0.02560167945921421,0,0,0,0
17583,1.162510871887207,0.8871585130691528,0.025039076805114746,0,0,0,0
17593,0.9627012610435486,0.8692158460617065,0.02685272879898548,0,0,0,0
17603,0.9627974033355713,0.8694568872451782,0.026687990874052048,0,0,0,0
17613,0.8089165091514587,1.038722276687622,0.03027983382344246,0,0,0,0
17623,0.7464077472686768,0.8640554547309875,0.029501715674996376,0,0,0,0
17633,0.7465605735778809,0.8624935746192932,0.02936485968530178,0,0,0,0
17643,0.5421380996704102,0.8454453945159912,0.0327761247754097,0,0,0,0
17653,0.4348718822002411,0.8315856456756592,0.03549566864967346,0,0,0,0
17663,0.43404659628868103,0.7854781150817871,0.03387584537267685,0,0,0,0
17673,0.005231527145951986,0.7742499113082886,0.04317999258637428,0,0,0,0
17683,0.007086180150508881,0.7717094421386719,0.04418196901679039,0,0,0,0
17693,-0.01747080683708191,0.8857457637786865,0.04549290984869003,0,0,0,0
17703,-0.039135780185461044,0.8061205148696899,0.04278508946299553,0,0,0,0
17713,0.023072782903909683,0.9347830414772034,0.04318297654390335,0,0,0,0
17723,-0.38381192088127136,0.7765378952026367,0.05291964113712311,0,0,0,0
17733,-0.13638004660606384,0.8467679619789124,0.04650786891579628,0,0,0,0
17743,-0.07265153527259827,0.9315639138221741,0.04571095481514931,0,0,0,0
17753,-0.04067780077457428,0.8366028070449829,0.04214917868375778,0,0,0,0
17763,-0.041073355823755264,0.8345984220504761,0.04276762530207634,0,0,0,0
17773,0.059696223586797714,0.5717600584030151,0.036675360053777695,0,0,0,0
17783,0.06001019850373268,0.5700085759162903,0.03601962700486183,0,0,0,0
17793,0.07690024375915527,0.7260101437568665,0.038508474826812744,0,0,0,0
17803,0.08918288350105286,0.6008927822113037,0.0369303897023201,0,0,0,0
17813,0.08944599330425262,0.5994831323623657,0.036893729120492935,0,0,0,0
17823,0.43740779161453247,0.10058946907520294,0.020650377497076988,0,0,0,0
17834,0.39263811707496643,0.19679217040538788,0.023324765264987946,0,0,0,0
17843,0.32859015464782715,0.23883461952209473,0.02624441310763359,0,0,0,0
17853,0.32859015464782715,0.23883461952209473,0.02624441310763359,0,0,0,0
17863,0.6517083048820496,0.4503154754638672,0.018504487350583076,0,0,0,0
17873,0.6679393649101257,0.28946059942245483,0.017304854467511177,0,0,0,0
17883,0.6814829111099243,0.3597901165485382,0.017162714153528214,0,0,0,0
17893,0.540298342704773,0.3098068833351135,0.020904744043946266,0,0,0,0
17903,0.6299125552177429,0.06623388826847076,0.014941381290555,0,0,0,0
17913,0.5694093108177185,0.2022731602191925,0.017606182023882866,0,0,0,0
17923,0.4963705837726593,0.17218872904777527,0.019272595643997192,0,0,0,0
17933,0.4300133287906647,0.17822633683681488,0.020096728578209877,0,0,0,0
17943,0.6952119469642639,-0.04461115226149559,0.011087227612733841,0,0,0,0
17953,1.1223058700561523,-0.4840899109840393,-0.002538346452638507,0,0,0,0
17963,1.0724704265594482,-0.3803459405899048,-0.0006848878692835569,0,0,0,0
17973,1.0715255737304688,-0.380890429019928,-0.001569150248542428,0,0,0,0
17983,1.0707714557647705,-0.38240358233451843,-0.0009721346432343125,0,0,0,0
17993,1.0112378597259521,-0.2738836407661438,0.0022719656117260456,0,0,0,0
18003,1.349218726158142,-0.3700287938117981,-0.0025528636761009693,0,0,0,0
18013,1.2537899017333984,-0.20167160034179688,0.0020080378744751215,0,0,0,0
18023,1.1328152418136597,-0.20755499601364136,0.002041405299678445,0,0,0,0
18033,1.3229129314422607,-0.3454815149307251,-0.003525066189467907,0,0,0,0
18043,1.1837186813354492,-0.30491316318511963,-0.003625482553616166,0,0,0,0
18053,1.0557583570480347,-0.22414833307266235,-0.001129624550230801,0,0,0,0
18063,0.8979801535606384,-0.10939089953899384,0.0026527049485594034,0,0,0,0
18073,1.1426576375961304,-0.04369382560253143,0.00579843670129776,0,0,0,0
18083,1.1424989700317383,-0.04404841735959053,0.005871041677892208,0,0,0,0
18093,1.0109626054763794,0.021063238382339478,0.007770441938191652,0,0,0,0
18103,0.8906703591346741,0.047754835337400436,0.01001528836786747,0,0,0,0
18113,0.8900031447410583,0.04642781987786293,0.00962444394826889,0,0,0,0
18123,0.82962566614151,-0.04105077311396599,0.005803022533655167,0,0,0,0
18133,0.5157737135887146,-0.2665356993675232,-0.006029036827385426,0,0,0,0
18143,0.44390732049942017,-0.11315575242042542,0.0008240569732151926,0,0,0,0
18153,0.2934025526046753,-0.08542071282863617,0.0017324629006907344,0,0,0,0
18163,0.2988917827606201,0.08381908386945724,0.009227117523550987,0,0,0,0
18173,0.2275017648935318,0.1404261738061905,0.010412863455712795,0,0,0,0
18183,0.13482962548732758,0.1375407725572586,0.010297907516360283,0,0,0,0
18193,0.023824265226721764,0.20321235060691833,0.012564838863909245,0,0,0,0
18203,0.023824265226721764,0.20321235060691833,0.012564838863909245,0,0,0,0
18213,-0.04630136117339134,0.32076987624168396,0.016406457871198654,0,0,0,0
18223,-0.14445093274116516,0.37456169724464417,0.018474185839295387,0,0,0,0
18233,-0.14460326731204987,0.37159228324890137,0.01886715739965439,0,0,0,0
18243,-0.11282416433095932,0.5190762877464294,0.02216394431889057,0,0,0,0
18253,-0.24251553416252136,0.5187951922416687,0.0236811563372612,0,0,0,0
18263,-0.290721595287323,0.5570133328437805,0.02624995820224285,0,0,0,0
18273,-0.2688727378845215,0.6301335096359253,0.025897467508912086,0,0,0,0
18283,-0.3120020031929016,0.6231394410133362,0.02680543251335621,0,0,0,0
18293,-0.31086987257003784,0.6214811205863953,0.026427308097481728,0,0,0,0
18303,-0.39303529262542725,0.6535094380378723,0.029404595494270325,0,0,0,0
18313,-0.39175382256507874,0.6524214744567871,0.028330232948064804,0,0,0,0
18323,-0.39175382256507874,0.6524214744567871,0.028330232948064804,0,0,0,0
18333,-0.4177565574645996,0.7251628637313843,0.02810470201075077,0,0,0,0
18343,-0.3699284493923187,0.7922541499137878,0.025616507977247238,0,0,0,0
18353,-0.36935263872146606,0.7896717190742493,0.025420701131224632,0,0,0,0
18363,-0.39697250723838806,0.8254015445709229,0.02575572021305561,0,0,0,0
18373,-0.4076821804046631,0.8459499478340149,0.025165623053908348,0,0,0,0
18383,-0.4076821804046631,0.8459499478340149,0.025165623053908348,0,0,0,0
18393,-0.7806254625320435,0.617168128490448,0.04491546377539635,0,0,0,0
18403,-0.8414345383644104,0.6485486626625061,0.046196725219488144,0,0,0,0
18413,-0.7295573949813843,0.7403103113174438,0.03893659636378288,0,0,0,0
18423,-0.7800566554069519,0.6865757703781128,0.04274946451187134,0,0,0,0
18433,-0.7800566554069519,0.6865757703781128,0.04274946451187134,0,0,0,0
18443,-0.7105354070663452,0.7507157921791077,0.038321927189826965,0,0,0,0
18453,-0.7105354070663452,0.7507157921791077,0.038321927189826965,0,0,0,0
18463,-0.7285345196723938,0.8055717349052429,0.03741955757141113,0,0,0,0
18473,-0.7285345196723938,0.8055717349052429,0.03741955757141113,0,0,0,0
18483,-0.5103251338005066,1.439820647239685,-0.004101344849914312,0,0,0,0
18493,-0.46333882212638855,1.423326849937439,-0.005685608368366957,0,0,0,0
18503,-0.46333882212638855,1.423326849937439,-0.005685608368366957,0,0,0,0
18513,-0.5349516272544861,1.415567398071289,0.0017651676898822188,0,0,0,0
18523,-0.3147936463356018,1.5718210935592651,-0.02281259186565876,0,0,0,0
18533,-0.2492033839225769,1.4169533252716064,-0.019515380263328552,0,0,0,0
18543,-0.2492033839225769,1.4169533252716064,-0.019515380263328552,0,0,0,0
18553,-0.23228983581066132,1.3771418333053589,-0.018937326967716217,0,0,0,0
18563,-0.2733176052570343,1.3055856227874756,-0.012195943854749203,0,0,0,0
18573,-0.23932883143424988,1.0154554843902588,-0.002113661728799343,0,0,0,0
18583,-0.23424994945526123,1.0013035535812378,-0.0008352109580300748,0,0,0,0
18593,-0.23433323204517365,1.0014615058898926,-0.0014545682352036238,0,0,0,0
18604,-0.23433323204517365,1.0014615058898926,-0.0014545682352036238,0,0,0,0
18613,-0.11344313621520996,1.1719661951065063,-0.01815626583993435,0,0,0,0
18623,-0.13231591880321503,1.2147598266601562,-0.02061043493449688,0,0,0,0
18633,-0.18702048063278198,1.1312942504882812,-0.013828759081661701,0,0,0,0
18643,-0.1870126575231552,1.1300005912780762,-0.01262579020112753,0,0,0,0
18653,-0.1870126575231552,1.1300005912780762,-0.01262579020112753,0,0,0,0
18663,-0.3196641206741333,1.089260458946228,0.0010537237394601107,0,0,0,0
18674,-0.3257436156272888,1.0749398469924927,0.0011820454383268952,0,0,0,0
18683,-0.3257436156272888,1.0749398469924927,0.0011820454383268952,0,0,0,0
18694,-0.3675827085971832,1.0616928339004517,0.004492431413382292,0,0,0,0
18703,-0.3551981747150421,1.121848702430725,0.0009982092306017876,0,0,0,0
18713,-0.42760327458381653,1.42202889919281,-0.0033384165726602077,0,0,0,0
18723,-0.42760327458381653,1.42202889919281,-0.0033384165726602077,0,0,0,0
18733,-0.42344292998313904,1.439652442932129,0.0020266203209757805,0,0,0,0
18743,-0.4687701165676117,1.3335340023040771,0.0020266203209757805,0,0,0,0
18753,-0.5985749363899231,1.2185200452804565,0.017199138179421425,0,0,0,0
18763,-0.597210168838501,1.2164857387542725,0.017492275685071945,0,0,0,0
18774,-0.597210168838501,1.2164857387542725,0.017492275685071945,0,0,0,0
18783,-0.620091438293457,1.17903470993042,0.021056536585092545,0,0,0,0
18794,-0.6191672682762146,1.1785215139389038,0.021019326522946358,0,0,0,0
18804,-0.5697336792945862,0.9400076270103455,0.026995431631803513,0,0,0,0
18814,-0.5818502306938171,0.8568717241287231,0.031246505677700043,0,0,0,0
18824,-0.6189079880714417,0.8497009873390198,0.03431365266442299,0,0,0,0
18834,-0.6361390352249146,0.8372148275375366,0.03507388383150101,0,0,0,0
18844,-0.6290503144264221,0.8281064033508301,0.03643917664885521,0,0,0,0
18854,-0.6458569169044495,0.8199730515480042,0.0373627245426178,0,0,0,0
18864,-0.6452848315238953,0.8194645643234253,0.03679390251636505,0,0,0,0
18874,-0.6620226502418518,0.813562273979187,0.03812559321522713,0,0,0,0
18883,-0.5121928453445435,0.4703374207019806,0.043431226164102554,0,0,0,0
18894,-0.5121928453445435,0.4703374207019806,0.043431226164102554,0,0,0,0
18904,-0.49801212549209595,0.523607611656189,0.0402105376124382,0,0,0,0
18914,-0.5234077572822571,0.4706885814666748,0.04431658610701561,0,0,0,0
18924,-0.4854011833667755,0.5342288017272949,0.03921077772974968,0,0,0,0
18934,-0.4229772984981537,0.5450602173805237,0.03542887791991234,0,0,0,0
18944,-0.5614019632339478,0.5315694808959961,0.04124220833182335,0,0,0,0
18954,-0.5674003958702087,0.5300089120864868,0.041061121970415115,0,0,0,0
18964,-0.5851391553878784,0.5414935350418091,0.03911566734313965,0,0,0,0
18974,-0.5657457113265991,0.6008259654045105,0.03479888662695885,0,0,0,0
18984,-0.5479819774627686,0.9268045425415039,0.02195168100297451,0,0,0,0
18994,-0.5409765243530273,0.9719449281692505,0.0204548891633749,0,0,0,0
19004,-0.5320889353752136,0.9352338314056396,0.020717106759548187,0,0,0,0
19014,-0.7238794565200806,1.2285670042037964,0.017400460317730904,0,0,0,0
19024,-0.8648533821105957,1.0778567790985107,0.027686581015586853,0,0,0,0
19033,-0.8648533821105957,1.0778567790985107,0.027686581015586853,0,0,0,0
19044,-0.8634716272354126,1.0752599239349365,0.02684403769671917,0,0,0,0
19054,-0.8108002543449402,1.0456429719924927,0.02546965330839157,0,0,0,0
19064,-0.9041889309883118,1.006106972694397,0.03113088384270668,0,0,0,0
19074,-0.8257502913475037,1.0512527227401733,0.026157882064580917,0,0,0,0
19084,-0.8121836185455322,0.9877067804336548,0.02755577489733696,0,0,0,0
19094,-0.77506422996521,0.9999788999557495,0.02769511565566063,0,0,0,0
19103,-0.7747853994369507,0.9420397281646729,0.02993985265493393,0,0,0,0
19114,-0.774355947971344,0.9405834674835205,0.029564449563622475,0,0,0,0
19124,-0.760804295539856,0.9537827968597412,0.02948589436709881,0,0,0,0
19134,-0.7360714077949524,0.8487109541893005,0.03418957069516182,0,0,0,0
19144,-0.7833601236343384,0.8452399969100952,0.03555937483906746,0,0,0,0
19153,-0.7454395890235901,0.8192320466041565,0.0348212793469429,0,0,0,0
19164,-0.6705889105796814,0.8169525861740112,0.032399289309978485,0,0,0,0
19174,-0.6705889105796814,0.8169525861740112,0.032399289309978485,0,0,0,0
19185,-0.6642392873764038,0.7918909192085266,0.03460286185145378,0,0,0,0
19194,-0.7183597683906555,0.8255903720855713,0.03418910875916481,0,0,0,0
19204,-0.6823667883872986,0.7636258006095886,0.03496532142162323,0,0,0,0
19214,-0.6493558287620544,0.7882035374641418,0.032623663544654846,0,0,0,0
19224,-0.6493558287620544,0.7882035374641418,0.032623663544654846,0,0,0,0
19233,-0.6625311374664307,0.6836129426956177,0.038086842745542526,0,0,0,0
19245,-0.711564302444458,0.6888550519943237,0.04127509146928787,0,0,0,0
19253,-0.711564302444458,0.6888550519943237,0.04127509146928787,0,0,0,0
19265,-0.7113431096076965,0.6878337860107422,0.041180744767189026,0,0,0,0
19276,-0.8541792035102844,0.9385082721710205,0.0352301299571991,0,0,0,0
19285,-0.8541792035102844,0.9385082721710205,0.0352301299571991,0,0,0,0
19294,-0.9388275146484375,0.7945924401283264,0.041377902030944824,0,0,0,0
19305,-0.9379427433013916,0.7925986647605896,0.0415753498673439,0,0,0,0
19315,-0.9542682766914368,0.7658208608627319,0.042496807873249054,0,0,0,0
19325,-0.8284472227096558,0.7791486382484436,0.04021134227514267,0,0,0,0
19334,-0.5358090400695801,0.4877479374408722,0.048141688108444214,0,0,0,0
19345,-0.5358090400695801,0.4877479374408722,0.048141688108444214,0,0,0,0
19355,-0.5147688984870911,0.49697232246398926,0.047434449195861816,0,0,0,0
19365,-0.4564547836780548,0.5045232772827148,0.046145424246788025,0,0,0,0
19375,-0.04888284578919411,0.460153192281723,0.045039378106594086,0,0,0,0
19383,0.03469299525022507,0.3349270820617676,0.048850640654563904,0,0,0,0
19395,0.0347617082297802,0.3344516158103943,0.0488995686173439,0,0,0,0
19403,0.073826365172863,0.35400187969207764,0.05032160505652428,0,0,0,0
19413,-0.032566849142313004,0.502510666847229,0.04682745784521103,0,0,0,0
19423,-0.06719029694795609,0.320330411195755,0.05017454922199249,0,0,0,0
19433,-0.09625683724880219,0.440021812915802,0.047437041997909546,0,0,0,0
19443,-0.1366044133901596,0.41671013832092285,0.047497570514678955,0,0,0,0
19453,-0.13581261038780212,0.41533172130584717,0.048039648681879044,0,0,0,0
19463,-0.2021629959344864,0.3543398082256317,0.04832463338971138,0,0,0,0
19475,-0.2077973335981369,0.4631853699684143,0.04869953170418739,0,0,0,0
19483,-0.2077973335981369,0.4631853699684143,0.04869953170418739,0,0,0,0
19493,-0.19170840084552765,0.4746212363243103,0.04912509024143219,0,0,0,0
19503,-0.21372424066066742,0.6087997555732727,0.048416294157505035,0,0,0,0
19515,-0.1618824005126953,0.8684093356132507,0.04897896572947502,0,0,0,0
19523,-0.12586435675621033,0.8797392249107361,0.04970163479447365,0,0,0,0
19533,-0.22003594040870667,0.8538427352905273,0.0487239733338356,0,0,0,0
19543,-0.183693528175354,0.8412660360336304,0.04931749030947685,0,0,0,0
19553,-0.22889074683189392,0.8740339875221252,0.04881114140152931,0,0,0,0
19563,-0.22766907513141632,0.8715944886207581,0.048895686864852905,0,0,0,0
19573,-0.25992482900619507,0.8539068698883057,0.04939086735248566,0,0,0,0
19583,-0.3252575993537903,0.8274585604667664,0.04953064024448395,0,0,0,0
19593,-0.17666380107402802,0.9295390844345093,0.051042452454566956,0,0,0,0
19603,-0.29496899247169495,0.8740618824958801,0.04991943761706352,0,0,0,0
19613,-0.33438578248023987,0.8110842704772949,0.049456652253866196,0,0,0,0
19625,-0.347583532333374,0.8210972547531128,0.049800191074609756,0,0,0,0
19633,-0.3173743784427643,0.764743983745575,0.048975419253110886,0,0,0,0
19643,-0.31731274724006653,0.763411283493042,0.04843415319919586,0,0,0,0
19653,-0.28580722212791443,0.753137469291687,0.04804845526814461,0,0,0,0
19663,-0.3388678729534149,0.7344679236412048,0.04767199605703354,0,0,0,0
19673,-0.35130956768989563,0.6930888295173645,0.04695244878530502,0,0,0,0
19683,-0.36215391755104065,0.7339726090431213,0.04739425331354141,0,0,0,0
19693,-0.3850019872188568,0.7147854566574097,0.04828609526157379,0,0,0,0
19703,-0.2939806282520294,0.7531672716140747,0.04867389798164368,0,0,0,0
19713,-0.5794360041618347,0.6897544860839844,0.04817620664834976,0,0,0,0
19723,-0.40886473655700684,0.6516957879066467,0.04618627205491066,0,0,0,0
19733,-0.580480694770813,0.6384045481681824,0.04646202176809311,0,0,0,0
19743,-0.6295257210731506,0.5932497382164001,0.045412175357341766,0,0,0,0
19753,-0.6101926565170288,0.5854447484016418,0.04575888812541962,0,0,0,0
19763,-0.6250963807106018,0.5985321402549744,0.04620642587542534,0,0,0,0
19773,-0.6240530014038086,0.5966559052467346,0.046425629407167435,0,0,0,0
19783,-0.5923087000846863,0.5858696103096008,0.046466995030641556,0,0,0,0
19796,-0.6112934350967407,0.5797840356826782,0.04575882479548454,0,0,0,0
19803,-0.6112934350967407,0.5797840356826782,0.04575882479548454,0,0,0,0
19813,-0.49082890152931213,0.5950685739517212,0.04480164125561714,0,0,0,0
19823,-0.5808227062225342,0.5849676132202148,0.04484998434782028,0,0,0,0
19833,-0.5800731182098389,0.5835789442062378,0.044708117842674255,9362,9362,9362,9362
19845,-0.6940533518791199,0.4084751307964325,0.044247448444366455,9362,9362,9362,9362
19853,-0.6652483344078064,0.47102364897727966,0.04308036342263222,9362,9362,9362,9362
19863,-0.6629893779754639,0.4702610671520233,0.04269178584218025,9362,9362,9362,9362
19874,-0.8995218873023987,0.7428545951843262,0.03985324874520302,9362,9362,9362,9362
19884,-0.8929980397224426,0.6976522207260132,0.0397053100168705,9362,9362,9362,9362
19894,-0.8626450300216675,0.6796343922615051,0.0412185974419117,9362,9362,9362,9362
19904,-0.976048469543457,0.4804050028324127,0.042911410331726074,9362,9362,9362,9362
19914,-0.8282806277275085,0.6073753833770752,0.04122874140739441,9362,9362,9362,9362
19923,-0.7498099207878113,0.6856709718704224,0.04096775874495506,9362,9362,9362,9362
19933,-0.6899611949920654,0.7422649264335632,0.04290412738919258,9362,9362,9362,9362
19943,-0.6097078919410706,0.6433125138282776,0.04340151324868202,9362,9362,9362,9362
19953,-0.655112624168396,0.6620753407478333,0.037263453006744385,9362,9362,9362,9362
19963,-0.6023070216178894,0.6746203899383545,0.0453864187002182,9362,9362,9362,9362
19973,-0.634435772895813,0.6531389355659485,0.03786122798919678,9362,9362,9362,9362
19983,-0.5602785348892212,0.6502960324287415,0.042631156742572784,9362,9362,9362,9362
19993,-0.3445165753364563,0.45929306745529175,0.04697089642286301,9362,9362,9362,9362
20003,-0.44035908579826355,0.4631708562374115,0.04280654713511467,9362,9362,9362,9362
20013,-0.4020537734031677,0.48761314153671265,0.04945102706551552,9362,9362,9362,9362
20023,-0.4286445379257202,0.45431241393089294,0.042356085032224655,9362,9362,9362,9362
20034,-0.44616374373435974,0.47827500104904175,0.04717879369854927,9362,9362,9362,9362
20044,-0.3877425193786621,0.3830273449420929,0.045389894396066666,9362,9362,9362,9362
20054,-0.34785327315330505,0.4200376272201538,0.0358382947742939,9362,9362,9362,9362
20064,-0.37219759821891785,0.4359566569328308,0.044602107256650925,9362,9362,9362,9362
20073,-0.3465881645679474,0.3532411456108093,0.03286329656839371,9362,9362,9362,9362
20083,-0.35768967866897583,0.3548372983932495,0.03313042223453522,9362,9362,9362,9362
20093,-0.35492461919784546,0.35212385654449463,0.03834877908229828,9362,9362,9362,9362
20103,-0.2791263461112976,0.3762472867965698,0.03545891493558884,9362,9362,9362,9362
20113,-0.2877359986305237,0.3741661608219147,0.027531318366527557,9362,9362,9362,9362
20123,-0.3405630886554718,0.6301856637001038,0.023811468854546547,9362,9362,9362,9362
20133,-0.3348856270313263,0.6264553070068359,0.027799297124147415,9362,9362,9362,9362
20143,-0.26623594760894775,0.6080685257911682,0.026327190920710564,9362,9362,9362,9362
20153,-0.3233148455619812,0.5584059953689575,0.020658468827605247,9362,9362,9362,9362
20163,-0.326473593711853,0.5586378574371338,0.01209099031984806,9362,9362,9362,9362
20173,-0.38761550188064575,0.6358029842376709,0.009356632828712463,9362,9362,9362,9362
20183,-0.31233036518096924,0.5758679509162903,0.006580795627087355,9362,9362,9362,9362
20193,-0.3042975068092346,0.5206236839294434,0.009455435909330845,9362,9362,9362,9362
20203,-0.28930699825286865,0.4902862012386322,0.006246300879865885,9362,9362,9362,9362
20213,-0.2284548133611679,0.5860973000526428,0.010081837885081768,9362,9362,9362,9362
20223,-0.25691670179367065,0.45560023188591003,0.004800077527761459,9362,9362,9362,9362
20233,-0.27247828245162964,0.44528087973594666,0.006358844228088856,9362,9362,9362,9362
20243,-0.20125477015972137,0.45152509212493896,0.003920035436749458,9362,9362,9362,9362
20253,-0.2287481129169464,0.2757340669631958,0.0007022091886028647,9362,9362,9362,9362
20263,-0.2229127734899521,0.26472586393356323,0.0012764325365424156,9362,9362,9362,9362
20273,-0.24026109278202057,0.20557881891727448,-9.721210517454892e-05,9362,9362,9362,9362
20283,-0.2100498527288437,0.20604312419891357,-0.00040447438368573785,9362,9362,9362,9362
20293,-0.2280363142490387,0.21153198182582855,7.539644138887525e-05,9362,9362,9362,9362
20303,-0.16006295382976532,0.06908752024173737,-0.0026004936080425978,9362,9362,9362,9362
20313,-0.13727296888828278,0.1103842556476593,0.000892584037501365,9362,9362,9362,9362
20323,-0.20730654895305634,0.08556874841451645,-0.0043762922286987305,9362,9362,9362,9362
20333,-0.20636174082756042,0.08248390257358551,-0.002059993799775839,9362,9362,9362,9362
20343,-0.3947784900665283,0.3466137945652008,-0.009786770679056644,61176,59768,63222,63915
20353,-0.2619244456291199,0.42239201068878174,-0.004138392396271229,60923,62134,61966,63616
20363,-0.27768674492836,0.39445123076438904,-0.037301693111658096,62887,60827,61526,63625
20373,-0.2875068187713623,0.22536700963974,-0.03097044676542282,62762,61467,60090,63567
20383,-0.21422430872917175,0.3125500977039337,-0.06459026038646698,59646,62551,61922,62154
20393,-0.3737703561782837,0.4129307270050049,-0.13256219029426575,60243,61284,63261,61974
20403,-0.2995711863040924,0.28346195816993713,-0.15210452675819397,63865,60013,52475,63714
20413,-0.2576042115688324,0.1444542109966278,-0.16377399861812592,60150,61820,61649,62113
20423,-0.20594722032546997,0.14591412246227264,-0.17508944869041443,58897,60790,63104,62016
20433,-0.19189216196537018,0.14841973781585693,-0.1313057541847229,63701,59714,57039,62928
20443,-0.1760520339012146,0.05102688819169998,-0.0442192368209362,63377,60619,57975,62188
20453,-0.07832358032464981,-0.0422491580247879,0.08926649391651154,61922,59871,61758,61489
20463,-0.05883127823472023,-0.04782683774828911,0.2958543598651886,61956,60152,61938,59029
20473,0.0816163569688797,0.2851778268814087,0.5035300850868225,60833,61799,63547,52654
20483,0.4759810268878937,0.540104866027832,0.7226269841194153,59373,62537,62756,52876
20493,0.7244167327880859,0.9662079811096191,0.885801374912262,58897,58532,63544,58685
20503,0.8344302773475647,1.407439947128296,1.062994360923767,58394,55502,64006,60699
20513,0.48209744691848755,1.8681020736694336,1.2714890241622925,54645,57313,64938,59568
20523,0.2932855486869812,2.2334845066070557,1.4838194847106934,53447,59012,64396,54632
20533,-0.17784956097602844,2.8265976905822754,1.7113211154937744,50905,60008,63854,51789
20543,-0.3927392065525055,3.4669740200042725,1.8902816772460938,51772,59582,63073,54906
20553,-0.8860637545585632,4.269522190093994,2.082108974456787,53503,59667,62446,54558
20563,-1.3827158212661743,5.08434534072876,2.293541431427002,51157,57946,62114,54321
20573,-1.7301381826400757,5.741934776306152,2.5132408142089844,54075,54327,60748,56671
20583,-2.018894910812378,6.16142463684082,2.7837677001953125,56661,55269,57754,55491
20593,-2.428859233856201,6.435896396636963,3.1052751541137695,56070,55066,56372,56568
20603,-2.6897525787353516,6.540363311767578,3.3675951957702637,53452,55408,55202,54092
20613,-2.5584614276885986,6.505594253540039,3.5456717014312744,54754,52059,53314,53130
20623,-2.764348268508911,6.447943210601807,3.8223447799682617,56477,47193,56710,52450
20633,-3.250789165496826,6.006958484649658,4.224164962768555,54408,48993,56834,53363
20643,-3.5292534828186035,5.717353820800781,4.5142998695373535,51930,50682,56590,55170
20653,-4.192236423492432,5.733898639678955,4.8643717765808105,47541,50004,59499,50178
20663,-5.001143455505371,5.297696113586426,5.310725212097168,49444,46476,61384,47492
20673,-5.382692813873291,5.0210723876953125,5.617645740509033,50964,48164,58814,43933
20683,-5.556379795074463,4.717491626739502,5.870625019073486,53766,51653,50412,47396
20693,-5.611828804016113,4.29559850692749,6.060849189758301,50407,51989,49424,46805
20703,-5.6393890380859375,3.8035712242126465,6.236508369445801,50360,48587,49729,47007
20713,-5.567322254180908,3.285269260406494,6.433207988739014,52446,45925,53623,49309
20723,-5.729930400848389,2.7452664375305176,6.72960090637207,51985,45578,53009,50390
20733,-5.784428596496582,2.2615010738372803,6.928299903869629,49108,45027,52039,48612
20743,-6.111608982086182,1.7192835807800293,7.197314739227295,44895,42621,53262,45706
20753,-6.2479448318481445,1.261033296585083,7.371853351593018,43228,41070,51277,45796
20763,-6.277803421020508,0.7265729904174805,7.525937557220459,43376,43755,45075,43566
20773,-6.2598700523376465,0.2762492895126343,7.706247806549072,45548,44219,40526,43902
20783,-6.17977237701416,-0.17264226078987122,7.910647869110107,49421,41628,44893,43735
20793,-5.943355560302734,-0.5921046137809753,8.11140251159668,48431,42753,51100,41560
20803,-5.717947483062744,-0.8543086051940918,8.291690826416016,46736,47852,51470,41716
20813,-5.464126110076904,-1.1518802642822266,8.49704360961914,45949,46641,48669,42265
20823,-5.197416305541992,-1.263558030128479,8.694661140441895,44863,42268,48772,42036
20833,-4.961167812347412,-1.388999581336975,8.932751655578613,47356,42095,46254,42683
20843,-4.6498894691467285,-1.5687358379364014,9.151065826416016,46913,43381,47236,41357
