timestamp (ms),stabilizer.roll,stabilizer.pitch,stabilizer.yaw,motor.m1,motor.m2,motor.m3,motor.m4
18374,0.0,0.0,0.0,0,0,0,0
18384,0.0,0.0,0.0,0,0,0,0
18394,0.0,0.0,0.0,0,0,0,0
18404,0.0,0.0,0.0,0,0,0,0
18414,0.0,0.0,0.0,0,0,0,0
18424,0.0,0.0,0.0,0,0,0,0
18434,0.0,0.0,0.0,0,0,0,0
18444,0.0,0.0,0.0,0,0,0,0
18454,0.0,0.0,0.0,0,0,0,0
18464,0.0,0.0,0.0,0,0,0,0
18474,0.0,0.0,0.0,0,0,0,0
18484,0.0,0.0,0.0,0,0,0,0
18494,0.0,0.0,0.0,0,0,0,0
18504,0.0,0.0,0.0,0,0,0,0
18514,0.0,0.0,0.0,0,0,0,0
18524,0.0,0.0,0.0,0,0,0,0
18534,0.0,0.0,0.0,0,0,0,0
18544,0.0,0.0,0.0,0,0,0,0
18554,0.0,0.0,0.0,0,0,0,0
18564,0.0,0.0,0.0,0,0,0,0
18574,0.0,0.0,0.0,0,0,0,0
18584,0.0,0.0,0.0,0,0,0,0
18594,0.0,0.0,0.0,0,0,0,0
18604,0.0,0.0,0.0,0,0,0,0
18614,0.0,0.0,0.0,0,0,0,0
18624,0.0,0.0,0.0,0,0,0,0
18634,0.0,0.0,0.0,0,0,0,0
18644,0.0,0.0,0.0,0,0,0,0
18654,0.0,0.0,0.0,0,0,0,0
18664,0.0,0.0,0.0,0,0,0,0
18674,0.0,0.0,0.0,0,0,0,0
18684,0.0,0.0,0.0,0,0,0,0
18694,0.0,0.0,0.0,0,0,0,0
18704,0.0,0.0,0.0,0,0,0,0
18714,0.0,0.0,0.0,0,0,0,0
18724,0.0,0.0,0.0,0,0,0,0
18734,0.0,0.0,0.0,0,0,0,0
18744,0.0,0.0,0.0,0,0,0,0
18754,0.0,0.0,0.0,0,0,0,0
18764,0.0,0.0,0.0,0,0,0,0
18774,0.0,0.0,0.0,0,0,0,0
18784,0.0,0.0,0.0,0,0,0,0
18794,0.0,0.0,0.0,0,0,0,0
18804,0.0,0.0,0.0,0,0,0,0
18814,0.0,0.0,0.0,0,0,0,0
18824,0.0,0.0,0.0,0,0,0,0
18834,0.0,0.0,0.0,0,0,0,0
18844,0.0,0.0,0.0,0,0,0,0
18854,0.0,0.0,0.0,0,0,0,0
18864,0.0,0.0,0.0,0,0,0,0
18874,0.0,0.0,0.0,0,0,0,0
18884,0.0,0.0,0.0,0,0,0,0
18894,0.0,0.0,0.0,0,0,0,0
18904,0.0,0.0,0.0,0,0,0,0
18914,0.0,0.0,0.0,0,0,0,0
18924,0.0,0.0,0.0,0,0,0,0
18934,0.0,0.0,0.0,0,0,0,0
18944,0.0,0.0,0.0,0,0,0,0
18954,0.0,0.0,0.0,0,0,0,0
18964,0.0,0.0,0.0,0,0,0,0
18974,0.0,0.0,0.0,0,0,0,0
18984,0.0,0.0,0.0,0,0,0,0
18994,0.0,0.0,0.0,0,0,0,0
19004,0.0,0.0,0.0,0,0,0,0
19014,0.0,0.0,0.0,0,0,0,0
19024,0.0,0.0,0.0,0,0,0,0
19034,0.0,0.0,0.0,0,0,0,0
19044,0.0,0.0,0.0,0,0,0,0
19054,0.0,0.0,0.0,0,0,0,0
19064,0.0,0.0,0.0,0,0,0,0
19074,0.0,0.0,0.0,0,0,0,0
19084,0.0,0.0,0.0,0,0,0,0
19094,0.0,0.0,0.0,0,0,0,0
19104,0.0,0.0,0.0,0,0,0,0
19114,0.0,0.0,0.0,0,0,0,0
19124,0.0,0.0,0.0,0,0,0,0
19134,0.0,0.0,0.0,0,0,0,0
19144,0.0,0.0,0.0,0,0,0,0
19154,0.0,0.0,0.0,0,0,0,0
19164,0.0,0.0,0.0,0,0,0,0
19174,0.0,0.0,0.0,0,0,0,0
19184,0.0,0.0,0.0,0,0,0,0
19194,0.0,0.0,0.0,0,0,0,0
19204,0.0,0.0,0.0,0,0,0,0
19214,0.0,0.0,0.0,0,0,0,0
19224,0.0,0.0,0.0,0,0,0,0
19234,0.0,0.0,0.0,0,0,0,0
19244,0.0,0.0,0.0,0,0,0,0
19254,0.0,0.0,0.0,0,0,0,0
19264,0.0,0.0,0.0,0,0,0,0
19274,0.0,0.0,0.0,0,0,0,0
19284,0.0,0.0,0.0,0,0,0,0
19294,0.0,0.0,0.0,0,0,0,0
19304,0.0,0.0,0.0,0,0,0,0
19314,0.0,0.0,0.0,0,0,0,0
19324,0.0,0.0,0.0,0,0,0,0
19334,0.0,0.0,0.0,0,0,0,0
19344,0.0,0.0,0.0,0,0,0,0
19354,0.0,0.0,0.0,0,0,0,0
19364,0.0,0.0,0.0,0,0,0,0
19374,0.0,0.0,0.0,0,0,0,0
19384,0.0,0.0,0.0,0,0,0,0
19394,0.0,0.0,0.0,0,0,0,0
19404,0.0,0.0,0.0,0,0,0,0
19414,0.0,0.0,0.0,0,0,0,0
19424,0.0,0.0,0.0,0,0,0,0
19434,0.0,0.0,0.0,0,0,0,0
19444,0.0,0.0,0.0,0,0,0,0
19454,0.0,0.0,0.0,0,0,0,0
19464,0.0,0.0,0.0,0,0,0,0
19474,0.0,0.0,0.0,0,0,0,0
19484,0.0,0.0,0.0,0,0,0,0
19494,0.0,0.0,0.0,0,0,0,0
19504,0.0,0.0,0.0,0,0,0,0
19514,0.0,0.0,0.0,0,0,0,0
19524,0.0,0.0,0.0,0,0,0,0
19534,0.0,0.0,0.0,0,0,0,0
19544,0.0,0.0,0.0,0,0,0,0
19554,0.0,0.0,0.0,0,0,0,0
19564,0.0,0.0,0.0,0,0,0,0
19574,0.0,0.0,0.0,0,0,0,0
19584,0.0,0.0,0.0,0,0,0,0
19594,0.0,0.0,0.0,0,0,0,0
19604,0.0,0.0,0.0,0,0,0,0
19614,0.0,0.0,0.0,0,0,0,0
19624,0.0,0.0,0.0,0,0,0,0
19634,0.0,0.0,0.0,0,0,0,0
19644,0.0,0.0,0.0,0,0,0,0
19654,0.0,0.0,0.0,0,0,0,0
19664,0.0,0.0,0.0,0,0,0,0
19674,0.0,0.0,0.0,0,0,0,0
19684,0.0,0.0,0.0,0,0,0,0
19694,0.0,0.0,0.0,0,0,0,0
19704,0.0,0.0,0.0,0,0,0,0
19714,0.0,0.0,0.0,0,0,0,0
19724,0.0,0.0,0.0,0,0,0,0
19734,0.0,0.0,0.0,0,0,0,0
19744,0.0,0.0,0.0,0,0,0,0
19754,0.0,0.0,0.0,0,0,0,0
19764,0.0,0.0,0.0,0,0,0,0
19774,0.0,0.0,0.0,0,0,0,0
19784,0.0,0.0,0.0,0,0,0,0
19794,0.0,0.0,0.0,0,0,0,0
19804,0.0,0.0,0.0,0,0,0,0
19814,0.0,0.0,0.0,0,0,0,0
19824,0.0,0.0,0.0,0,0,0,0
19834,0.0,0.0,0.0,0,0,0,0
19844,0.0,0.0,0.0,0,0,0,0
19854,0.0,0.0,0.0,0,0,0,0
19864,0.0,0.0,0.0,0,0,0,0
19874,0.0,0.0,0.0,0,0,0,0
19884,0.0,0.0,0.0,0,0,0,0
19894,0.0,0.0,0.0,0,0,0,0
19904,0.0,0.0,0.0,0,0,0,0
19914,0.0,0.0,0.0,0,0,0,0
19924,0.0,0.0,0.0,0,0,0,0
19934,0.0,0.0,0.0,0,0,0,0
19944,0.0,0.0,0.0,0,0,0,0
19954,0.0,0.0,0.0,0,0,0,0
19964,0.0,0.0,0.0,0,0,0,0
19974,0.0,0.0,0.0,0,0,0,0
19984,0.0,0.0,0.0,0,0,0,0
19994,0.0,0.0,0.0,0,0,0,0
20004,0.0,0.0,0.0,0,0,0,0
20014,0.0,0.0,0.0,0,0,0,0
20024,0.0,0.0,0.0,0,0,0,0
20034,0.0,0.0,0.0,0,0,0,0
20044,0.0,0.0,0.0,0,0,0,0
20054,0.0,0.0,0.0,0,0,0,0
20064,0.0,0.0,0.0,0,0,0,0
20074,0.0,0.0,0.0,0,0,0,0
20084,0.0,0.0,0.0,0,0,0,0
20094,0.0,0.0,0.0,0,0,0,0
20104,0.0,0.0,0.0,0,0,0,0
20114,0.0,0.0,0.0,0,0,0,0
20124,0.0,0.0,0.0,0,0,0,0
20134,0.0,0.0,0.0,0,0,0,0
20144,0.0,0.0,0.0,0,0,0,0
20154,0.0,0.0,0.0,0,0,0,0
20164,0.0,0.0,0.0,0,0,0,0
20174,0.0,0.0,0.0,0,0,0,0
20184,0.0,0.0,0.0,0,0,0,0
20194,0.0,0.0,0.0,0,0,0,0
20204,0.0,0.0,0.0,0,0,0,0
20214,0.0,0.0,0.0,0,0,0,0
20224,0.0,0.0,0.0,0,0,0,0
20234,0.0,0.0,0.0,0,0,0,0
20244,0.0,0.0,0.0,0,0,0,0
20254,0.0,0.0,0.0,0,0,0,0
20264,0.0,0.0,0.0,0,0,0,0
20274,0.0,0.0,0.0,0,0,0,0
20284,0.0,0.0,0.0,0,0,0,0
20294,0.0,0.0,0.0,0,0,0,0
20304,0.0,0.0,0.0,0,0,0,0
20314,0.0,0.0,0.0,0,0,0,0
20324,0.0,0.0,0.0,0,0,0,0
20334,0.0,0.0,0.0,0,0,0,0
20344,0.0,0.0,0.0,0,0,0,0
20354,0.0,0.0,0.0,0,0,0,0
20364,0.0,0.0,0.0,0,0,0,0
20374,0.0,0.0,0.0,0,0,0,0
20384,0.0,0.0,0.0,0,0,0,0
20394,0.0,0.0,0.0,0,0,0,0
20404,0.0,0.0,0.0,0,0,0,0
20414,0.0,0.0,0.0,0,0,0,0
20424,0.0,0.0,0.0,0,0,0,0
20434,0.0,0.0,0.0,0,0,0,0
20444,0.0,0.0,0.0,0,0,0,0
20454,0.0,0.0,0.0,0,0,0,0
20464,0.0,0.0,0.0,0,0,0,0
20474,0.0,0.0,0.0,0,0,0,0
20484,0.0,0.0,0.0,0,0,0,0
20494,0.0,0.0,0.0,0,0,0,0
20504,0.0,0.0,0.0,0,0,0,0
20514,0.0,0.0,0.0,0,0,0,0
20524,0.0,0.0,0.0,0,0,0,0
20534,0.0,0.0,0.0,0,0,0,0
20544,0.0,0.0,0.0,0,0,0,0
20554,0.0,0.0,0.0,0,0,0,0
20564,0.0,0.0,0.0,0,0,0,0
20574,0.0,0.0,0.0,0,0,0,0
20584,0.0,0.0,0.0,0,0,0,0
20594,0.0,0.0,0.0,0,0,0,0
20604,0.0,0.0,0.0,0,0,0,0
20614,0.0,0.0,0.0,0,0,0,0
20624,0.0,0.0,0.0,0,0,0,0
20634,0.0,0.0,0.0,0,0,0,0
20644,0.0,0.0,0.0,0,0,0,0
20654,0.0,0.0,0.0,0,0,0,0
20664,0.0,0.0,0.0,0,0,0,0
20674,0.0,0.0,0.0,0,0,0,0
20684,0.0,0.0,0.0,0,0,0,0
20694,0.0,0.0,0.0,0,0,0,0
20704,0.0,0.0,0.0,0,0,0,0
20714,0.0,0.0,0.0,0,0,0,0
20724,0.0,0.0,0.0,0,0,0,0
20734,0.0,0.0,0.0,0,0,0,0
20744,0.0,0.0,0.0,0,0,0,0
20754,0.0,0.0,0.0,0,0,0,0
20764,0.0,0.0,0.0,0,0,0,0
20774,0.0,0.0,0.0,0,0,0,0
20784,0.0,0.0,0.0,0,0,0,0
20794,0.0,0.0,0.0,0,0,0,0
20804,0.0,0.0,0.0,0,0,0,0
20814,0.0,0.0,0.0,0,0,0,0
20824,0.0,0.0,0.0,0,0,0,0
20834,0.0,0.0,0.0,0,0,0,0
20844,0.0,0.0,0.0,0,0,0,0
20854,0.0,0.0,0.0,0,0,0,0
20864,0.0,0.0,0.0,0,0,0,0
20874,0.0,0.0,0.0,0,0,0,0
20884,0.0,0.0,0.0,0,0,0,0
20894,0.0,0.0,0.0,0,0,0,0
20904,0.0,0.0,0.0,0,0,0,0
20914,0.0,0.0,0.0,0,0,0,0
20924,0.0,0.0,0.0,0,0,0,0
20934,0.0,0.0,0.0,0,0,0,0
20944,0.0,0.0,0.0,0,0,0,0
20954,0.0,0.0,0.0,0,0,0,0
20964,0.0,0.0,0.0,0,0,0,0
20974,0.0,0.0,0.0,0,0,0,0
20984,0.0,0.0,0.0,0,0,0,0
20994,0.0,0.0,0.0,0,0,0,0
21004,0.0,0.0,0.0,0,0,0,0
21014,0.0,0.0,0.0,0,0,0,0
21024,0.0,0.0,0.0,0,0,0,0
21034,0.0,0.0,0.0,0,0,0,0
21044,0.0,0.0,0.0,0,0,0,0
21054,0.0,0.0,0.0,0,0,0,0
21064,0.0,0.0,0.0,0,0,0,0
21074,0.0,0.0,0.0,0,0,0,0
21084,0.0,0.0,0.0,0,0,0,0
21094,0.0,0.0,0.0,0,0,0,0
21104,0.0,0.0,0.0,0,0,0,0
21114,0.0,0.0,0.0,0,0,0,0
21124,0.0,0.0,0.0,0,0,0,0
21134,0.0,0.0,0.0,0,0,0,0
21144,0.0,0.0,0.0,0,0,0,0
21154,0.0,0.0,0.0,0,0,0,0
21164,0.0,0.0,0.0,0,0,0,0
21174,0.0,0.0,0.0,0,0,0,0
21184,0.0,0.0,0.0,0,0,0,0
21194,0.0,0.0,0.0,0,0,0,0
21204,0.0,0.0,0.0,0,0,0,0
21214,0.0,0.0,0.0,0,0,0,0
21224,0.0,0.0,0.0,0,0,0,0
21234,0.0,0.0,0.0,0,0,0,0
21244,0.0,0.0,0.0,0,0,0,0
21254,0.0,0.0,0.0,0,0,0,0
21264,0.0,0.0,0.0,0,0,0,0
21274,0.0,0.0,0.0,0,0,0,0
21284,0.0,0.0,0.0,0,0,0,0
21294,0.0,0.0,0.0,0,0,0,0
21304,0.0,0.0,0.0,0,0,0,0
21314,0.0,0.0,0.0,0,0,0,0
21324,0.0,0.0,0.0,0,0,0,0
21334,0.0,0.0,0.0,0,0,0,0
21344,0.0,0.0,0.0,0,0,0,0
21354,0.0,0.0,0.0,0,0,0,0
21364,0.0,0.0,0.0,0,0,0,0
21374,0.0,0.0,0.0,0,0,0,0
21384,0.0,0.0,0.0,0,0,0,0
21394,0.0,0.0,0.0,0,0,0,0
21404,0.0,0.0,0.0,0,0,0,0
21414,0.0,0.0,0.0,0,0,0,0
21424,0.0,0.0,0.0,0,0,0,0
21434,0.0,0.0,0.0,0,0,0,0
21444,0.0,0.0,0.0,0,0,0,0
21454,0.0,0.0,0.0,0,0,0,0
21464,0.0,0.0,0.0,0,0,0,0
21474,0.0,0.0,0.0,0,0,0,0
21484,0.0,0.0,0.0,0,0,0,0
21494,0.0,0.0,0.0,0,0,0,0
21504,0.0,0.0,0.0,0,0,0,0
21514,0.0,0.0,0.0,0,0,0,0
21524,0.0,0.0,0.0,0,0,0,0
21534,0.0,0.0,0.0,0,0,0,0
21544,0.0,0.0,0.0,0,0,0,0
21554,0.0,0.0,0.0,0,0,0,0
21564,0.0,0.0,0.0,0,0,0,0
21574,0.0,0.0,0.0,0,0,0,0
21584,0.0,0.0,0.0,0,0,0,0
21594,0.0,0.0,0.0,0,0,0,0
21604,0.0,0.0,0.0,0,0,0,0
21614,0.0,0.0,0.0,0,0,0,0
21624,0.0,0.0,0.0,0,0,0,0
21634,0.0,0.0,0.0,0,0,0,0
21644,0.0,0.0,0.0,0,0,0,0
21654,0.0,0.0,0.0,0,0,0,0
21664,0.0,0.0,0.0,0,0,0,0
21674,0.0,0.0,0.0,0,0,0,0
21684,0.0,0.0,0.0,0,0,0,0
21694,0.0,0.0,0.0,0,0,0,0
21704,0.0,0.0,0.0,0,0,0,0
21714,0.0,0.0,0.0,0,0,0,0
21724,0.0,0.0,0.0,0,0,0,0
21734,0.0,0.0,0.0,0,0,0,0
21744,0.0,0.0,0.0,0,0,0,0
21754,0.0,0.0,0.0,0,0,0,0
21764,0.0,0.0,0.0,0,0,0,0
21774,0.0,0.0,0.0,0,0,0,0
21784,0.0,0.0,0.0,0,0,0,0
21794,0.0,0.0,0.0,0,0,0,0
21804,0.0,0.0,0.0,0,0,0,0
21814,0.0,0.0,0.0,0,0,0,0
21824,0.0,0.0,0.0,0,0,0,0
21834,0.0,0.0,0.0,0,0,0,0
21844,0.0,0.0,0.0,0,0,0,0
21854,0.0,0.0,0.0,0,0,0,0
21864,0.0,0.0,0.0,0,0,0,0
21874,0.0,0.0,0.0,0,0,0,0
21884,0.0,0.0,0.0,0,0,0,0
21894,0.0,0.0,0.0,0,0,0,0
21904,0.0,0.0,0.0,0,0,0,0
21914,0.0,0.0,0.0,0,0,0,0
21924,0.0,0.0,0.0,0,0,0,0
21934,0.0,0.0,0.0,0,0,0,0
21944,0.0,0.0,0.0,0,0,0,0
21954,0.0,0.0,0.0,0,0,0,0
21964,0.0,0.0,0.0,0,0,0,0
21974,0.0,0.0,0.0,0,0,0,0
21984,0.0,0.0,0.0,0,0,0,0
21994,0.0,0.0,0.0,0,0,0,0
22004,0.0,0.0,0.0,0,0,0,0
22014,0.0,0.0,0.0,0,0,0,0
22024,0.0,0.0,0.0,0,0,0,0
22034,0.0,0.0,0.0,0,0,0,0
22044,0.0,0.0,0.0,0,0,0,0
22054,0.0,0.0,0.0,0,0,0,0
22064,0.0,0.0,0.0,0,0,0,0
22074,0.0,0.0,0.0,0,0,0,0
22084,0.0,0.0,0.0,0,0,0,0
22094,0.0,0.0,0.0,0,0,0,0
22104,0.0,0.0,0.0,0,0,0,0
22114,0.0,0.0,0.0,0,0,0,0
22124,0.0,0.0,0.0,0,0,0,0
22134,0.0,0.0,0.0,0,0,0,0
22144,0.0,0.0,0.0,0,0,0,0
22154,0.0,0.0,0.0,0,0,0,0
22164,0.0,0.0,0.0,0,0,0,0
22174,0.0,0.0,0.0,0,0,0,0
22184,0.0,0.0,0.0,0,0,0,0
22194,0.0,0.0,0.0,0,0,0,0
22204,0.0,0.0,0.0,0,0,0,0
22214,0.0,0.0,0.0,0,0,0,0
22224,0.0,0.0,0.0,0,0,0,0
22234,0.0,0.0,0.0,0,0,0,0
22244,0.0,0.0,0.0,0,0,0,0
22254,0.0,0.0,0.0,0,0,0,0
22264,0.0,0.0,0.0,0,0,0,0
22274,0.0,0.0,0.0,0,0,0,0
22284,0.0,0.0,0.0,0,0,0,0
22294,0.0,0.0,0.0,0,0,0,0
22304,0.0,0.0,0.0,0,0,0,0
22314,0.0,0.0,0.0,0,0,0,0
22324,0.0,0.0,0.0,0,0,0,0
22334,0.0,0.0,0.0,0,0,0,0
22344,0.0,0.0,0.0,0,0,0,0
22354,0.0,0.0,0.0,0,0,0,0
22364,0.0,0.0,0.0,0,0,0,0
22374,0.0,0.0,0.0,0,0,0,0
22384,0.0,0.0,0.0,0,0,0,0
22394,0.0,0.0,0.0,0,0,0,0
22404,0.0,0.0,0.0,0,0,0,0
22414,0.0,0.0,0.0,0,0,0,0
22424,0.0,0.0,0.0,0,0,0,0
22434,0.0,0.0,0.0,0,0,0,0
22444,0.0,0.0,0.0,0,0,0,0
22454,0.0,0.0,0.0,0,0,0,0
22464,0.0,0.0,0.0,0,0,0,0
22474,0.0,0.0,0.0,0,0,0,0
22484,0.0,0.0,0.0,0,0,0,0
22494,0.0,0.0,0.0,0,0,0,0
22504,0.0,0.0,0.0,0,0,0,0
22514,0.0,0.0,0.0,0,0,0,0
22524,0.0,0.0,0.0,0,0,0,0
22534,0.0,0.0,0.0,0,0,0,0
22544,0.0,0.0,0.0,0,0,0,0
22554,0.0,0.0,0.0,0,0,0,0
22564,0.0,0.0,0.0,0,0,0,0
22574,0.0,0.0,0.0,0,0,0,0
22584,0.0,0.0,0.0,0,0,0,0
22594,0.0,0.0,0.0,0,0,0,0
22604,0.0,0.0,0.0,0,0,0,0
22614,0.0,0.0,0.0,0,0,0,0
22624,0.0,0.0,0.0,0,0,0,0
22634,0.0,0.0,0.0,0,0,0,0
22644,0.0,0.0,0.0,0,0,0,0
22654,0.0,0.0,0.0,0,0,0,0
22664,0.0,0.0,0.0,0,0,0,0
22674,0.0,0.0,0.0,0,0,0,0
22684,0.03940674662590027,-0.020332779735326767,0.0011912512127310038,0,0,0,0
22694,0.03791860491037369,-0.020578276365995407,0.0018269858555868268,0,0,0,0
22704,0.03778449445962906,-0.0197734497487545,0.0027907146140933037,0,0,0,0
22714,0.17125898599624634,0.1273408681154251,0.004047418478876352,0,0,0,0
22724,0.28791993856430054,0.12222637236118317,0.0029753155540674925,0,0,0,0
22734,0.2867242693901062,0.12273701280355453,0.002708087209612131,0,0,0,0
22744,0.1773379147052765,0.2766226828098297,0.0031417659483850002,0,0,0,0
22755,0.19478796422481537,-0.09586228430271149,0.003987619653344154,0,0,0,0
22764,-0.44228264689445496,-0.31586208939552307,0.001945527154020965,0,0,0,0
22775,-0.09298797696828842,0.33855849504470825,0.004337535705417395,0,0,0,0
22784,-0.1629810929298401,0.11476950347423553,0.006212953478097916,0,0,0,0
22795,-0.28447452187538147,0.05794675648212433,0.011218130588531494,0,0,0,0
22805,0.10730598866939545,0.05797099322080612,0.0228425320237875,0,0,0,0
22815,0.4636017978191376,0.05716852843761444,0.031820960342884064,0,0,0,0
22825,0.11545346677303314,-0.7124512791633606,0.0380672961473465,0,0,0,0
22834,-0.20478738844394684,-0.7394723892211914,0.04201405495405197,0,0,0,0
22844,-0.20397566258907318,-0.7404839992523193,0.05265707150101662,0,0,0,0
22854,-0.47055453062057495,-0.7027222514152527,0.06851848214864731,0,0,0,0
22864,-0.23497916758060455,-0.7159377336502075,0.09099092334508896,0,0,0,0
22874,-0.23127053678035736,-0.7160224318504333,0.1100708544254303,0,0,0,0
22884,-0.5662941932678223,-0.5630329251289368,0.1300543248653412,0,0,0,0
22894,-0.43640539050102234,-0.47854486107826233,0.1623307317495346,0,0,0,0
22904,-0.5216734409332275,-0.45278698205947876,0.204731285572052,0,0,0,0
22914,-0.5442195534706116,-0.42407330870628357,0.25553053617477417,0,0,0,0
22924,-0.562126100063324,-0.30204302072525024,0.305565744638443,0,0,0,0
22934,-0.6636729836463928,-0.2770442068576813,0.36298471689224243,0,0,0,0
22944,-1.1241947412490845,-0.8194550275802612,0.4038986265659332,0,0,0,0
22954,-1.1117899417877197,-0.8034369945526123,0.43827149271965027,0,0,0,0
22964,-1.0904524326324463,-0.7820740938186646,0.4558902382850647,0,0,0,0
22974,-1.0732650756835938,-0.6463143825531006,0.4709092974662781,0,0,0,0
22984,-1.3776094913482666,-0.49818554520606995,0.47881758213043213,0,0,0,0
22994,-0.9798207879066467,-0.23498781025409698,0.4966491162776947,0,0,0,0
23004,-0.9201430678367615,-0.3688528835773468,0.5109492540359497,0,0,0,0
23014,-0.8851531147956848,-0.2934260368347168,0.5198811888694763,0,0,0,0
23024,-0.7797353267669678,-0.3821198046207428,0.5354939103126526,0,0,0,0
23034,-1.4280790090560913,-0.8494422435760498,0.5655807256698608,0,0,0,0
23044,-1.2881965637207031,-0.6779012084007263,0.630180835723877,0,0,0,0
23054,-1.1847730875015259,-0.7991714477539062,0.725105345249176,0,0,0,0
23064,-1.056563377380371,-0.6548945903778076,0.8282502293586731,0,0,0,0
23074,-0.7989436984062195,-0.7602081298828125,0.939598023891449,0,0,0,0
23084,-0.3494457006454468,-0.9754657745361328,1.0590342283248901,0,0,0,0
23094,-0.25055861473083496,-0.9931405186653137,1.1603257656097412,0,0,0,0
23104,-0.1518150269985199,-1.0692837238311768,1.2484797239303589,0,0,0,0
23114,0.40499451756477356,-1.5808210372924805,1.3343106508255005,0,0,0,0
23124,0.5388742685317993,-1.5582457780838013,1.380576252937317,0,0,0,0
23134,0.19105571508407593,-1.43195378780365,1.3871467113494873,0,0,0,0
23144,0.3093518018722534,-1.4840337038040161,1.3969281911849976,0,0,0,0
23154,0.33668795228004456,-1.410201072692871,1.3856266736984253,0,0,0,0
23164,0.33526378870010376,-1.4955083131790161,1.3386716842651367,0,0,0,0
23174,0.5996569395065308,-1.4047398567199707,1.272353172302246,0,0,0,0
23184,0.772844135761261,-1.4121195077896118,1.2106486558914185,0,0,0,0
23194,0.9337788224220276,-1.453109622001648,1.174642562866211,0,0,0,0
23204,1.2680929899215698,-1.463376522064209,1.1613177061080933,0,0,0,0
23214,1.6720765829086304,-1.525896668434143,1.1253161430358887,0,0,0,0
23224,1.7452685832977295,-1.5930063724517822,1.0673565864562988,0,0,0,0
23234,1.6314069032669067,-1.3682024478912354,1.068320393562317,0,0,0,0
23244,2.530451536178589,-1.285049557685852,1.1549961566925049,0,0,0,0
23254,2.894609212875366,-1.3011118173599243,1.210296869277954,0,0,0,0
23264,3.1169517040252686,-1.3970863819122314,1.247542381286621,0,0,0,0
23274,3.8275537490844727,-1.6377865076065063,1.2407784461975098,0,0,0,0
23284,4.054687023162842,-1.7980149984359741,1.0631592273712158,0,0,0,0
23294,4.560240745544434,-1.55024254322052,0.8554683923721313,0,0,0,0
23304,4.44099235534668,-1.8055241107940674,0.5444554090499878,0,0,0,0
23314,4.641308784484863,-1.9056503772735596,0.18315628170967102,0,0,0,0
23324,4.569581031799316,-1.9603636264801025,-0.18486182391643524,0,0,0,0
23334,4.627477169036865,-1.933408498764038,-0.5524690747261047,0,0,0,0
23344,4.578361511230469,-1.5923453569412231,-0.9498188495635986,0,0,0,0
23354,4.607632160186768,-1.5016640424728394,-1.3657653331756592,0,0,0,0
23364,4.585155487060547,-1.4185868501663208,-1.7032896280288696,0,0,0,0
23374,4.974299430847168,-1.3600499629974365,-1.957669734954834,0,0,0,0
23384,4.754909992218018,-1.2245796918869019,-2.1521127223968506,0,0,0,0
23394,4.416038990020752,-1.010486364364624,-2.189401149749756,0,0,0,0
23404,4.226154327392578,-0.8511685729026794,-2.198174476623535,0,0,0,0
23414,4.397735118865967,-0.7214546799659729,-2.2223713397979736,0,0,0,0
23424,4.297885417938232,-0.6698381304740906,-2.328897476196289,0,0,0,0
23434,4.204535484313965,-0.6223411560058594,-2.458242654800415,0,0,0,0
23444,4.418513774871826,-0.3525560200214386,-2.569319248199463,0,0,0,0
23454,4.213203430175781,-0.25783267617225647,-2.697946548461914,0,0,0,0
23464,4.015634536743164,-0.10746239125728607,-2.768648386001587,0,0,0,0
23474,4.245369911193848,-0.20609445869922638,-2.810713529586792,0,0,0,0
23484,4.237493991851807,-0.07753545790910721,-2.817748785018921,0,0,0,0
23494,4.021467685699463,-0.04216231033205986,-2.862938642501831,0,0,0,0
23504,3.9147543907165527,0.1239093765616417,-2.895456075668335,0,0,0,0
23514,3.70373272895813,0.38700899481773376,-2.920147657394409,0,0,0,0
23524,3.5431597232818604,0.3917298913002014,-2.991661787033081,0,0,0,0
23534,3.4119997024536133,0.46737509965896606,-3.0440804958343506,0,0,0,0
23544,3.3350391387939453,0.5407138466835022,-3.0844926834106445,0,0,0,0
23554,3.0215094089508057,0.6844170689582825,-3.1000845432281494,0,0,0,0
23564,3.0352728366851807,0.6551498174667358,-3.1498947143554688,0,0,0,0
23574,2.9274954795837402,0.7612233757972717,-3.176212787628174,0,0,0,0
23584,2.9534687995910645,0.9040980935096741,-3.1989188194274902,0,0,0,0
23594,2.806734085083008,0.8730734586715698,-3.2360615730285645,0,0,0,0
23604,2.7509374618530273,0.9365425705909729,-3.2492029666900635,0,0,0,0
23614,2.6617391109466553,0.9839564561843872,-3.2619903087615967,0,0,0,0
23624,2.6307260990142822,1.0420773029327393,-3.28302001953125,0,0,0,0
23634,2.534456491470337,1.0793328285217285,-3.3145737648010254,0,0,0,0
23644,1.9067884683609009,1.1166737079620361,-3.315944194793701,0,0,0,0
23654,1.9031494855880737,1.1163089275360107,-3.3648478984832764,0,0,0,0
23664,1.9399484395980835,1.2380095720291138,-3.3902244567871094,0,0,0,0
23674,1.922763466835022,1.2124310731887817,-3.4152610301971436,0,0,0,0
23684,1.8586469888687134,1.1943379640579224,-3.426215887069702,0,0,0,0
23694,1.8715341091156006,1.1951149702072144,-3.435070037841797,0,0,0,0
23704,1.9417688846588135,1.1937429904937744,-3.44994854927063,0,0,0,0
23714,1.8373538255691528,1.1717281341552734,-3.451335906982422,0,0,0,0
23724,1.880829930305481,1.1976890563964844,-3.4576687812805176,0,0,0,0
23734,1.645277500152588,1.14509117603302,-3.4334847927093506,0,0,0,0
23744,1.4483897686004639,1.1405173540115356,-3.3997116088867188,0,0,0,0
23754,1.4876124858856201,1.004050612449646,-3.3901031017303467,0,0,0,0
23764,1.58519446849823,0.9316712617874146,-3.3752171993255615,0,0,0,0
23774,1.619590163230896,0.9620388150215149,-3.3415133953094482,0,0,0,0
23784,1.5896189212799072,0.8151913285255432,-3.307933807373047,0,0,0,0
23794,1.6287577152252197,0.691277027130127,-3.275378704071045,0,0,0,0
23804,1.6423473358154297,0.6382438540458679,-3.234081268310547,0,0,0,0
23814,1.913390040397644,0.5108849406242371,-3.224275588989258,0,0,0,0
23824,1.8692536354064941,0.4594075083732605,-3.1802141666412354,0,0,0,0
23834,1.8749957084655762,0.39185312390327454,-3.1430258750915527,0,0,0,0
23844,1.6937391757965088,0.3586566746234894,-3.0891196727752686,0,0,0,0
23854,1.7127273082733154,0.2617552876472473,-3.053347110748291,0,0,0,0
23864,1.5575910806655884,0.2252727746963501,-2.995079755783081,0,0,0,0
23874,1.39206862449646,0.22464124858379364,-2.936201572418213,0,0,0,0
23884,1.4099879264831543,0.16980156302452087,-2.8999342918395996,0,0,0,0
23894,1.346174955368042,0.0616992823779583,-2.8648109436035156,0,0,0,0
23904,1.310113549232483,0.030636385083198547,-2.8333520889282227,0,0,0,0
23914,1.0890146493911743,0.18739917874336243,-2.7937018871307373,0,0,0,0
23924,1.0068830251693726,0.16797086596488953,-2.7717995643615723,0,0,0,0
23934,1.0656774044036865,-0.08220386505126953,-2.763164520263672,0,0,0,0
23944,1.053130030632019,-0.09463921934366226,-2.75728178024292,0,0,0,0
23954,0.8685240149497986,-0.08120256662368774,-2.747408866882324,0,0,0,0
23965,0.732244074344635,-0.1536468118429184,-2.755005121231079,0,0,0,0
23975,0.8964436054229736,-0.2466966062784195,-2.793118476867676,0,0,0,0
23984,0.7908530831336975,-0.3180930018424988,-2.8352584838867188,0,0,0,0
23994,0.7401142120361328,-0.2987661063671112,-2.9004416465759277,0,0,0,0
24004,0.5648112297058105,-0.34419727325439453,-2.961838483810425,0,0,0,0
24014,0.4874853491783142,-0.35666847229003906,-3.026768922805786,0,0,0,0
24024,0.44242680072784424,-0.3730428218841553,-3.0880608558654785,0,0,0,0
24034,0.30373525619506836,-0.43789440393447876,-3.1404640674591064,0,0,0,0
24044,0.22034551203250885,-0.44158080220222473,-3.189643383026123,0,0,0,0
24054,0.14292602241039276,-0.42627885937690735,-3.2295730113983154,0,0,0,0
24064,0.04139140620827675,-0.4880099594593048,-3.255784511566162,0,0,0,0
24074,-0.018720220774412155,-0.4703212380409241,-3.2861170768737793,0,0,0,0
24084,-0.020744694396853447,-0.7436141967773438,-3.2914206981658936,0,0,0,0
24094,-0.12999257445335388,-0.71036297082901,-3.3291423320770264,0,0,0,0
24104,-0.2131980061531067,-0.7324402928352356,-3.3703653812408447,0,0,0,0
24114,-0.2605726718902588,-0.749527096748352,-3.4126474857330322,0,0,0,0
24124,-0.32769885659217834,-0.8118066191673279,-3.4501988887786865,0,0,0,0
24134,-0.5823152661323547,-0.8284750580787659,-3.492201805114746,0,0,0,0
24144,-0.40589281916618347,-0.8237565755844116,-3.528738498687744,0,0,0,0
24154,-0.4477669596672058,-0.7602623701095581,-3.5823166370391846,0,0,0,0
24164,-0.4736088514328003,-0.8378155827522278,-3.630077600479126,0,0,0,0
24174,-0.25919321179389954,-1.0354182720184326,-3.6653106212615967,0,0,0,0
24184,-0.08942826092243195,-1.1852505207061768,-3.7153823375701904,0,0,0,0
24194,-0.13678684830665588,-1.2264671325683594,-3.7951483726501465,0,0,0,0
24204,-0.10208853334188461,-1.2132213115692139,-3.873422145843506,0,0,0,0
24214,-0.3933218717575073,-0.8894531726837158,-4.001300811767578,0,0,0,0
24224,-0.37069404125213623,-0.9285974502563477,-4.043416976928711,0,0,0,0
24234,-0.4680645763874054,-0.8222119212150574,-4.101995944976807,0,0,0,0
24244,-0.5374203324317932,-0.7481472492218018,-4.140542507171631,0,0,0,0
24254,-0.46114450693130493,-0.9681767821311951,-4.117079257965088,0,0,0,0
24264,-0.508746862411499,-0.8929409384727478,-4.144871234893799,0,0,0,0
24274,-0.6917726993560791,-0.9725803732872009,-4.160821437835693,0,0,0,0
24284,-0.7321933507919312,-0.8925899863243103,-4.192914962768555,0,0,0,0
24294,-0.7849627137184143,-0.9170883893966675,-4.207161903381348,0,0,0,0
24304,-0.6036553382873535,-0.8604316711425781,-4.219418525695801,0,0,0,0
24314,-0.7056377530097961,-1.0344414710998535,-4.199287414550781,0,0,0,0
24324,-0.8189866542816162,-1.0005760192871094,-4.1645827293396,0,0,0,0
24334,-1.1267051696777344,-0.9341772198677063,-4.1210856437683105,0,0,0,0
24344,-1.1527425050735474,-0.8773182034492493,-4.075991630554199,0,0,0,0
24354,-1.4584981203079224,-0.8461783528327942,-4.1026692390441895,0,0,0,0
24364,-1.5173442363739014,-0.8121886253356934,-4.137233734130859,0,0,0,0
24374,-1.6475449800491333,-0.7485424280166626,-4.2020583152771,0,0,0,0
24384,-1.8348631858825684,-0.7456696629524231,-4.296878814697266,0,0,0,0
24394,-1.9883923530578613,-0.4932616651058197,-4.4074788093566895,0,0,0,0
24404,-2.3302831649780273,-0.6579816937446594,-4.441240310668945,0,0,0,0
24414,-2.4121346473693848,-0.6080924272537231,-4.494812965393066,0,0,0,0
24424,-2.442479133605957,-0.48845288157463074,-4.5546393394470215,0,0,0,0
24434,-2.533486843109131,-0.4308382272720337,-4.601271152496338,0,0,0,0
24444,-2.5658674240112305,-0.3816740810871124,-4.642378807067871,0,0,0,0
24454,-2.6682682037353516,-0.34045830368995667,-4.6933112144470215,0,0,0,0
24464,-2.70519757270813,-0.21926197409629822,-4.76373291015625,0,0,0,0
24474,-2.7519068717956543,-0.16657739877700806,-4.815063953399658,0,0,0,0
24484,-2.80648136138916,-0.1077919751405716,-4.863039970397949,0,0,0,0
24494,-2.6411709785461426,-0.34523075819015503,-4.824005126953125,0,0,0,0
24504,-2.716520071029663,-0.29689866304397583,-4.856856822967529,0,0,0,0
24514,-2.842531681060791,-0.1022118479013443,-4.9221110343933105,0,0,0,0
24524,-2.898672342300415,-0.022676972672343254,-4.939916610717773,0,0,0,0
24534,-2.9444222450256348,0.06212388724088669,-4.947232246398926,0,0,0,0
24544,-2.9950456619262695,0.22310642898082733,-4.972558975219727,0,0,0,0
24554,-2.988563299179077,0.31466975808143616,-4.973751068115234,0,0,0,0
24564,-2.941962242126465,0.5258430242538452,-4.992666721343994,0,0,0,0
24574,-2.6737887859344482,0.48851272463798523,-4.923444747924805,0,0,0,0
24584,-2.633810520172119,0.583432137966156,-4.8800859451293945,0,0,0,0
24594,-2.599478244781494,0.7166372537612915,-4.842252731323242,0,0,0,0
24604,-2.5496978759765625,0.8167276382446289,-4.799077033996582,0,0,0,0
24614,-2.4950249195098877,0.8986990451812744,-4.7615065574646,0,0,0,0
24624,-2.574453353881836,1.052474021911621,-4.754493236541748,0,0,0,0
24634,-2.440355062484741,1.1407090425491333,-4.747286319732666,0,0,0,0
24644,-2.513526439666748,1.1589617729187012,-4.7378082275390625,0,0,0,0
24654,-2.6889381408691406,1.4859853982925415,-4.8240227699279785,0,0,0,0
24664,-2.6844961643218994,1.488488793373108,-4.826960563659668,0,0,0,0
24674,-2.639939069747925,1.4858084917068481,-4.825039386749268,0,0,0,0
24684,-2.670642614364624,1.5128530263900757,-4.830334663391113,0,0,0,0
24694,-2.654066324234009,1.5174235105514526,-4.857115745544434,0,0,0,0
24704,-2.6280019283294678,1.4738214015960693,-4.901684284210205,0,0,0,0
24714,-2.401975154876709,1.219380259513855,-4.932589530944824,0,0,0,0
24724,-2.3438358306884766,0.8859849572181702,-4.931433200836182,0,0,0,0
24734,-2.3357834815979004,0.7422036528587341,-4.9756364822387695,0,0,0,0
24744,-2.3411402702331543,0.7393509745597839,-5.046151638031006,0,0,0,0
24754,-2.3434462547302246,0.8295677900314331,-5.12650728225708,0,0,0,0
24764,-2.4077682495117188,0.7793687582015991,-5.155303955078125,0,0,0,0
24774,-2.477647542953491,0.8108258247375488,-5.212847709655762,0,0,0,0
24785,-2.420689344406128,0.993176281452179,-5.333394527435303,0,0,0,0
24794,-2.483222007751465,0.9299539923667908,-5.400920867919922,0,0,0,0
24804,-2.3622841835021973,0.9154443144798279,-5.515707492828369,0,0,0,0
24814,-2.4555933475494385,0.8362186551094055,-5.592062950134277,0,0,0,0
24824,-2.404576301574707,0.8033455014228821,-5.686872959136963,0,0,0,0
24834,-2.429659843444824,0.7285231947898865,-5.746501445770264,0,0,0,0
24844,-2.3312888145446777,0.4783230721950531,-5.763819694519043,0,0,0,0
24854,-2.2454800605773926,0.12127538025379181,-5.743802547454834,0,0,0,0
24864,-2.3358805179595947,0.13589754700660706,-5.784217834472656,0,0,0,0
24875,-2.373061418533325,0.21531890332698822,-5.854398250579834,0,0,0,0
24884,-2.3974251747131348,0.18992874026298523,-5.919442653656006,0,0,0,0
24894,-2.4035325050354004,0.13517268002033234,-5.987653732299805,0,0,0,0
24904,-2.458091974258423,0.19841372966766357,-6.0769734382629395,0,0,0,0
24914,-2.5542118549346924,0.2582792341709137,-6.151554107666016,0,0,0,0
24924,-2.5793347358703613,0.25776299834251404,-6.208626747131348,0,0,0,0
24934,-2.593000650405884,0.25767964124679565,-6.241525650024414,0,0,0,0
24944,-2.595400810241699,0.2586227059364319,-6.250744819641113,0,0,0,0
24954,-2.594451665878296,0.2889403998851776,-6.253896713256836,0,0,0,0
24965,-2.625105619430542,0.303359717130661,-6.24783992767334,0,0,0,0
24975,-2.702488660812378,0.544498860836029,-6.272716045379639,0,0,0,0
24985,-2.58297061920166,0.5205881595611572,-6.261911869049072,0,0,0,0
24995,-2.5758211612701416,0.513767421245575,-6.245021820068359,0,0,0,0
25005,-2.6428005695343018,0.5969396233558655,-6.238955497741699,0,0,0,0
25015,-2.6473679542541504,0.5166559219360352,-6.210728645324707,0,0,0,0
25025,-2.661827564239502,0.5570368766784668,-6.189148426055908,0,0,0,0
25035,-2.663088321685791,0.5523110628128052,-6.155308723449707,0,0,0,0
25045,-2.667743682861328,0.5369570851325989,-6.123491287231445,0,0,0,0
25055,-2.5323727130889893,0.37229055166244507,-6.077404022216797,0,0,0,0
25065,-2.5322265625,0.36909162998199463,-6.055833339691162,0,0,0,0
25075,-2.6220381259918213,0.49079298973083496,-6.0448408126831055,0,0,0,0
25085,-2.6017532348632812,0.43492648005485535,-6.012813091278076,0,0,0,0
25095,-2.5934464931488037,0.4844897389411926,-5.997501850128174,0,0,0,0
25105,-2.595170021057129,0.45582130551338196,-5.9681596755981445,0,0,0,0
25115,-2.5505943298339844,0.1646631807088852,-5.902681350708008,0,0,0,0
25125,-2.475883960723877,0.17884394526481628,-5.885159015655518,0,0,0,0
25135,-2.668515920639038,0.07373597472906113,-5.839296817779541,0,0,0,0
25145,-2.6599791049957275,0.1480613648891449,-5.840188026428223,0,0,0,0
25155,-2.657498359680176,0.15206454694271088,-5.831145286560059,0,0,0,0
25165,-2.4823834896087646,0.04587062820792198,-5.821524620056152,0,0,0,0
25175,-2.4372317790985107,0.07883507758378983,-5.839118957519531,0,0,0,0
25185,-2.4713966846466064,0.12158436328172684,-5.863082408905029,0,0,0,0
25195,-2.426663398742676,0.16869062185287476,-5.871306419372559,0,0,0,0
25205,-2.316969156265259,0.4061283767223358,-5.913712978363037,0,0,0,0
25215,-2.462444305419922,0.22359535098075867,-5.899127960205078,0,0,0,0
25225,-2.503974199295044,0.2924731373786926,-5.906689643859863,0,0,0,0
25234,-2.489259958267212,0.24065425992012024,-5.89546012878418,0,0,0,0
25245,-2.4884796142578125,0.23876173794269562,-5.8879547119140625,0,0,0,0
25254,-2.430682420730591,0.23566485941410065,-5.882735252380371,0,0,0,0
25265,-2.4280014038085938,0.23496654629707336,-5.876907825469971,0,0,0,0
25275,-2.370595693588257,0.35099637508392334,-5.882867336273193,0,0,0,0
25285,-2.370675563812256,0.34906110167503357,-5.875504016876221,0,0,0,0
25295,-2.403721332550049,0.37908685207366943,-5.872158050537109,0,0,0,0
25305,-2.4238505363464355,0.44938886165618896,-5.870797157287598,0,0,0,0
25315,-2.4066946506500244,0.38781580328941345,-5.8583598136901855,0,0,0,0
25324,-2.457707405090332,0.44880610704421997,-5.8568830490112305,0,0,0,0
25334,-2.4550700187683105,0.4469507336616516,-5.85178804397583,0,0,0,0
25344,-2.4529781341552734,0.4488578140735626,-5.844762802124023,0,0,0,0
25355,-2.4510176181793213,0.4502013921737671,-5.838551044464111,0,0,0,0
25365,-2.4373056888580322,0.44110673666000366,-5.832309246063232,0,0,0,0
25375,-2.487485885620117,0.4581219553947449,-5.826708793640137,0,0,0,0
25385,-2.445775270462036,0.6675254106521606,-5.835341453552246,0,0,0,0
25395,-2.410047769546509,0.54595547914505,-5.821964740753174,0,0,0,0
25405,-2.4119789600372314,0.5756986141204834,-5.81711483001709,0,0,0,0
25415,-2.3887035846710205,0.5476590394973755,-5.8089189529418945,0,0,0,0
25425,-2.390822172164917,0.6462113857269287,-5.809920787811279,0,0,0,0
25435,-2.3797125816345215,0.4156896770000458,-5.788590431213379,0,0,0,0
25444,-2.3553411960601807,0.47606366872787476,-5.786835670471191,0,0,0,0
25455,-2.35383677482605,0.47506317496299744,-5.7797017097473145,0,0,0,0
25464,-2.3676114082336426,0.6197906732559204,-5.780858993530273,0,0,0,0
25475,-2.3645570278167725,0.6201263666152954,-5.774809837341309,0,0,0,0
25485,-2.3635547161102295,0.6841162443161011,-5.773116588592529,0,0,0,0
25496,-2.375663995742798,0.6537482142448425,-5.765059471130371,0,0,0,0
25504,-2.3763346672058105,0.6545941233634949,-5.757762432098389,0,0,0,0
25514,-2.3799901008605957,0.7166957259178162,-5.754759311676025,0,0,0,0
25524,-2.3158164024353027,0.7212446928024292,-5.750901222229004,0,0,0,0
25534,-2.288440227508545,0.6883888840675354,-5.743273735046387,0,0,0,0
25546,-2.228548526763916,0.6966974139213562,-5.73950719833374,0,0,0,0
25556,-2.2417967319488525,0.6958379745483398,-5.733250141143799,0,0,0,0
25564,-2.2395081520080566,0.6951220035552979,-5.726443290710449,0,0,0,0
25574,-2.2148566246032715,0.6892511248588562,-5.721700191497803,0,0,0,0
25584,-2.2130470275878906,0.7162858843803406,-5.71670389175415,0,0,0,0
25594,-2.3028600215911865,0.45663076639175415,-5.698142051696777,0,0,0,0
25604,-2.4566307067871094,0.5900684595108032,-5.690499782562256,0,0,0,0
25614,-2.385606288909912,0.600589394569397,-5.687607288360596,0,0,0,0
25624,-2.3612899780273438,0.6211992502212524,-5.6832170486450195,0,0,0,0
25634,-2.3398025035858154,0.573287844657898,-5.675041198730469,0,0,0,0
25644,-2.3166041374206543,0.7523350715637207,-5.673867225646973,0,0,0,0
25654,-2.3282063007354736,0.5852846503257751,-5.662818431854248,0,0,0,0
25664,-2.2716293334960938,0.6056906580924988,-5.659990310668945,0,0,0,0
25674,-2.249521493911743,0.6022307276725769,-5.654343128204346,0,0,0,0
25684,-2.246351480484009,0.6023327112197876,-5.647177696228027,0,0,0,0
25694,-2.226050853729248,0.6233758926391602,-5.642726898193359,0,0,0,0
25704,-2.2156822681427,0.6168067455291748,-5.636397838592529,0,0,0,0
25714,-2.182217597961426,0.6359670162200928,-5.631728649139404,0,0,0,0
25724,-2.1737923622131348,0.6274382472038269,-5.624861240386963,0,0,0,0
25734,-2.2465755939483643,0.723784327507019,-5.616952419281006,0,0,0,0
25744,-2.123821496963501,0.6337860226631165,-5.616336822509766,0,0,0,0
25754,-2.128324270248413,0.6403487324714661,-5.610830307006836,0,0,0,0
25764,-2.090165615081787,0.6890168190002441,-5.606821537017822,0,0,0,0
25774,-2.0875566005706787,0.7449834942817688,-5.600366115570068,0,0,0,0
25784,-2.1589388847351074,0.7412607669830322,-5.591947078704834,0,0,0,0
25794,-2.040858268737793,0.6854578256607056,-5.590409278869629,0,0,0,0
25804,-2.0373008251190186,0.6851384043693542,-5.584160804748535,0,0,0,0
25814,-2.025226593017578,0.6396142840385437,-5.5766072273254395,0,0,0,0
25824,-2.0127463340759277,0.7442691326141357,-5.570115089416504,0,0,0,0
25834,-2.001683473587036,0.6383460164070129,-5.56479549407959,0,0,0,0
25844,-2.0008163452148438,0.6366701722145081,-5.556433200836182,0,0,0,0
25854,-2.0242466926574707,0.6401818990707397,-5.550820350646973,0,0,0,0
25864,-1.9507734775543213,0.858881950378418,-5.544426441192627,0,0,0,0
25874,-1.7035681009292603,0.9692111611366272,-5.547038555145264,0,0,0,0
25886,-1.7340375185012817,0.969675600528717,-5.540531158447266,0,0,0,0
25894,-1.7521601915359497,0.9135254621505737,-5.533900737762451,0,0,0,0
25904,-1.758044719696045,0.9725056290626526,-5.528378009796143,0,0,0,0
25914,-1.7734191417694092,0.783847987651825,-5.525763034820557,0,0,0,0
25924,-1.7215161323547363,0.9278935194015503,-5.517901420593262,0,0,0,0
25934,-1.773803472518921,0.9057413935661316,-5.5094523429870605,0,0,0,0
25944,-1.7442281246185303,0.8423752188682556,-5.506420612335205,0,0,0,0
25954,-1.7446916103363037,0.8417909145355225,-5.501315593719482,0,0,0,0
25964,-1.741609811782837,0.8418841361999512,-5.494860649108887,0,0,0,0
25974,-1.6983011960983276,0.8347826600074768,-5.491036891937256,0,0,0,0
25984,-1.7272531986236572,0.8171138763427734,-5.484755992889404,0,0,0,0
25994,-1.8133431673049927,0.8224475979804993,-5.475029468536377,0,0,0,0
26004,-1.753839373588562,0.7918031215667725,-5.47158670425415,0,0,0,0
26014,-1.757424235343933,0.7629179954528809,-5.4662604331970215,0,0,0,0
26024,-1.7345253229141235,0.7364124655723572,-5.461750030517578,0,0,0,0
26036,-1.7737833261489868,0.7713191509246826,-5.452870845794678,0,0,0,0
26046,-1.7176952362060547,0.9647224545478821,-5.440976142883301,0,0,0,0
26055,-1.6761879920959473,0.8204985857009888,-5.444340705871582,0,0,0,0
26065,-1.3271085023880005,0.654320478439331,-5.461278915405273,0,0,0,0
26074,-1.3350399732589722,0.5633400678634644,-5.459157943725586,0,0,0,0
26084,-1.3351272344589233,0.5636574625968933,-5.452987194061279,0,0,0,0
26094,-1.3438674211502075,0.24551942944526672,-5.464080810546875,0,0,0,0
26104,-1.3251526355743408,0.28569018840789795,-5.455831527709961,0,0,0,0
26114,-1.359139084815979,0.30938783288002014,-5.446202754974365,0,0,0,0
26124,-1.2953941822052002,0.5834753513336182,-5.424631118774414,0,0,0,0
26134,-1.5763204097747803,0.3464184105396271,-5.428220748901367,0,0,0,0
26144,-1.639183521270752,0.3672647476196289,-5.419800281524658,0,0,0,0
26154,-1.6171506643295288,0.4035811424255371,-5.411496639251709,0,0,0,0
26164,-1.6650794744491577,0.42216792702674866,-5.4034504890441895,0,0,0,0
26174,-1.8044449090957642,0.728463351726532,-5.373468399047852,0,0,0,0
26184,-1.803136944770813,0.728763997554779,-5.365878105163574,0,0,0,0
26195,-1.853031039237976,0.7148889899253845,-5.3594818115234375,0,0,0,0
26205,-1.768074870109558,0.7001364827156067,-5.355772495269775,0,0,0,0
26215,-1.8301652669906616,0.7472501993179321,-5.345282077789307,0,0,0,0
26224,-1.8283069133758545,0.7483551502227783,-5.338534832000732,0,0,0,0
26234,-1.8402329683303833,0.7928636074066162,-5.330530166625977,0,0,0,0
26244,-1.8373342752456665,0.7225921154022217,-5.328659534454346,0,0,0,0
26254,-1.8718420267105103,0.6937383413314819,-5.323749542236328,0,0,0,0
26264,-1.8921736478805542,0.7261736989021301,-5.317098140716553,0,0,0,0
26274,-1.8270447254180908,0.6742066144943237,-5.3155412673950195,0,0,0,0
26284,-1.825703501701355,0.6516234278678894,-5.310913562774658,0,0,0,0
26294,-1.8684141635894775,0.6399034857749939,-5.304835319519043,0,0,0,0
26304,-1.8648338317871094,0.6395680904388428,-5.298529148101807,0,0,0,0
26314,-1.621858835220337,0.6636359095573425,-5.296164512634277,0,0,0,0
26324,-1.6217656135559082,0.6155338287353516,-5.293003559112549,0,0,0,0
26334,-1.585810661315918,0.6062676310539246,-5.2886810302734375,0,0,0,0
26344,-1.6347864866256714,0.6315410137176514,-5.280206680297852,0,0,0,0
26354,-1.6335242986679077,0.6288643479347229,-5.273445129394531,0,0,0,0
26364,-1.6448687314987183,0.6759291887283325,-5.264679431915283,0,0,0,0
26374,-1.6454799175262451,0.6748533844947815,-5.2568888664245605,0,0,0,0
26384,-1.6203235387802124,0.6335371136665344,-5.253477573394775,0,0,0,0
26394,-1.7309815883636475,0.5722231268882751,-5.249638080596924,0,0,0,0
26404,-1.6835403442382812,0.6250976324081421,-5.230475902557373,0,0,0,0
26414,-1.690625548362732,0.6078857183456421,-5.196159839630127,0,0,0,0
26424,-1.7224465608596802,0.606342613697052,-5.06962776184082,0,0,0,0
26434,-1.6888936758041382,0.6214918494224548,-4.820476531982422,0,0,0,0
26444,-1.6447557210922241,0.6188275218009949,-4.761231422424316,0,0,0,0
26454,-1.7016215324401855,0.6662716865539551,-4.914213180541992,0,0,0,0
26464,-1.4381686449050903,0.5848223567008972,-5.237236022949219,0,0,0,0
26474,-1.3028407096862793,0.46206018328666687,-5.647035598754883,0,0,0,0
26484,-0.9395511746406555,0.19750048220157623,-6.1455512046813965,0,0,0,0
26494,-1.1715784072875977,0.38008105754852295,-6.733205795288086,0,0,0,0
26504,-1.3240935802459717,0.5404284000396729,-7.297484874725342,0,0,0,0
26514,-1.1532728672027588,0.38931071758270264,-7.792014122009277,0,0,0,0
26524,-0.9018979072570801,0.06064733490347862,-8.202888488769531,0,0,0,0
26534,-0.9772714376449585,0.08906790614128113,-8.508322715759277,0,0,0,0
26544,-0.7909702658653259,-0.3126339018344879,-8.808904647827148,0,0,0,0
26554,-0.9555211067199707,-0.15594063699245453,-9.076722145080566,0,0,0,0
26564,-0.7891519665718079,-0.3141821026802063,-9.246468544006348,0,0,0,0
26574,-0.6862393617630005,-0.20256628096103668,-9.289908409118652,0,0,0,0
26584,-0.6488062739372253,-0.27701660990715027,-9.290107727050781,0,0,0,0
26594,-0.844449520111084,-0.2991182804107666,-9.292842864990234,0,0,0,0
26604,-1.0081801414489746,-0.27122247219085693,-9.261146545410156,0,0,0,0
26614,-1.2885173559188843,-0.33920276165008545,-9.123632431030273,0,0,0,0
26624,-1.4740959405899048,-0.3095923066139221,-8.911681175231934,0,0,0,0
26634,-1.7074663639068604,-0.35192131996154785,-8.724493980407715,0,0,0,0
26644,-1.9760322570800781,-0.37460312247276306,-8.581364631652832,0,0,0,0
26654,-2.0716803073883057,-0.4120767414569855,-8.437546730041504,0,0,0,0
26664,-2.052406072616577,-0.4225780963897705,-8.267115592956543,0,0,0,0
26674,-2.1047921180725098,-0.4788953363895416,-8.065671920776367,0,0,0,0
26684,-2.27461314201355,-0.699561357498169,-7.900051593780518,0,0,0,0
26694,-2.2551820278167725,-0.7094392776489258,-7.678349494934082,0,0,0,0
26704,-2.1441988945007324,-0.7116605043411255,-7.461587905883789,0,0,0,0
26714,-2.0388076305389404,-0.7129443883895874,-7.276984691619873,0,0,0,0
26724,-1.8721109628677368,-0.5582570433616638,-7.112246513366699,0,0,0,0
26734,-1.3312267065048218,-0.4325700104236603,-6.989907741546631,0,0,0,0
26744,-1.2460452318191528,-0.3295291066169739,-6.981058597564697,0,0,0,0
26754,-1.217687726020813,-0.3034803569316864,-7.004638671875,0,0,0,0
26764,-1.3454689979553223,-0.35354822874069214,-7.003656387329102,0,0,0,0
26774,-1.2727574110031128,-0.45326316356658936,-6.947269916534424,0,0,0,0
26784,-1.4775030612945557,-0.5326520204544067,-6.847893714904785,0,0,0,0
26794,-1.6070431470870972,-0.5261543393135071,-6.711666107177734,0,0,0,0
26804,-1.361770749092102,-0.5185278058052063,-6.5186309814453125,0,0,0,0
26814,-1.2867763042449951,-0.5536783933639526,-6.313770294189453,0,0,0,0
26824,-1.2995468378067017,-0.7884740233421326,-6.096346378326416,0,0,0,0
26834,-1.307367205619812,-0.7870512008666992,-5.837285995483398,0,0,0,0
26844,-1.2836824655532837,-0.7863519191741943,-5.552910804748535,0,0,0,0
26854,-1.237465500831604,-0.9689527750015259,-5.316116809844971,0,0,0,0
26864,-1.068833589553833,-0.8577961921691895,-5.142807960510254,0,0,0,0
26874,-1.0466557741165161,-0.9203363656997681,-5.044053554534912,0,0,0,0
26884,-1.04457426071167,-0.9302695989608765,-4.934359550476074,0,0,0,0
26894,-1.0199350118637085,-0.8635557889938354,-4.808932781219482,0,0,0,0
26904,-0.9230374693870544,-0.7980502247810364,-4.707271575927734,0,0,0,0
26914,-0.8597553372383118,-0.7408642768859863,-4.609549522399902,0,0,0,0
26924,-1.0310876369476318,-0.7889060974121094,-4.527137279510498,0,0,0,0
26934,-0.8305702209472656,-0.6699978113174438,-4.33828067779541,0,0,0,0
26944,-0.8127630352973938,-0.5981390476226807,-4.121813774108887,0,0,0,0
26954,-0.756692111492157,-0.5414460897445679,-3.913489818572998,0,0,0,0
26964,-0.607693612575531,-0.26124411821365356,-3.6848130226135254,0,0,0,0
26974,-0.7611599564552307,-0.22607514262199402,-3.5016891956329346,0,0,0,0
26984,-0.7042264342308044,-0.14343030750751495,-3.295283555984497,0,0,0,0
26994,-0.6570828557014465,-0.09186149388551712,-3.1167259216308594,0,0,0,0
27004,-0.5930622816085815,-0.092745341360569,-2.9393234252929688,0,0,0,0
27014,-0.5888816714286804,-0.09916922450065613,-2.7769482135772705,0,0,0,0
27024,-0.6259617209434509,-0.2693187892436981,-2.6924147605895996,0,0,0,0
27034,-0.5555448532104492,-0.2588460147380829,-2.6027374267578125,0,0,0,0
27044,-0.6024459004402161,-0.2542297840118408,-2.548344850540161,0,0,0,0
27054,-0.62043696641922,-0.2050154209136963,-2.5063982009887695,0,0,0,0
27064,-0.6214720010757446,-0.19701780378818512,-2.5022387504577637,0,0,0,0
27074,-0.5759664177894592,-0.1749507486820221,-2.5053138732910156,0,0,0,0
27084,-0.5003421902656555,-0.12385346740484238,-2.467169761657715,0,0,0,0
27094,-0.5210228562355042,-0.12954673171043396,-2.3882853984832764,0,0,0,0
27104,-0.5854246020317078,-0.03149985894560814,-2.2554397583007812,0,0,0,0
27114,-0.5829402804374695,-0.030796578153967857,-2.093384027481079,0,0,0,0
27124,-0.6714022159576416,-0.08213333785533905,-1.9484994411468506,0,0,0,0
27134,-0.6357383131980896,-0.06549759209156036,-1.736526608467102,0,0,0,0
27144,-0.422609806060791,-0.10307727009057999,-1.4702732563018799,0,0,0,0
27154,-0.6282438635826111,-0.13959667086601257,-1.2290676832199097,0,0,0,0
27164,-0.5551992654800415,-0.22455240786075592,-1.0246316194534302,0,0,0,0
27174,-0.5048909783363342,-0.2078879028558731,-0.9257961511611938,0,0,0,0
27184,-0.4687683582305908,-0.150080606341362,-0.9003775715827942,0,0,0,0
27194,-0.6744431257247925,-0.38584068417549133,-0.9500413537025452,0,0,0,0
27204,-0.5562031269073486,-0.31735360622406006,-0.9623587727546692,0,0,0,0
27214,-0.46103987097740173,-0.2357400506734848,-0.9779988527297974,0,0,0,0
27224,-0.39191964268684387,-0.040954310446977615,-0.9757622480392456,0,0,0,0
27234,-0.39709901809692383,-0.044409383088350296,-0.9753492474555969,0,0,0,0
27244,-0.3980523943901062,-0.04876173287630081,-0.972262442111969,0,0,0,0
27254,-0.34652891755104065,0.041098613291978836,-0.9602487683296204,0,0,0,0
27264,-0.29632049798965454,0.0901111587882042,-0.951789379119873,0,0,0,0
27274,-0.47537437081336975,0.36603397130966187,-0.9226652383804321,0,0,0,0
27284,-0.46597927808761597,0.37529492378234863,-0.9199740290641785,0,0,0,0
27294,-0.4020898938179016,0.4208467900753021,-0.9115384221076965,0,0,0,0
27305,-0.38949617743492126,0.4514111876487732,-0.9058749079704285,0,0,0,0
27315,-0.2899682819843292,0.493685781955719,-0.8980718851089478,0,0,0,0
27325,-0.2194903939962387,0.46633467078208923,-0.8992354273796082,0,0,0,0
27334,-0.21398037672042847,0.4712538421154022,-0.8973444700241089,0,0,0,0
27344,-0.15461695194244385,0.4826049208641052,-0.8949243426322937,0,0,0,0
27354,-0.15609130263328552,0.47995057702064514,-0.8928633332252502,0,0,0,0
27364,-0.04976050555706024,0.1576477289199829,-0.9329270720481873,0,0,0,0
27374,-0.18138961493968964,-0.2029804289340973,-0.9782659411430359,0,0,0,0
27384,-0.11088640987873077,-0.18086552619934082,-0.9737604856491089,0,0,0,0
27394,-0.11013304442167282,-0.17944419384002686,-0.9717177152633667,0,0,0,0
27404,-0.022275827825069427,-0.12112930417060852,-0.9633054733276367,0,0,0,0
27414,-0.022497134283185005,-0.12152595072984695,-0.9608730673789978,0,0,0,0
27424,0.011057134717702866,-0.010563072748482227,-0.9441835284233093,0,0,0,0
27434,0.052566785365343094,0.011895079165697098,-0.9390270709991455,0,0,0,0
27444,0.0648515522480011,0.06748241186141968,-0.9308181405067444,0,0,0,0
27454,0.08870550990104675,0.16797491908073425,-0.916425347328186,0,0,0,0
27464,0.08825530111789703,0.16798639297485352,-0.9145667552947998,0,0,0,0
27474,0.12161651253700256,0.22745643556118011,-0.9068388342857361,0,0,0,0
27484,0.12127377837896347,0.2283933460712433,-0.9042579531669617,0,0,0,0
27494,0.15302298963069916,0.25804221630096436,-0.8989945650100708,0,0,0,0
27504,0.1527826189994812,0.25870218873023987,-0.89836585521698,0,0,0,0
27514,0.23371759057044983,0.26061657071113586,-0.8991038799285889,0,0,0,0
27524,0.2276841253042221,0.2874120771884918,-0.8922816514968872,0,0,0,0
27534,0.3337516784667969,0.27425143122673035,-0.8950075507164001,0,0,0,0
27544,0.11109058558940887,0.23868772387504578,-0.8940910696983337,0,0,0,0
27554,0.07857795804738998,0.3015535771846771,-0.8810358047485352,0,0,0,0
27564,0.14373701810836792,0.3225231170654297,-0.8766605257987976,0,0,0,0
27574,0.14249664545059204,0.32341641187667847,-0.8763411045074463,0,0,0,0
27584,-0.038016799837350845,0.4887503385543823,-0.8458355069160461,0,0,0,0
27594,-0.03852704539895058,0.48909643292427063,-0.844476044178009,0,0,0,0
27604,-0.010516100563108921,0.509796142578125,-0.8396831154823303,0,0,0,0
27614,0.027536815032362938,0.5892975330352783,-0.8284936547279358,0,0,0,0
27624,0.07014206051826477,0.6008923649787903,-0.8269846439361572,0,0,0,0
27634,0.0701417624950409,0.5996753573417664,-0.8257819414138794,0,0,0,0
27644,0.13693253695964813,0.5468226075172424,-0.8338542580604553,0,0,0,0
27654,0.160960853099823,0.5971583724021912,-0.8274173140525818,0,0,0,0
27664,0.18279080092906952,0.5694789290428162,-0.831515371799469,0,0,0,0
27674,0.07156123220920563,0.4008612632751465,-0.8482834696769714,0,0,0,0
27684,0.09912244230508804,0.590533435344696,-0.8234416246414185,0,0,0,0
27694,0.1362232118844986,0.6116554737091064,-0.8214244842529297,0,0,0,0
27704,0.15868520736694336,0.5594397783279419,-0.827437698841095,0,0,0,0
27714,0.12039777636528015,0.637475848197937,-0.8131489157676697,0,0,0,0
27724,0.13221564888954163,0.3903156518936157,-0.8450334668159485,0,0,0,0
27734,0.13272610306739807,0.3901653289794922,-0.8445935845375061,0,0,0,0
27744,0.11747913062572479,0.44724252820014954,-0.8348413109779358,0,0,0,0
27754,0.17970845103263855,0.40384602546691895,-0.8425721526145935,0,0,0,0
27764,0.17707191407680511,0.4031151235103607,-0.8410738706588745,0,0,0,0
27774,0.17668715119361877,0.40426743030548096,-0.8402225971221924,0,0,0,0
27784,0.2103510946035385,0.41126763820648193,-0.8389188647270203,0,0,0,0
27794,0.23992086946964264,0.3948926031589508,-0.8419269323348999,0,0,0,0
27804,0.2908461093902588,0.25401994585990906,-0.8621930480003357,0,0,0,0
27814,0.3485853374004364,0.43565675616264343,-0.8418797850608826,0,0,0,0
27824,0.13139186799526215,0.43191224336624146,-0.8287869095802307,0,0,0,0
27834,0.13155926764011383,0.4321306645870209,-0.8257068991661072,0,0,0,0
27844,0.12670555710792542,0.49049222469329834,-0.816867470741272,0,0,0,0
27854,0.5944344401359558,0.8153412938117981,-0.8046208024024963,0,0,0,0
27864,0.5427895784378052,0.8067163825035095,-0.8021594882011414,0,0,0,0
27874,0.5809162855148315,0.7980462312698364,-0.8050795197486877,0,0,0,0
27884,0.5448786020278931,0.8377588391304016,-0.7975797653198242,0,0,0,0
27894,0.5443475842475891,0.8369690179824829,-0.7963566780090332,0,0,0,0
27904,0.5438044667243958,0.8358162641525269,-0.7942720651626587,0,0,0,0
27914,0.5703110694885254,0.8356125354766846,-0.7956857085227966,0,0,0,0
27924,0.5294449925422668,0.7690527439117432,-0.7984685301780701,0,0,0,0
27934,0.45261991024017334,0.8470120429992676,-0.7817516922950745,0,0,0,0
27944,0.45128193497657776,0.8462432622909546,-0.7796295285224915,0,0,0,0
27954,0.5949220061302185,0.7381871938705444,-0.8034197092056274,0,0,0,0
27964,0.5367964506149292,0.7421459555625916,-0.7959615588188171,0,0,0,0
27974,0.5803349018096924,0.6600213050842285,-0.8091855049133301,0,0,0,0
27984,0.5589894652366638,0.6946104764938354,-0.8010919690132141,0,0,0,0
27994,0.515222430229187,0.7446269392967224,-0.7898247241973877,0,0,0,0
28004,0.520970344543457,0.7002359628677368,-0.7935775518417358,0,0,0,0
28014,0.5040861964225769,0.6358082890510559,-0.7988425493240356,0,0,0,0
28024,0.3970775306224823,0.917234480381012,-0.7533024549484253,0,0,0,0
28034,0.39740994572639465,0.9174312949180603,-0.7528114318847656,0,0,0,0
28044,0.3764953017234802,0.9404824376106262,-0.7472829818725586,0,0,0,0
28054,0.3810912072658539,0.8783767819404602,-0.7534109950065613,0,0,0,0
28064,0.12988361716270447,1.085187315940857,-0.7062339186668396,0,0,0,0
28074,-0.2090405821800232,1.0363856554031372,-0.6809573173522949,0,0,0,0
28084,-0.20637623965740204,1.0364625453948975,-0.679378092288971,0,0,0,0
28094,-0.21705161035060883,1.0338237285614014,-0.6776725053787231,0,0,0,0
28104,-0.13413788378238678,0.9145961999893188,-0.6959191560745239,0,0,0,0
28114,-0.28654953837394714,0.5625868439674377,-0.7133640050888062,0,0,0,0
28124,-0.2875233590602875,0.5614007115364075,-0.7122375965118408,0,0,0,0
28134,-0.24324706196784973,0.5461655259132385,-0.7167419791221619,0,0,0,0
28144,-0.2041850984096527,0.5089789628982544,-0.7210744619369507,0,0,0,0
28154,-0.22657160460948944,0.5682840347290039,-0.714747428894043,0,0,0,0
28164,-0.2269304096698761,0.5672078728675842,-0.7135446667671204,0,0,0,0
28174,-0.23642252385616302,0.5736021995544434,-0.7109814882278442,0,0,0,0
28184,-0.1599952131509781,0.5200796723365784,-0.7187514305114746,0,0,0,0
28194,-0.12630750238895416,0.5425628423690796,-0.7184198498725891,0,0,0,0
28204,-0.329236775636673,0.31815430521965027,-0.7143942713737488,0,0,0,0
28214,-0.32917892932891846,0.3182845711708069,-0.7120500206947327,0,0,0,0
28224,-0.29204609990119934,0.3324979245662689,-0.7119765877723694,0,0,0,0
28234,-0.2346385419368744,0.2849666476249695,-0.7160036563873291,0,0,0,0
28244,-0.2628113925457001,0.3008270859718323,-0.7118284106254578,0,0,0,0
28254,-0.15065138041973114,-0.0024522575549781322,-0.724778413772583,0,0,0,0
28265,-0.12853600084781647,0.0667673796415329,-0.721650242805481,0,0,0,0
28275,-0.09626875817775726,0.10968034714460373,-0.720035970211029,0,0,0,0
28285,-0.05448603630065918,0.04319021478295326,-0.722158670425415,0,0,0,0
28295,0.21347437798976898,0.02806445211172104,-0.7270984053611755,0,0,0,0
28305,0.21267320215702057,0.028068607673048973,-0.7247872352600098,0,0,0,0
28315,0.22143755853176117,0.10001436620950699,-0.7216178178787231,0,0,0,0
28325,0.23179884254932404,0.07102610915899277,-0.7212217450141907,0,0,0,0
28335,0.00629451172426343,-0.1191103383898735,-0.7233119606971741,0,0,0,0
28345,0.06476476788520813,-0.448396772146225,-0.7307581901550293,0,0,0,0
28355,0.15359164774417877,-0.4405636787414551,-0.7283518314361572,0,0,0,0
28365,0.141762837767601,-0.3752646744251251,-0.7257368564605713,0,0,0,0
28375,0.3536350131034851,-0.6216097474098206,-0.7256268262863159,0,0,0,0
28385,0.5948619246482849,-0.58905029296875,-0.7161232829093933,0,0,0,0
28395,0.5887703895568848,-0.5699130296707153,-0.7133886814117432,0,0,0,0
28405,0.5710269212722778,-0.5048485994338989,-0.7112508416175842,0,0,0,0
28415,0.5683432221412659,-0.5024544596672058,-0.7099910378456116,0,0,0,0
28424,0.4191586375236511,-0.24800239503383636,-0.7066424489021301,0,0,0,0
28434,0.5164995193481445,-0.2928690016269684,-0.7032058238983154,0,0,0,0
28444,0.5165337920188904,-0.2927071452140808,-0.7016578912734985,0,0,0,0
28454,0.5129210352897644,-0.23972474038600922,-0.6985509991645813,0,0,0,0
28464,0.5202205777168274,-0.17801283299922943,-0.6933527588844299,0,0,0,0
28474,0.7797319293022156,-0.1208149790763855,-0.6724108457565308,0,0,0,0
28484,0.7121296525001526,-0.033859170973300934,-0.6711733341217041,0,0,0,0
28494,0.694963276386261,-0.021850459277629852,-0.669773280620575,0,0,0,0
28504,0.6875914931297302,-0.020664943382143974,-0.668850839138031,0,0,0,0
28514,0.6247475743293762,0.0799410343170166,-0.6648069024085999,0,0,0,0
28524,0.4566003084182739,0.14169277250766754,-0.6693485975265503,0,0,0,0
28534,0.4414255917072296,0.18837974965572357,-0.6663512587547302,0,0,0,0
28544,0.4416692554950714,0.18820501863956451,-0.6655446887016296,0,0,0,0
28554,0.27677398920059204,0.4516080319881439,-0.655755341053009,0,0,0,0
28564,0.5017502307891846,0.3533324897289276,-0.6496490240097046,0,0,0,0
28574,0.5001247525215149,0.35369664430618286,-0.6490705609321594,0,0,0,0
28584,0.4427146911621094,0.42424798011779785,-0.6464610695838928,0,0,0,0
28594,0.4713979661464691,0.3485074043273926,-0.6487395763397217,0,0,0,0
28604,0.3351393938064575,0.5331653356552124,-0.6397773623466492,0,0,0,0
28614,0.4149652421474457,0.48494160175323486,-0.6392735242843628,0,0,0,0
28624,0.3978247046470642,0.45247882604599,-0.6402958035469055,0,0,0,0
28634,0.3922462463378906,0.4451449513435364,-0.6395451426506042,0,0,0,0
28644,0.37383344769477844,0.4469408392906189,-0.6381669044494629,0,0,0,0
28654,0.3715667724609375,0.44690829515457153,-0.6369776725769043,0,0,0,0
28664,0.3559226989746094,0.5070250034332275,-0.6323961615562439,0,0,0,0
28674,0.3401065170764923,0.4832627475261688,-0.6330206990242004,0,0,0,0
28684,0.31462228298187256,0.5300753116607666,-0.6302191019058228,0,0,0,0
28694,0.314505398273468,0.5300864577293396,-0.6301456689834595,0,0,0,0
28704,0.3129892945289612,0.5299136638641357,-0.6296355724334717,0,0,0,0
28714,0.31165552139282227,0.5293135046958923,-0.628875732421875,0,0,0,0
28724,0.30906739830970764,0.48332175612449646,-0.6306276917457581,0,0,0,0
28734,0.3080047369003296,0.48121699690818787,-0.6284262537956238,0,0,0,0
28744,0.30766528844833374,0.48109540343284607,-0.6273699402809143,0,0,0,0
28754,0.2901166081428528,0.4781755805015564,-0.6262471079826355,0,0,0,0
28764,0.2743440568447113,0.44667336344718933,-0.6262219548225403,0,0,0,0
28774,0.25781792402267456,0.5003315806388855,-0.6226513981819153,0,0,0,0
28784,0.4258619248867035,0.2507869601249695,-0.6356715559959412,0,0,0,0
28794,0.42447808384895325,0.2512892186641693,-0.634897768497467,0,0,0,0
28804,0.40676841139793396,0.2825014889240265,-0.6330825686454773,0,0,0,0
28814,0.39026930928230286,0.2452828288078308,-0.6333873271942139,0,0,0,0
28824,0.27233877778053284,0.3652385175228119,-0.6264737844467163,0,0,0,0
28834,0.27059757709503174,0.36461132764816284,-0.6252124309539795,0,0,0,0
28844,0.26462066173553467,0.38793617486953735,-0.6241943836212158,0,0,0,0
28854,0.24652941524982452,0.3571816682815552,-0.622932493686676,0,0,0,0
28864,0.46783170104026794,0.038742680102586746,-0.6339795589447021,0,0,0,0
28874,0.4665035605430603,0.03825375437736511,-0.6332046389579773,0,0,0,0
28884,0.47002318501472473,0.030500387772917747,-0.63187175989151,0,0,0,0
28894,0.43399110436439514,0.06431634724140167,-0.6299178600311279,0,0,0,0
28904,0.4119880795478821,0.10880977660417557,-0.6274052262306213,0,0,0,0
28914,0.34056147933006287,-0.1860407292842865,-0.6368411183357239,0,0,0,0
28924,0.3132295608520508,-0.17486628890037537,-0.6355432271957397,0,0,0,0
28934,0.3002161383628845,-0.11622466892004013,-0.6336711645126343,0,0,0,0
28944,0.2621122896671295,-0.02668374590575695,-0.6300159096717834,0,0,0,0
28954,0.4653933644294739,-0.23770345747470856,-0.6325585842132568,0,0,0,0
28964,0.3577537536621094,-0.5371794104576111,-0.6426093578338623,0,0,0,0
28974,0.3156932294368744,-0.47975561022758484,-0.6413393616676331,0,0,0,0
28984,0.2567540407180786,-0.3903658986091614,-0.6403680443763733,0,0,0,0
28994,0.3025013208389282,-0.3745221495628357,-0.6357946395874023,0,0,0,0
29004,0.1046600267291069,-0.5968506336212158,-0.6485887169837952,0,0,0,0
29014,0.14699840545654297,-0.5126215815544128,-0.6422996520996094,0,0,0,0
29024,0.14265960454940796,-0.47532644867897034,-0.6411744952201843,0,0,0,0
29034,0.13762648403644562,-0.4064006209373474,-0.6397552490234375,0,0,0,0
29044,0.13049495220184326,-0.32989999651908875,-0.6367092728614807,0,0,0,0
29054,-0.06191248074173927,-0.15030139684677124,-0.6445605754852295,0,0,0,0
29064,-0.07687333971261978,-0.045603908598423004,-0.6433327198028564,0,0,0,0
29074,-0.06899231672286987,-0.02634192258119583,-0.6414070129394531,0,0,0,0
29084,-0.09539537131786346,0.0570049025118351,-0.6419231295585632,0,0,0,0
29094,-0.3006216883659363,0.4053446054458618,-0.650161862373352,0,0,0,0
29104,-0.27739086747169495,0.3962235152721405,-0.6489575505256653,0,0,0,0
29114,-0.06419945508241653,0.2366611361503601,-0.6375058889389038,0,0,0,0
29124,-0.06736205518245697,0.2594457268714905,-0.6376461386680603,0,0,0,0
29134,-0.11320162564516068,0.3133918046951294,-0.6390019655227661,0,0,0,0
29144,-0.08151514828205109,0.37482377886772156,-0.6386977434158325,0,0,0,0
29154,-0.07333115488290787,0.3555361330509186,-0.6360294222831726,0,0,0,0
29164,-0.06575723737478256,0.3368667960166931,-0.6337694525718689,0,0,0,0
29174,-0.06897320598363876,0.38445499539375305,-0.634086012840271,0,0,0,0
29184,-0.06998734921216965,0.3838993310928345,-0.6333913803100586,0,0,0,0
29194,-0.08231412619352341,0.4639337360858917,-0.6345397233963013,0,0,0,0
29204,-0.08365023881196976,0.4387737810611725,-0.63298499584198,0,0,0,0
29214,-0.07321321964263916,0.41725224256515503,-0.631341814994812,0,0,0,0
29224,-0.11817578971385956,0.5255200862884521,-0.6330649852752686,0,0,0,0
29234,-0.07293049246072769,0.4952867031097412,-0.6318114995956421,0,0,0,0
29244,-0.07458385080099106,0.49380338191986084,-0.6301577091217041,0,0,0,0
29254,-0.07863768935203552,0.46566930413246155,-0.6288054585456848,0,0,0,0
29264,-0.17278042435646057,0.6435273289680481,-0.6326467990875244,0,0,0,0
29274,-0.0894845649600029,0.5365485548973083,-0.6282046437263489,0,0,0,0
29284,-0.07898179441690445,0.5482262372970581,-0.6278433799743652,0,0,0,0
29294,-0.08592233061790466,0.512412965297699,-0.6250026822090149,0,0,0,0
29304,-0.10971029102802277,0.6030000448226929,-0.6263622641563416,0,0,0,0
29314,-0.11017218232154846,0.6028429269790649,-0.624934196472168,0,0,0,0
29324,-0.12233596295118332,0.6335382461547852,-0.6242043972015381,0,0,0,0
29334,-0.12041022628545761,0.6606593728065491,-0.6234651803970337,0,0,0,0
29344,-0.11990442126989365,0.580395519733429,-0.6189071536064148,0,0,0,0
29354,-0.12029922008514404,0.5779449343681335,-0.6188220381736755,0,0,0,0
29364,-0.05940211936831474,0.5609951019287109,-0.6203315854072571,0,0,0,0
