timestamp (ms),stabilizer.roll,stabilizer.pitch,stabilizer.yaw,motor.m1,motor.m2,motor.m3,motor.m4
81949,0.06927549093961716,-0.04460978880524635,0.28398123383522034,0,0,0,0
81959,0.062133826315402985,-0.08025122433900833,0.28497621417045593,0,0,0,0
81969,0.06260387599468231,-0.0806378424167633,0.2853127419948578,0,0,0,0
81979,0.06175735220313072,-0.08158288896083832,0.2857801020145416,0,0,0,0
81989,0.06069786846637726,-0.08158423006534576,0.28613564372062683,0,0,0,0
81999,0.05881500244140625,-0.08186331391334534,0.2850634455680847,0,0,0,0
82009,0.05832582339644432,-0.08219017088413239,0.28537243604660034,0,0,0,0
82019,0.05873220041394234,-0.08213357627391815,0.28497153520584106,0,0,0,0
82029,0.05747467279434204,-0.08086417615413666,0.28470608592033386,0,0,0,0
82039,0.052634455263614655,-0.06924367696046829,0.2850637435913086,0,0,0,0
82049,0.053654059767723083,-0.07103177905082703,0.2848166525363922,0,0,0,0
82059,0.05167733505368233,-0.07196181267499924,0.2854040265083313,0,0,0,0
82069,0.05180153250694275,-0.07119332998991013,0.28374889492988586,0,0,0,0
82079,0.052325908094644547,-0.07261400669813156,0.28497314453125,0,0,0,0
82089,0.04276285320520401,-0.0505475178360939,0.28454360365867615,0,0,0,0
82099,0.04317539185285568,-0.05045003816485405,0.284120112657547,0,0,0,0
82109,0.0432276614010334,-0.05027538910508156,0.2840186357498169,0,0,0,0
82120,0.042851097881793976,-0.05162068083882332,0.2840450406074524,0,0,0,0
82129,0.05223373696208,-0.03650083392858505,0.28333714604377747,0,0,0,0
82139,0.05241228640079498,-0.03553654998540878,0.28235968947410583,0,0,0,0
82149,0.05278956890106201,-0.03434080630540848,0.2821366786956787,0,0,0,0
82159,0.05302632600069046,-0.03536798804998398,0.28217947483062744,0,0,0,0
82169,0.053129084408283234,-0.03600025177001953,0.28176623582839966,0,0,0,0
82179,0.05333370715379715,-0.07236494868993759,0.2816408574581146,0,0,0,0
82189,0.053719066083431244,-0.07330632209777832,0.28083398938179016,0,0,0,0
82199,0.05571037158370018,-0.07401449233293533,0.2809862494468689,0,0,0,0
82209,0.05654367059469223,-0.0722615048289299,0.2811140716075897,0,0,0,0
82219,0.05654367059469223,-0.0722615048289299,0.2811140716075897,0,0,0,0
82229,0.06247211992740631,-0.04315483942627907,0.2819266617298126,0,0,0,0
82239,0.06054568663239479,-0.041420407593250275,0.28286585211753845,0,0,0,0
82249,0.06048118323087692,-0.04134754836559296,0.28263768553733826,0,0,0,0
82259,0.06158974766731262,-0.04093664139509201,0.28318777680397034,0,0,0,0
82270,0.060859210789203644,-0.13303744792938232,0.2830906808376312,0,0,0,0
82279,0.062092799693346024,-0.13545101881027222,0.2835313379764557,0,0,0,0
82289,0.06333533674478531,-0.1366855502128601,0.28361809253692627,0,0,0,0
82299,0.06456572562456131,-0.1361774057149887,0.28273138403892517,0,0,0,0
82309,0.06900790333747864,-0.16365951299667358,0.2825230658054352,0,0,0,0
82319,0.06844213604927063,-0.16567428410053253,0.28305482864379883,0,0,0,0
82329,0.0679255798459053,-0.16676932573318481,0.28334951400756836,0,0,0,0
82339,0.06798651069402695,-0.16574503481388092,0.281746506690979,0,0,0,0
82349,0.0679229348897934,-0.164960578083992,0.28254786133766174,0,0,0,0
82359,0.09488372504711151,-0.32623887062072754,0.2845715582370758,0,0,0,0
82369,0.09268040210008621,-0.3252730369567871,0.2849263548851013,0,0,0,0
82379,0.09143977612257004,-0.32639315724372864,0.28520897030830383,0,0,0,0
82389,0.09016630798578262,-0.32749658823013306,0.2863326072692871,0,0,0,0
82399,0.08128847181797028,-0.2577565312385559,0.2854984402656555,0,0,0,0
82409,0.08102995157241821,-0.2567194104194641,0.28625714778900146,0,0,0,0
82419,0.07951254397630692,-0.2546103298664093,0.2870524525642395,0,0,0,0
82429,0.07710820436477661,-0.25496363639831543,0.28629404306411743,0,0,0,0
82439,0.07635610550642014,-0.25514233112335205,0.28590649366378784,0,0,0,0
82449,0.05427034944295883,-0.10471409559249878,0.2864430546760559,0,0,0,0
82459,0.05294198915362358,-0.10379736870527267,0.28577062487602234,0,0,0,0
82469,0.051988352090120316,-0.10306660830974579,0.2859424948692322,0,0,0,0
82479,0.05201370269060135,-0.1032341867685318,0.285114049911499,0,0,0,0
82489,0.07377421110868454,-0.2370377779006958,0.28664571046829224,0,0,0,0
82499,0.07290580868721008,-0.23697775602340698,0.28631168603897095,0,0,0,0
82509,0.07184340804815292,-0.23584255576133728,0.28771886229515076,0,0,0,0
82519,0.07142484933137894,-0.23599497973918915,0.2873360514640808,0,0,0,0
82529,0.06770318001508713,-0.21434591710567474,0.28783857822418213,0,0,0,0
82539,0.06807118654251099,-0.2152746170759201,0.2874087393283844,0,0,0,0
82549,0.07073451578617096,-0.21582208573818207,0.28741052746772766,0,0,0,0
82559,0.07126210629940033,-0.21485498547554016,0.2870064377784729,0,0,0,0
82569,0.07362346351146698,-0.2134767770767212,0.2871997356414795,0,0,0,0
82579,0.045553285628557205,-0.07278876006603241,0.2872222065925598,0,0,0,0
82589,0.04490518942475319,-0.07270098477602005,0.2869197726249695,0,0,0,0
82599,0.04556318745017052,-0.07405134290456772,0.2858872711658478,0,0,0,0
82609,0.045480065047740936,-0.07506823539733887,0.2868584990501404,0,0,0,0
82619,0.04558738321065903,-0.06569238007068634,0.2872641086578369,0,0,0,0
82629,0.04475754499435425,-0.06551232188940048,0.28731560707092285,0,0,0,0
82639,0.04398173466324806,-0.06481718271970749,0.2875293791294098,0,0,0,0
82649,0.04398173466324806,-0.06481718271970749,0.2875293791294098,0,0,0,0
82659,0.03713986650109291,-0.002621225779876113,0.28651362657546997,0,0,0,0
82669,0.034598976373672485,-0.006090336013585329,0.2862004339694977,0,0,0,0
82679,0.0322115421295166,-0.005946521181613207,0.2865561842918396,0,0,0,0
82689,0.0322115421295166,-0.005946521181613207,0.2865561842918396,0,0,0,0
82699,0.032044246792793274,-0.006284443195909262,0.28778085112571716,0,0,0,0
82709,0.01971266232430935,0.12065669894218445,0.28630366921424866,0,0,0,0
82719,0.017141902819275856,0.12120615690946579,0.28650563955307007,0,0,0,0
82729,0.01866629533469677,0.12134227901697159,0.2861775755882263,0,0,0,0
82739,0.020509643480181694,0.11807191371917725,0.28475603461265564,0,0,0,0
82749,0.024342097342014313,0.08029251545667648,0.2848661243915558,0,0,0,0
82759,0.02284625545144081,0.07904567569494247,0.284793883562088,0,0,0,0
82769,0.02164626494050026,0.07905600219964981,0.2841604948043823,0,0,0,0
82779,0.022241143509745598,0.0782029777765274,0.28269216418266296,0,0,0,0
82789,0.02305469661951065,0.07754550874233246,0.28258511424064636,0,0,0,0
82799,0.03715948387980461,-0.04775700718164444,0.28217124938964844,0,0,0,0
82809,0.03728778660297394,-0.04749363288283348,0.28173381090164185,0,0,0,0
82819,0.037912726402282715,-0.047454480081796646,0.28249049186706543,0,0,0,0
82829,0.037843476980924606,-0.04881885275244713,0.28138095140457153,0,0,0,0
82839,0.05021890252828598,-0.18973955512046814,0.28248825669288635,0,0,0,0
82849,0.05118481442332268,-0.19082936644554138,0.2828150689601898,0,0,0,0
82859,0.05202442780137062,-0.1902683973312378,0.2819565534591675,0,0,0,0
82869,0.052224475890398026,-0.18867918848991394,0.2820998430252075,0,0,0,0
82879,0.053156498819589615,-0.17901219427585602,0.28188541531562805,0,0,0,0
82889,0.05232352763414383,-0.17846764624118805,0.281062513589859,0,0,0,0
82899,0.05169326812028885,-0.17611290514469147,0.2814522385597229,0,0,0,0
82909,0.051575616002082825,-0.17569659650325775,0.28155553340911865,0,0,0,0
82919,0.05339129641652107,-0.1757296621799469,0.2820624113082886,0,0,0,0
82929,0.06766895204782486,-0.24064414203166962,0.2824569344520569,0,0,0,0
82939,0.06669532507658005,-0.24091829359531403,0.2831907868385315,0,0,0,0
82949,0.06600820273160934,-0.2414785772562027,0.2831130027770996,0,0,0,0
82959,0.06773088127374649,-0.2397548407316208,0.2847064137458801,0,0,0,0
82969,0.039104681462049484,-0.09041060507297516,0.2837047576904297,0,0,0,0
82979,0.03674259036779404,-0.0911877229809761,0.28409042954444885,0,0,0,0
82989,0.03510154038667679,-0.09112235903739929,0.28507694602012634,0,0,0,0
82999,0.038354966789484024,-0.09042073041200638,0.2841024100780487,0,0,0,0
83009,0.03787045553326607,-0.09100634604692459,0.28384432196617126,0,0,0,0
83019,0.058142535388469696,-0.18871532380580902,0.2849707305431366,0,0,0,0
83029,0.05735478177666664,-0.1878473460674286,0.28434279561042786,0,0,0,0
83039,0.05682676285505295,-0.18830201029777527,0.28480902314186096,0,0,0,0
83049,0.056817032396793365,-0.18972419202327728,0.2849558889865875,0,0,0,0
83059,0.03236977383494377,-0.0779004618525505,0.28458282351493835,0,0,0,0
83069,0.030167587101459503,-0.0788455680012703,0.28384143114089966,0,0,0,0
83079,0.029264351353049278,-0.07759645581245422,0.2841131091117859,0,0,0,0
83089,0.029804546386003494,-0.07741151750087738,0.2831980586051941,0,0,0,0
83099,0.02958274446427822,-0.08481623232364655,0.2836052179336548,0,0,0,0
83109,0.028963789343833923,-0.08255653083324432,0.2846277952194214,0,0,0,0
83119,0.028337035328149796,-0.08077924698591232,0.28535398840904236,0,0,0,0
83129,0.02660047449171543,-0.0796838328242302,0.285396933555603,0,0,0,0
83140,0.026047417894005775,-0.08032625168561935,0.2852194309234619,0,0,0,0
83149,0.025887012481689453,-0.08027654886245728,0.28612902760505676,0,0,0,0
83159,0.026417341083288193,-0.0813523456454277,0.28679192066192627,0,0,0,0
83169,0.02548094280064106,-0.08173651248216629,0.28659793734550476,0,0,0,0
83179,0.024452276527881622,-0.08241309225559235,0.28670933842658997,0,0,0,0
83189,0.026830676943063736,-0.07355882972478867,0.2883790135383606,0,0,0,0
83199,0.026606522500514984,-0.07566403597593307,0.288202702999115,0,0,0,0
83209,0.02614390291273594,-0.07540178298950195,0.28940069675445557,0,0,0,0
83219,0.026658164337277412,-0.0771932527422905,0.28880739212036133,0,0,0,0
83229,0.02886080928146839,-0.062019653618335724,0.28941628336906433,0,0,0,0
83239,0.028226463124155998,-0.06310762465000153,0.288499116897583,0,0,0,0
83250,0.028694987297058105,-0.06229628622531891,0.2886714041233063,0,0,0,0
83259,0.027862627059221268,-0.06043087691068649,0.2885035276412964,0,0,0,0
83270,0.027716217562556267,-0.058846939355134964,0.28712397813796997,0,0,0,0
83280,0.025373199954628944,-0.08974142372608185,0.2889663577079773,0,0,0,0
83290,0.024873143061995506,-0.09066803753376007,0.2887529134750366,0,0,0,0
83300,0.023680083453655243,-0.0906568318605423,0.2893643081188202,0,0,0,0
83309,0.02408587373793125,-0.09068741649389267,0.28857338428497314,0,0,0,0
83319,0.02304428443312645,-0.08397569507360458,0.2894349992275238,0,0,0,0
83329,0.02445412427186966,-0.08534207195043564,0.28931963443756104,0,0,0,0
83339,0.02528655342757702,-0.08474741876125336,0.2905152440071106,0,0,0,0
83349,0.024640170857310295,-0.08536475896835327,0.29174554347991943,0,0,0,0
83359,0.023170167580246925,-0.08589741587638855,0.29003557562828064,0,0,0,0
83369,0.024530375376343727,-0.0872180312871933,0.2908473312854767,0,0,0,0
83380,0.02401205338537693,-0.08843977004289627,0.2908986508846283,0,0,0,0
83390,0.021626640111207962,-0.08807804435491562,0.2906956672668457,0,0,0,0
83399,0.021163104102015495,-0.08769556134939194,0.2903783917427063,0,0,0,0
83409,0.014736253768205643,-0.10460378229618073,0.2912142872810364,0,0,0,0
83419,0.014687225222587585,-0.10349331051111221,0.28970804810523987,0,0,0,0
83429,0.014288759790360928,-0.10268707573413849,0.28978145122528076,0,0,0,0
83439,0.0128764184191823,-0.10219154506921768,0.2890324592590332,0,0,0,0
83449,0.013034544885158539,-0.10327077656984329,0.2893063426017761,0,0,0,0
83459,0.021375300362706184,-0.10522372275590897,0.28922104835510254,0,0,0,0
83469,0.02126365154981613,-0.10493575036525726,0.28902897238731384,0,0,0,0
83479,0.020940450951457024,-0.10436056554317474,0.28931576013565063,0,0,0,0
83489,0.02099473588168621,-0.10289736092090607,0.28882846236228943,0,0,0,0
83499,0.020714299753308296,-0.1032988578081131,0.2901652157306671,0,0,0,0
83509,0.020538922399282455,-0.10430102795362473,0.2902839183807373,0,0,0,0
83519,0.01988675259053707,-0.10550449043512344,0.28851568698883057,0,0,0,0
83529,0.019876571372151375,-0.10437269508838654,0.2890867590904236,0,0,0,0
83539,0.020122550427913666,-0.1045166477560997,0.2894200086593628,0,0,0,0
83549,0.0207466259598732,-0.1048726886510849,0.28764235973358154,0,0,0,0
83559,0.01890510693192482,-0.1048860028386116,0.2884949743747711,0,0,0,0
83569,0.018399890512228012,-0.10448046773672104,0.2892751395702362,0,0,0,0
83579,0.01695333607494831,-0.10437769442796707,0.29007863998413086,0,0,0,0
83589,0.014918520115315914,-0.10537517815828323,0.2913282513618469,0,0,0,0
83599,0.01387183740735054,-0.10411949455738068,0.2918388843536377,0,0,0,0
83609,0.012666403315961361,-0.10329204052686691,0.2920633554458618,0,0,0,0
83619,0.011858071200549603,-0.10289908200502396,0.2928168475627899,0,0,0,0
83629,0.010427129454910755,-0.10313956439495087,0.2933014929294586,0,0,0,0
83639,0.010126729495823383,-0.10351911187171936,0.29322654008865356,0,0,0,0
83649,0.012263836339116096,-0.10383196175098419,0.29394131898880005,0,0,0,0
83659,0.011303799226880074,-0.10343381017446518,0.29429543018341064,0,0,0,0
83669,0.011553268879652023,-0.10204730927944183,0.29491183161735535,0,0,0,0
83679,0.010613561607897282,-0.10304178297519684,0.2954590618610382,0,0,0,0
83689,0.009627162478864193,-0.10250353813171387,0.295773446559906,0,0,0,0
83699,0.007792165037244558,-0.10226564109325409,0.2962706685066223,0,0,0,0
83709,0.007592802867293358,-0.1023130714893341,0.2976277768611908,0,0,0,0
83719,0.00806310586631298,-0.10202568024396896,0.2981395125389099,0,0,0,0
83729,0.007754467893391848,-0.10098512470722198,0.29775696992874146,0,0,0,0
83739,0.008936839178204536,-0.10107675194740295,0.2982800304889679,0,0,0,0
83749,0.00811318214982748,-0.10036344826221466,0.29820677638053894,0,0,0,0
83759,0.0010955511825159192,-0.09143923223018646,0.2980453073978424,0,0,0,0
83769,0.0007338715950027108,-0.09029997140169144,0.2973695397377014,0,0,0,0
83779,0.001364115159958601,-0.08967947959899902,0.2974894046783447,0,0,0,0
83789,0.0019215913489460945,-0.08952353894710541,0.2989335060119629,0,0,0,0
83799,0.0029409134294837713,-0.09054737538099289,0.29850488901138306,0,0,0,0
83809,0.004260935354977846,-0.09067250043153763,0.29823246598243713,0,0,0,0
83819,0.005950243677943945,-0.09273482114076614,0.2985486090183258,0,0,0,0
83829,0.003753871191293001,-0.09194140881299973,0.29762277007102966,0,0,0,0
83839,0.004590614698827267,-0.09202981740236282,0.29861512780189514,0,0,0,0
83849,0.002453308319672942,-0.09210816025733948,0.29871606826782227,0,0,0,0
83859,0.0011545502347871661,-0.09206133335828781,0.29850277304649353,0,0,0,0
83869,-0.00023586800671182573,-0.09335286170244217,0.2984214127063751,0,0,0,0
83879,-0.0003107561497017741,-0.09460102766752243,0.298687607049942,0,0,0,0
83889,-0.0016401892062276602,-0.09411390125751495,0.2984894812107086,0,0,0,0
83899,-0.0010891534620895982,-0.0934017226099968,0.2988984286785126,0,0,0,0
83909,-0.002662697108462453,-0.09231292456388474,0.29778143763542175,0,0,0,0
83919,-0.0032801979687064886,-0.08998705446720123,0.2971251904964447,0,0,0,0
83929,-0.00405499804764986,-0.08881089836359024,0.29811036586761475,0,0,0,0
83939,-0.0046926867216825485,-0.0884307473897934,0.29849064350128174,0,0,0,0
83949,-0.006819379515945911,-0.08764433115720749,0.2989191710948944,0,0,0,0
83959,-0.008674823679029942,-0.08685456961393356,0.2986147999763489,0,0,0,0
83969,-0.009836849756538868,-0.08646422624588013,0.2987655997276306,0,0,0,0
83979,-0.010406448505818844,-0.0878576785326004,0.2974662780761719,0,0,0,0
83989,-0.0026377628091722727,-0.08747585862874985,0.29751476645469666,0,0,0,0
83999,-0.002786708762869239,-0.08840453624725342,0.29935306310653687,0,0,0,0
84009,-0.0019377797143533826,-0.08825521916151047,0.2990604341030121,0,0,0,0
84019,-0.0011859189253300428,-0.08800022304058075,0.2985598146915436,0,0,0,0
84029,-0.0013763410970568657,-0.0892532616853714,0.2986871004104614,0,0,0,0
84039,-0.004616785794496536,-0.09039552509784698,0.2983282208442688,0,0,0,0
84049,-0.0051031289622187614,-0.08949833363294601,0.2980348467826843,0,0,0,0
84059,-0.005754868499934673,-0.08885808289051056,0.29736167192459106,0,0,0,0
84069,0.004647953435778618,-0.08556748926639557,0.29686808586120605,0,0,0,0
84079,0.0036183225456625223,-0.08601579070091248,0.2962568700313568,0,0,0,0
84089,0.003149618860334158,-0.08849842101335526,0.2954283356666565,0,0,0,0
84099,0.0038743361365050077,-0.08978024870157242,0.2969410717487335,0,0,0,0
84109,0.003376175183802843,-0.09080217778682709,0.29676976799964905,0,0,0,0
84119,0.0013291927753016353,-0.09117525070905685,0.296894371509552,0,0,0,0
84129,0.0001326914643868804,-0.09140392392873764,0.2969420254230499,0,0,0,0
84139,0.002420498291030526,-0.09113217145204544,0.2987220287322998,0,0,0,0
84149,-0.0007261268910951912,-0.09025774151086807,0.2983265519142151,0,0,0,0
84159,-0.0021710998844355345,-0.0908547192811966,0.2987017333507538,0,0,0,0
84169,-0.003222764702513814,-0.09212465584278107,0.29831045866012573,0,0,0,0
84179,-0.003912358544766903,-0.09335725754499435,0.2979235053062439,0,0,0,0
84189,-0.0044235424138605595,-0.09385621547698975,0.29789218306541443,0,0,0,0
84199,-0.01110133621841669,-0.09774234890937805,0.2977614998817444,0,0,0,0
84209,-0.012431441806256771,-0.09881380945444107,0.2973617911338806,0,0,0,0
84219,-0.01230579987168312,-0.09937155246734619,0.29852575063705444,0,0,0,0
84229,-0.012964858673512936,-0.09843870252370834,0.2991633713245392,0,0,0,0
84239,-0.01251305639743805,-0.09784840792417526,0.3012336492538452,0,0,0,0
84249,-0.012515651062130928,-0.09742487221956253,0.299639493227005,0,0,0,0
84259,-0.011242789216339588,-0.09747100621461868,0.30012574791908264,0,0,0,0
84269,-0.010928746312856674,-0.09727196395397186,0.3007981777191162,0,0,0,0
84279,-0.010507442988455296,-0.09646675735712051,0.29933658242225647,0,0,0,0
84289,-0.009097980335354805,-0.09631238877773285,0.29921820759773254,0,0,0,0
84299,-0.008956609293818474,-0.09808547794818878,0.2990816533565521,0,0,0,0
84309,-0.010516011156141758,-0.0975273996591568,0.29897400736808777,0,0,0,0
84319,-0.010334905236959457,-0.09778405725955963,0.2974638342857361,0,0,0,0
84329,-0.011022817343473434,-0.09805907309055328,0.29798242449760437,0,0,0,0
84339,-0.009318303316831589,-0.09804396331310272,0.2975936532020569,0,0,0,0
84349,-0.010975915938615799,-0.09589284658432007,0.29855361580848694,9362,9362,9362,9362
84359,-0.011352217756211758,-0.09577268362045288,0.300075888633728,9362,9362,9362,9362
84369,-0.010742307640612125,-0.09615089744329453,0.29982897639274597,9362,9362,9362,9362
84379,-0.010394642129540443,-0.09515107423067093,0.3010677993297577,9362,9362,9362,9362
84389,-0.009899948723614216,-0.09458131343126297,0.3027304410934448,9362,9362,9362,9362
84399,-0.011093969456851482,-0.09197908639907837,0.3021717667579651,9362,9362,9362,9362
84409,-0.0071018896996974945,-0.09070055186748505,0.3025531768798828,9362,9362,9362,9362
84419,-0.00658756447955966,-0.09148058295249939,0.30204927921295166,9362,9362,9362,9362
84429,-0.007643077056854963,-0.09091618657112122,0.3014276623725891,9362,9362,9362,9362
84439,-0.00745657691732049,-0.08987154066562653,0.3013922870159149,9362,9362,9362,9362
84449,-0.009229270741343498,-0.0905197486281395,0.3019777536392212,9362,9362,9362,9362
84460,-0.009351364336907864,-0.09012117981910706,0.30332353711128235,9362,9362,9362,9362
84470,-0.02256081998348236,-0.08213683217763901,0.3032315671443939,9362,9362,9362,9362
84479,-0.024282844737172127,-0.08324278891086578,0.30304908752441406,9362,9362,9362,9362
84489,-0.022230403497815132,-0.08516836166381836,0.30319899320602417,9362,9362,9362,9362
84499,-0.024676857516169548,-0.08626190572977066,0.3047952950000763,9362,9362,9362,9362
84509,-0.02336774580180645,-0.08476231247186661,0.3023846447467804,9362,9362,9362,9362
84519,-0.02719513326883316,-0.08624851703643799,0.303628146648407,9362,9362,9362,9362
84529,-0.02569597028195858,-0.08716804534196854,0.30296260118484497,9362,9362,9362,9362
84539,-0.02912711724638939,-0.08790142089128494,0.3058154582977295,9362,9362,9362,9362
84549,-0.025451315566897392,-0.08857518434524536,0.30131667852401733,9362,9362,9362,9362
84559,-0.02861771732568741,-0.08927777409553528,0.3067728579044342,9362,9362,9362,9362
84569,-0.026861775666475296,-0.09052633494138718,0.3010255694389343,9362,9362,9362,9362
84579,-0.024426443502306938,-0.08393923938274384,0.3039032220840454,9362,9362,9362,9362
84589,-0.027801446616649628,-0.08494111895561218,0.3128982186317444,9362,9362,9362,9362
84599,-0.026152539998292923,-0.08636803925037384,0.29877346754074097,9362,9362,9362,9362
84609,-0.023116460070014,-0.08184532821178436,0.2982543706893921,9362,9362,9362,9362
84619,-0.025872647762298584,-0.08053004741668701,0.31849226355552673,9362,9362,9362,9362
84629,-0.025876592844724655,-0.08284886181354523,0.31479495763778687,9362,9362,9362,9362
84639,-0.021559609100222588,-0.08113157749176025,0.29472866654396057,9362,9362,9362,9362
84649,-0.025478137657046318,-0.0805259644985199,0.29622721672058105,9362,9362,9362,9362
84659,-0.028427641838788986,-0.08052660524845123,0.31489112973213196,9362,9362,9362,9362
84669,-0.02588382177054882,-0.07781598716974258,0.3225874900817871,9362,9362,9362,9362
84679,-0.026225751265883446,-0.07746133208274841,0.3208467364311218,9362,9362,9362,9362
84689,-0.026527762413024902,-0.07923050224781036,0.3074705898761749,9362,9362,9362,9362
84699,-0.02761681377887726,-0.07865198701620102,0.3038877844810486,9362,9362,9362,9362
84709,-0.028276192024350166,-0.07956603169441223,0.3073626160621643,9362,9362,9362,9362
84719,-0.0272601917386055,-0.08082883059978485,0.3128286898136139,9362,9362,9362,9362
84729,-0.03318776562809944,-0.0865398570895195,0.31885069608688354,9362,9362,9362,9362
84739,-0.032676201313734055,-0.08938649296760559,0.32253748178482056,9362,9362,9362,9362
84749,-0.033100519329309464,-0.0909036174416542,0.32331669330596924,9362,9362,9362,9362
84759,-0.03298700228333473,-0.09096197038888931,0.32217937707901,9362,9362,9362,9362
84769,-0.03346317261457443,-0.0894952043890953,0.32278358936309814,9362,9362,9362,9362
84779,-0.03124958835542202,-0.08822588622570038,0.3235512673854828,9362,9362,9362,9362
84789,-0.031519852578639984,-0.08797852694988251,0.32422906160354614,9362,9362,9362,9362
84799,-0.031548090279102325,-0.08741319924592972,0.32617974281311035,9362,9362,9362,9362
84809,-0.03180191293358803,-0.0894978865981102,0.3277845084667206,9362,9362,9362,9362
84819,-0.03278833255171776,-0.09083804488182068,0.3250161111354828,9362,9362,9362,9362
84829,-0.032891616225242615,-0.09127727895975113,0.32505038380622864,9362,9362,9362,9362
84839,-0.034592773765325546,-0.09124723076820374,0.3219987750053406,9362,9362,9362,9362
84849,-0.036186788231134415,-0.09055566042661667,0.32121238112449646,55537,64859,64784,44491
84859,-0.0356319360435009,-0.09001079201698303,0.3238585591316223,60735,64391,63440,53455
84869,-0.036744073033332825,-0.08828795701265335,0.3219306766986847,62273,62924,62084,57281
84879,-0.035623371601104736,-0.08704910427331924,0.3290817439556122,63019,62746,60791,59453
84889,-0.02491999976336956,-0.11073576658964157,0.319306343793869,63425,62815,59784,59404
84899,-0.02081247977912426,-0.10901273041963577,0.3432961404323578,64284,62483,59158,57822
84909,-0.033367253839969635,-0.12134501338005066,0.5525928139686584,64115,63145,59278,55099
84919,-0.07398226857185364,-0.05828767642378807,0.8144575357437134,64101,62753,58574,58194
84929,-0.04679165780544281,-0.0418376661837101,1.0391792058944702,64345,61658,58757,60799
84939,-0.14643603563308716,-0.08053841441869736,1.2947648763656616,64114,62032,60126,59610
84949,-0.26297909021377563,-0.029262976720929146,1.5699001550674438,64403,62557,59665,60037
84959,-0.39184290170669556,-0.054358866065740585,1.873404860496521,63528,62073,60234,60154
84969,-0.7403375506401062,0.08542592823505402,2.1842997074127197,63054,61671,60616,58906
84979,-1.3018584251403809,0.36299532651901245,2.5440189838409424,62758,60584,61295,59579
84989,-2.019012212753296,0.6286187767982483,2.9244112968444824,61777,60036,61764,59146
84999,-3.0444557666778564,0.963371753692627,3.2903997898101807,60414,60332,61962,57375
85009,-4.311298847198486,1.461386799812317,3.6356539726257324,59152,59067,62430,58158
85019,-5.914504051208496,2.07362961769104,4.004046440124512,57489,59107,62973,57611
85029,-8.028541564941406,2.852379560470581,4.406325340270996,11754,32129,65535,59436
85039,-10.459342956542969,3.6600706577301025,4.91013240814209,15285,30321,65535,53430
85049,-12.222626686096191,4.6357293128967285,5.478278160095215,18460,39496,65535,38832
85059,-13.729806900024414,5.47675895690918,6.088079929351807,23960,53263,65457,38172
85069,-14.579601287841797,6.335072040557861,6.598733901977539,39113,51762,64205,39015
85079,-13.710658073425293,6.968252182006836,6.8536224365234375,48287,47726,62769,39646
85089,-13.829706192016602,7.351998329162598,7.386602401733398,58006,52812,61211,41908
85099,-11.579086303710938,6.621124744415283,7.598468780517578,64039,56961,52809,46455
85109,-9.35276985168457,5.568603992462158,7.7653961181640625,64467,52014,41113,48270
85119,-5.898565769195557,3.8763630390167236,7.633625507354736,64210,49796,32528,44064
85129,-4.239230632781982,2.612506151199341,7.673489093780518,62491,46937,39561,47791
85139,-1.872931718826294,1.113048791885376,7.650661945343018,61643,48953,42887,50371
85149,1.483014464378357,-0.6918470859527588,7.43015193939209,61668,53094,45579,51832
85159,3.604590654373169,-2.5459108352661133,7.586743354797363,60789,51703,50565,54436
85169,5.055984973907471,-3.9489145278930664,7.718448162078857,52993,46365,55778,51307
85179,6.271131992340088,-4.876084804534912,7.831774711608887,48135,44839,58322,46069
85189,6.372164249420166,-4.7628254890441895,7.826197624206543,42657,47058,57362,45250
85199,7.018514633178711,-4.189090728759766,7.712230682373047,44146,51288,55695,38239
85209,7.421633720397949,-3.9791347980499268,7.59443998336792,48822,51434,54487,43277
85219,7.604792594909668,-3.379040241241455,7.421140193939209,63354,33507,22673,60838
85229,8.1051025390625,-3.576260566711426,7.3257670402526855,55488,50586,41410,54173
85239,8.485858917236328,-3.5325052738189697,7.242394924163818,59659,40581,32667,60219
85249,8.968690872192383,-3.6602354049682617,7.173316955566406,58625,36040,44758,57645
85259,9.923827171325684,-3.9343087673187256,7.193936347961426,55934,34001,46976,53678
85269,9.520503044128418,-2.242797374725342,7.176462173461914,46402,42727,56070,45874
85279,9.81722640991211,-1.419216275215149,7.01253080368042,43053,50789,56130,36476
85289,10.11878490447998,0.08482515066862106,6.712917327880859,43532,52748,57723,38809
85300,10.975140571594238,2.643862009048462,6.546429634094238,44388,54104,55315,37608
85309,11.696359634399414,4.550483703613281,6.038006782531738,40514,52361,51400,31276
85319,12.518266677856445,6.5727434158325195,5.496532917022705,44208,55880,43867,32606
85329,13.705208778381348,9.00944709777832,5.006331920623779,44611,56228,40494,24315
85339,15.088117599487305,11.335431098937988,4.6054277420043945,46161,53189,43486,25091
85349,16.269081115722656,13.003342628479004,4.146674156188965,48791,44451,37581,34462
85359,17.124645233154297,14.04459285736084,3.6964712142944336,44275,45415,39901,51279
85369,17.750764846801758,15.317265510559082,3.4293272495269775,47780,42298,45031,51377
85379,17.77924919128418,15.872570037841797,3.2526638507843018,45319,49468,47591,54007
85390,17.35123062133789,16.173473358154297,3.1436195373535156,45780,45961,53495,45552
85399,17.16337013244629,16.739774703979492,3.208873987197876,43173,44226,52670,39445
85409,17.27737808227539,17.21993064880371,3.036609649658203,40978,41377,51138,32818
85419,16.784446716308594,17.4466552734375,3.0813851356506348,41092,41543,48736,31354
85429,16.29955291748047,17.664785385131836,3.192570924758911,46720,46432,45126,38622
85439,15.868181228637695,17.517108917236328,3.265751361846924,45166,52069,41896,42395
85449,15.678886413574219,17.414419174194336,3.2835946083068848,51207,49327,41672,48134
85459,14.851946830749512,16.8906307220459,3.6938352584838867,50993,44680,46245,47979
85469,14.545160293579102,16.471660614013672,3.863218307495117,54103,38081,46351,45545
85480,13.943899154663086,15.772477149963379,4.151163578033447,49661,44065,40847,46847
85490,12.98373794555664,15.054422378540039,4.620260238647461,44575,43772,40097,50273
85500,12.229318618774414,14.323312759399414,4.8371710777282715,41572,44890,46676,48540
85510,11.16541576385498,13.802144050598145,5.2708234786987305,46431,44208,54522,45359
85519,10.424112319946289,13.475005149841309,5.4594268798828125,48170,52104,60249,44134
85530,9.666096687316895,13.224644660949707,5.640777111053467,47149,50281,59545,41185
85540,9.266862869262695,13.172258377075195,5.542599201202393,51352,44127,55592,42344
85550,8.37854290008545,12.664910316467285,5.68563175201416,48202,42951,46304,47045
85560,7.906747817993164,12.167387962341309,5.57589054107666,48513,44701,33120,50022
85570,6.458164691925049,10.665409088134766,6.0209527015686035,49638,45225,31936,55505
85580,6.132209300994873,9.781734466552734,6.065145969390869,52713,41525,38992,54193
85590,5.725069522857666,8.675686836242676,6.117794513702393,54067,37588,48192,48426
85600,4.992427825927734,7.444920063018799,6.507226467132568,52293,41699,49793,44061
85610,4.712865829467773,6.178130626678467,6.370169162750244,45329,45640,48140,44927
85620,4.581035137176514,5.70058536529541,6.459273815155029,37857,50859,47322,41942
85630,3.995569944381714,5.117164611816406,6.85920524597168,57691,65513,43122,21983
85640,4.0449113845825195,4.979283332824707,6.979888439178467,56692,65049,55959,35648
85650,4.005003452301025,4.81043815612793,7.1329426765441895,53850,63805,59748,47180
85660,3.670466661453247,4.58860969543457,7.40512228012085,55954,61828,63733,55671
85670,2.7522811889648438,3.9891138076782227,7.698545932769775,52611,62307,63769,59033
85680,1.3314704895019531,2.8506240844726562,7.973670959472656,54445,60625,60743,62692
85690,-0.36858293414115906,1.2904942035675049,8.212709426879883,56274,53024,55816,63925
85699,-2.9625818729400635,-1.1495025157928467,8.78262710571289,58482,43063,50379,64410
85710,-4.88863468170166,-3.4319002628326416,9.009879112243652,60151,40845,46906,64131
85720,-7.606403827667236,-6.180592060089111,9.615011215209961,58326,40921,43144,63651
85730,-9.847745895385742,-9.258501052856445,9.689980506896973,55204,48425,50134,61686
85740,-12.128141403198242,-12.205487251281738,9.796963691711426,54242,43192,57545,58806
85750,-13.888639450073242,-14.652399063110352,9.894286155700684,56526,42798,60929,55077
85760,-15.928566932678223,-16.675554275512695,10.246678352355957,52149,41632,63861,44891
85770,-16.83501434326172,-17.976072311401367,10.500598907470703,54834,48340,62761,37784
85780,-17.31689453125,-18.72054672241211,10.8142671585083,57395,53135,55486,36560
85791,-17.1356258392334,-19.28281593322754,11.098716735839844,61379,51884,53214,34220
85800,-16.8557186126709,-19.704151153564453,11.411239624023438,61002,49749,46409,45167
85810,-16.371278762817383,-20.079620361328125,11.656986236572266,60295,46463,49312,49713
85820,-15.782323837280273,-20.30879783630371,11.87102222442627,60058,46932,51072,52975
85830,-15.09549617767334,-20.615234375,12.12179183959961,58943,51769,54971,53445
85840,-14.567708015441895,-20.59581184387207,12.34732437133789,53167,53654,60485,49446
85850,-14.127584457397461,-20.426931381225586,12.606099128723145,43563,53841,61527,48380
85860,-13.66372299194336,-20.105880737304688,13.018219947814941,40509,50657,56365,45393
85870,-13.251275062561035,-19.67150115966797,13.410463333129883,47408,42859,51311,45178
85880,-12.802998542785645,-19.163501739501953,13.717387199401855,48333,39742,39909,44519
85890,-12.374131202697754,-18.984556198120117,13.990321159362793,46766,37239,40039,42362
85900,-11.632229804992676,-19.0391788482666,14.428536415100098,41320,45581,42018,45623
85910,-10.96689224243164,-19.01140785217285,14.769364356994629,51295,44180,40487,50159
85920,-10.275257110595703,-19.035598754882812,15.135884284973145,57700,41312,42985,50479
85930,-9.478730201721191,-18.987810134887695,15.578709602355957,59524,40423,47541,48403
85940,-8.990923881530762,-18.51800537109375,15.566587448120117,56940,46316,56110,44153
85950,-8.278152465820312,-18.141319274902344,15.938343048095703,44594,54130,56697,34253
85960,-7.538459777832031,-17.377399444580078,16.269102096557617,40507,54526,57144,30298
85970,-6.953107833862305,-16.55571937561035,16.563657760620117,41479,49647,53543,32061
85980,-6.449595928192139,-15.638144493103027,16.772762298583984,46421,42785,47972,37666
85989,-5.959377288818359,-14.874310493469238,17.01521110534668,45827,46091,51260,35416
86000,-5.450430870056152,-14.18911361694336,17.271827697753906,46100,48300,42628,38937
86009,-4.980412006378174,-13.72746753692627,17.483074188232422,42138,45736,43738,41317
86019,-4.580465793609619,-13.37775993347168,17.620582580566406,42573,39838,39181,45796
86029,-4.2474284172058105,-13.26137924194336,17.775413513183594,42488,33760,38441,44808
86039,-4.004271984100342,-13.25551986694336,17.952861785888672,46387,28438,41155,42269
86051,-3.7307870388031006,-13.282719612121582,18.19008445739746,44095,30544,39558,38559
86059,-3.392918109893799,-13.262721061706543,18.477060317993164,41652,36095,38715,39950
86069,-3.2101523876190186,-13.166204452514648,18.505807876586914,41471,37470,34492,41893
86079,-2.9307258129119873,-13.06356430053711,18.666162490844727,46368,37882,44085,40435
86089,-2.5945003032684326,-12.815960884094238,18.90700912475586,51209,38380,47008,34493
86099,-2.20474910736084,-12.434178352355957,19.18929672241211,53752,40996,56062,31067
86111,-1.8020230531692505,-11.85654067993164,19.469200134277344,44175,45630,55392,27450
86119,-1.5904828310012817,-11.306499481201172,19.50653648376465,39270,42297,45906,34270
86129,-1.2695791721343994,-10.573750495910645,19.52414321899414,36995,43971,43308,34547
86139,-1.019469976425171,-9.827109336853027,19.43709373474121,46154,39561,37859,42390
86151,-0.6455374956130981,-9.312200546264648,19.587175369262695,52044,41934,39353,43945
86161,-0.35917750000953674,-8.751440048217773,19.582223892211914,45914,47511,41743,44297
86169,-0.094968780875206,-8.089529991149902,19.504961013793945,41543,48973,45009,40184
86181,0.16131101548671722,-7.497602462768555,19.614625930786133,35066,41421,45029,35379
86189,0.2628290057182312,-6.853187084197998,19.63442039489746,37125,40833,46902,34234
86199,0.3489343822002411,-6.0990118980407715,19.750356674194336,41181,35306,43825,36708
86209,0.3563404083251953,-5.429162979125977,19.824914932250977,40675,35077,49890,34294
86219,0.35748785734176636,-4.718419551849365,19.97447395324707,39691,39022,51073,31808
86229,0.29633551836013794,-4.167945861816406,20.031042098999023,39392,39766,38862,37253
86239,0.31012624502182007,-3.5673868656158447,19.951414108276367,46587,40761,34327,41878
86249,0.3599090576171875,-3.258005380630493,19.96348762512207,53611,41602,39849,43669
86259,0.424742728471756,-2.883951187133789,19.944591522216797,55418,41655,42795,43087
86269,0.5808963179588318,-2.592543363571167,20.033212661743164,49619,43433,51592,38336
86279,0.6637421250343323,-2.166651725769043,20.03617286682129,38991,48615,50942,37503
86289,0.6507976651191711,-1.666475534439087,20.02748680114746,41840,48387,50373,39025
86299,0.5500945448875427,-1.0164669752120972,19.897357940673828,46005,47857,50392,41239
86309,0.37301692366600037,-0.42482706904411316,19.799579620361328,49363,46751,48753,42969
86319,0.22107698023319244,0.062324460595846176,19.77760887145996,41715,44842,46491,41043
86329,-0.001341368188150227,0.5426511764526367,19.702011108398438,39694,44858,42064,40708
86339,-0.2601490318775177,0.8849893808364868,19.643056869506836,38784,45473,41889,37144
86349,-0.4714556038379669,1.268968105316162,19.61750030517578,42040,45207,41641,41620
86359,-0.7815178036689758,1.4730730056762695,19.58342933654785,47192,39924,46182,42552
86369,-1.1780120134353638,1.6433079242706299,19.597185134887695,46957,35635,48944,44022
86379,-1.6109278202056885,1.7638429403305054,19.64369773864746,44297,37859,50826,41463
86389,-2.1339635848999023,1.9385684728622437,19.58159065246582,40805,44528,45259,43782
86399,-2.606024980545044,2.066598653793335,19.50008773803711,42449,44339,43429,45120
86409,-2.953587770462036,2.1667733192443848,19.55933380126953,48861,43502,47357,43005
86419,-3.3017075061798096,2.3151609897613525,19.575773239135742,54147,45697,52011,41351
86429,-3.62127947807312,2.4914064407348633,19.56551742553711,52374,48240,56749,41228
86439,-3.9613587856292725,2.724015951156616,19.45135498046875,44528,52053,56133,41807
86449,-4.191006183624268,2.9621329307556152,19.437244415283203,43983,51839,50095,46387
86459,-4.435135364532471,3.132256507873535,19.32338523864746,48142,50460,50509,47549
86469,-4.665404796600342,3.270155429840088,19.21135139465332,55801,47633,51976,48604
86479,-4.884540557861328,3.271188974380493,19.15772247314453,55400,47047,48846,51688
86489,-5.075047016143799,3.079970359802246,19.15250587463379,47638,47687,44617,50043
86499,-5.243687152862549,2.934370517730713,19.023393630981445,46904,46965,44109,45839
86509,-5.347454071044922,2.784864902496338,19.005756378173828,43759,49692,47158,44101
86519,-5.5189337730407715,2.775291919708252,18.99164390563965,49909,51813,52151,44046
86530,-5.670324325561523,2.789717435836792,19.032636642456055,48131,48795,57860,42730
86539,-5.843877792358398,2.9321467876434326,19.051334381103516,49439,42555,57234,43897
86550,-6.008308410644531,2.9632692337036133,19.085712432861328,45011,43727,54097,42199
86559,-6.071804046630859,2.9233927726745605,19.142013549804688,45270,48272,47119,44617
86570,-6.068644046783447,2.895169973373413,19.055402755737305,52272,51658,42984,47450
86579,-5.965362548828125,2.7622711658477783,18.94835090637207,57689,49632,45663,51676
86589,-5.839643955230713,2.5133469104766846,18.849721908569336,57820,49280,53284,50054
86599,-5.751237869262695,2.2697298526763916,18.7976016998291,51818,51039,57165,46846
86609,-5.692385196685791,2.100109577178955,18.731550216674805,46343,55867,55329,46417
86619,-5.699488639831543,1.9983274936676025,18.663280487060547,48600,53732,51801,49923
86629,-5.698927879333496,1.9461677074432373,18.5750675201416,52122,49101,52466,48179
86639,-5.674082279205322,1.8276417255401611,18.57387351989746,53302,46582,50700,48734
86649,-5.680268287658691,1.6348745822906494,18.559284210205078,48393,47408,46908,48508
86659,-5.6476149559021,1.4568421840667725,18.510147094726562,46951,48111,48043,44909
86670,-5.597359657287598,1.2776275873184204,18.504146575927734,49274,50622,49301,43900
86679,-5.557463645935059,1.12261164188385,18.48157501220703,50138,54082,51295,46168
86689,-5.468578338623047,0.9968999624252319,18.497385025024414,52028,50261,53783,48065
86699,-5.423224925994873,0.8572773337364197,18.528892517089844,52162,41552,54329,46195
86709,-5.433518886566162,0.7053192257881165,18.552825927734375,52187,41659,52717,45189
86719,-5.458371639251709,0.5226190686225891,18.53831672668457,46857,48067,48864,46179
86729,-5.4288225173950195,0.35412290692329407,18.501323699951172,46402,52490,47428,45671
86739,-5.274763107299805,0.19319644570350647,18.479551315307617,50413,50973,48179,46410
86749,-5.103617191314697,0.013087552040815353,18.48977279663086,56611,49118,51589,46948
86759,-4.872838973999023,-0.10069337487220764,18.508848190307617,54004,51126,55084,45740
86769,-4.704386234283447,-0.19872936606407166,18.46906280517578,47421,50889,57383,46667
86779,-4.575004577636719,-0.2812231779098511,18.48000717163086,44001,52525,52525,47540
86789,-4.427238941192627,-0.44897735118865967,18.528160095214844,49232,46287,52411,46051
86799,-4.4025349617004395,-0.609472393989563,18.554107666015625,55513,42529,46993,48586
86809,-4.298717975616455,-0.8971121907234192,18.611080169677734,52393,45152,44443,49413
86819,-4.140510559082031,-1.169612169265747,18.57320785522461,48551,45605,42781,48476
86829,-4.000982284545898,-1.4670943021774292,18.49698257446289,47125,49508,50077,42274
86839,-3.7167816162109375,-1.6929187774658203,18.54722785949707,49350,53202,50317,44014
86849,-3.458949565887451,-1.8100930452346802,18.653514862060547,51016,53782,51370,46402
86859,-3.340269088745117,-1.7769432067871094,18.66266441345215,51277,44624,55218,47805
86869,-3.1844520568847656,-1.7137541770935059,18.736835479736328,51916,37460,55526,44574
86879,-2.9909260272979736,-1.7469310760498047,18.844253540039062,45006,47316,52352,39415
86890,-2.804288148880005,-1.7752000093460083,18.84452247619629,46087,49607,43138,43402
86899,-2.6133525371551514,-1.9122059345245361,18.78753089904785,46761,52008,44015,45442
86909,-2.3031222820281982,-2.138115167617798,18.81889533996582,56285,46282,46972,49536
86919,-2.0901095867156982,-2.4148378372192383,18.916339874267578,57217,46210,54199,46971
86929,-1.9344145059585571,-2.7165324687957764,19.000070571899414,50577,47330,55887,44027
86939,-1.7978811264038086,-2.9341957569122314,19.064512252807617,42655,50574,50385,45572
86949,-1.7116554975509644,-3.0905539989471436,19.083791732788086,46095,46897,45027,47081
86959,-1.6912107467651367,-3.16835880279541,19.050750732421875,50629,44548,44333,45212
86969,-1.5000172853469849,-3.241419553756714,19.075407028198242,52523,43864,46387,45402
86979,-1.273012638092041,-3.3631486892700195,19.165977478027344,51803,44884,45056,46033
86989,-1.0394821166992188,-3.4210221767425537,19.266454696655273,53065,46520,48611,41830
86999,-0.8503773212432861,-3.441190481185913,19.301328659057617,47837,53726,51896,39794
87009,-0.6380285620689392,-3.3671491146087646,19.302499771118164,46897,52387,45661,48138
87019,-0.4323461651802063,-3.255270481109619,19.322446823120117,47016,45235,48786,46141
87029,-0.3446766138076782,-3.170356512069702,19.413280487060547,51575,35550,53442,42932
87039,-0.3264043629169464,-3.075676679611206,19.53481674194336,52765,41237,53674,39297
87049,-0.36168038845062256,-3.041548490524292,19.63117218017578,44733,48119,50459,41113
87059,-0.4295441806316376,-3.10223388671875,19.6732177734375,41535,51514,45925,42219
87069,-0.4066098630428314,-3.096219301223755,19.661026000976562,48316,48583,39233,46098
87079,-0.31515052914619446,-3.126025676727295,19.64991569519043,54493,47903,42482,46037
87089,-0.15547718107700348,-3.186344861984253,19.73677635192871,50431,45368,54407,41956
87099,-0.08470418304204941,-3.2168052196502686,19.820213317871094,42946,48278,54101,41951
87109,-0.088409423828125,-3.166654348373413,19.85196876525879,38993,43981,51256,41840
87119,-0.12379021942615509,-3.1229236125946045,19.897809982299805,45768,37523,44624,41546
87129,-0.20934724807739258,-3.0635855197906494,19.871627807617188,51670,43098,40183,44772
87139,-0.11762924492359161,-3.0018608570098877,19.867130279541016,47362,36706,41573,45208
87149,0.01084405928850174,-3.0190494060516357,19.873289108276367,45320,40397,41215,40650
87159,0.26809263229370117,-3.051441192626953,19.90628433227539,38222,43898,51565,30582
87169,0.602766215801239,-2.970984697341919,19.930877685546875,36650,40596,46912,35701
87179,0.9500092267990112,-2.8565120697021484,19.943378448486328,40194,40066,45504,37747
87189,1.4562345743179321,-2.7866106033325195,19.96359634399414,39898,34704,47985,39946
87199,2.1038882732391357,-2.727208137512207,19.91851043701172,43435,37929,40159,37566
87209,3.019392251968384,-2.721808910369873,19.89868927001953,41284,37760,42933,35365
87219,4.100315093994141,-2.7343971729278564,19.892940521240234,39920,39718,38807,35463
87229,5.270396709442139,-2.8287222385406494,19.844390869140625,41502,44984,38901,34024
87239,6.666591644287109,-2.921271562576294,19.859189987182617,48388,40751,42342,39336
87249,8.187479019165039,-2.9839439392089844,19.96888542175293,47022,41382,43636,36762
87259,9.606334686279297,-3.0656771659851074,19.96158790588379,44865,40900,41047,34724
87269,11.123469352722168,-3.0953540802001953,19.961544036865234,44143,41918,36332,36098
87279,12.632966995239258,-3.0474395751953125,19.96915626525879,44011,42986,35020,35481
87289,14.067056655883789,-2.9764461517333984,19.97172737121582,44842,42257,38829,34790
87299,15.295697212219238,-2.884614944458008,20.033069610595703,44497,41258,42745,36519
87309,16.48517417907715,-2.6335911750793457,20.0078182220459,43982,43120,41771,32502
87319,17.627649307250977,-2.349407911300659,19.92864990234375,43201,41730,43221,33109
87329,18.420780181884766,-2.0573227405548096,19.807432174682617,41600,42357,34910,34626
87339,19.184242248535156,-1.6773332357406616,19.89552116394043,38493,42325,40065,31219
87349,19.8454647064209,-1.3250479698181152,19.774059295654297,41891,42877,35988,33794
87359,20.352651596069336,-1.0223708152770996,19.646739959716797,45342,38723,41052,35410
87369,20.771747589111328,-0.6834792494773865,19.57655143737793,43765,35076,48184,35040
87379,20.980083465576172,-0.3599610924720764,19.642242431640625,40362,38242,39000,35713
87389,21.125516891479492,-0.0846325010061264,19.51944351196289,38269,41066,41044,35343
87399,21.195987701416016,0.1323091685771942,19.363990783691406,41300,43875,37578,35271
87409,21.240297317504883,0.3765827417373657,19.21396827697754,45431,42003,41427,36607
87419,21.25645637512207,0.6749919056892395,19.106664657592773,43140,39362,46766,37438
87429,21.190916061401367,0.8783476948738098,18.9616756439209,41129,40735,49627,38166
87439,21.066028594970703,1.0390671491622925,18.808067321777344,42932,41836,45655,36958
87449,20.86989974975586,1.24836266040802,18.683040618896484,43491,43121,42055,37574
87459,20.616724014282227,1.4665029048919678,18.492319107055664,46936,40282,38295,43325
87469,20.38523292541504,1.5825570821762085,18.334959030151367,43328,42973,43871,42813
87479,20.113786697387695,1.7252975702285767,18.20932960510254,45500,41509,45360,41013
87489,19.793615341186523,1.9009798765182495,18.10394287109375,46075,43864,49252,33468
87499,19.549667358398438,2.070701837539673,17.968618392944336,42627,44337,52062,38654
87509,19.184852600097656,2.3435323238372803,17.81610870361328,46981,43365,49052,41877
87519,18.7508544921875,2.641352653503418,17.606002807617188,45251,43715,46502,42356
87529,18.38438606262207,2.8974502086639404,17.40178680419922,46090,39166,48160,44065
87539,17.8907470703125,3.2217962741851807,17.26508903503418,46232,45139,49477,37062
87549,17.411399841308594,3.503169298171997,16.966886520385742,44228,52446,53727,36990
87559,17.021053314208984,3.7602367401123047,16.713481903076172,51319,46338,52509,45721
87569,16.447134017944336,4.086278915405273,16.51557159423828,52159,46493,52734,45106
87579,15.869682312011719,4.459677219390869,16.319705963134766,51271,41680,51551,49977
87589,15.276839256286621,4.815816879272461,15.975168228149414,49786,47893,54122,49306
87599,14.684347152709961,5.146724224090576,15.687593460083008,48800,50547,51982,51185
87609,13.971821784973145,5.605483531951904,15.46175765991211,47369,52630,58477,43800
87619,13.292415618896484,6.148804664611816,15.297710418701172,50648,53157,55290,49776
87629,12.787941932678223,6.621058464050293,14.94206428527832,56135,50327,53314,50375
87639,12.268474578857422,7.142541885375977,14.709023475646973,53642,51951,56929,51936
87649,11.721571922302246,7.741522789001465,14.493269920349121,55023,50590,52781,53209
87659,11.264232635498047,8.261526107788086,14.249547958374023,45893,54082,59779,49140
87669,10.617387771606445,8.80670166015625,14.031536102294922,49121,56192,57911,48277
87679,10.028754234313965,9.43403434753418,13.822576522827148,52001,54370,57973,51187
87689,9.360882759094238,10.019817352294922,13.647823333740234,54074,51085,59415,53009
87699,8.769967079162598,10.49788761138916,13.381478309631348,54733,52872,57144,54624
87710,7.9736008644104,10.960946083068848,13.282943725585938,52954,53750,58841,52466
87719,7.283097743988037,11.370662689208984,13.197918891906738,51326,57403,56371,54212
87729,6.797674655914307,11.662957191467285,12.93568229675293,52679,56903,57441,52148
87739,6.2053937911987305,11.99282455444336,12.855964660644531,53754,56352,60678,50600
87749,5.479194641113281,12.273808479309082,12.805787086486816,54540,55199,59981,52681
87759,4.930126667022705,12.506834983825684,12.725448608398438,50947,52774,61481,50552
87769,4.302679061889648,12.612499237060547,12.673760414123535,54289,48273,59783,55919
87779,3.6416475772857666,12.59618091583252,12.571948051452637,55291,55890,55924,56030
87789,2.9592721462249756,12.466670036315918,12.540740013122559,56525,53107,56384,56547
87799,2.5915870666503906,12.270228385925293,12.398835182189941,57188,53098,59095,56221
87809,2.5443503856658936,12.275182723999023,12.43791675567627,60075,54147,56204,54299
87819,1.677880883216858,11.883235931396484,12.553961753845215,54833,52440,61978,50279
87829,1.340887427330017,11.700003623962402,12.481695175170898,55712,53286,60518,52364
87840,0.9114682078361511,11.514089584350586,12.495192527770996,51700,56228,57602,56264
87849,0.394449383020401,11.27830696105957,12.499187469482422,53032,52742,57923,57586
87859,0.16309192776679993,10.968674659729004,12.351366996765137,56877,53007,55388,56766
87869,-0.27607274055480957,10.626338005065918,12.41864013671875,58908,53662,60445,51521
87879,-0.5972408056259155,10.24193000793457,12.483036994934082,58021,54773,59155,51651
87889,-0.9653737545013428,9.866972923278809,12.520286560058594,56604,55707,59872,51678
87899,-1.219603180885315,9.497020721435547,12.542215347290039,54352,52405,56434,55175
87909,-1.5318365097045898,8.96540355682373,12.511039733886719,54908,50523,58438,56532
87919,-1.9221107959747314,8.341168403625488,12.561881065368652,55767,51358,56818,57599
87929,-2.100466728210449,7.712754249572754,12.584150314331055,59941,50728,54455,56845
87939,-2.315786838531494,6.993879795074463,12.661767959594727,57619,54361,57283,54663
87949,-2.6666417121887207,6.07531213760376,12.788407325744629,56529,53739,60922,52788
87959,-2.8020482063293457,5.335597991943359,12.883566856384277,55343,54419,60879,50789
87969,-2.885754346847534,4.564999580383301,12.921561241149902,54821,54475,57763,52603
87979,-2.9521615505218506,3.7561089992523193,12.98586654663086,54730,50619,57747,52845
87989,-3.1209940910339355,2.94573974609375,13.156883239746094,52761,46811,59451,53239
87999,-3.0932886600494385,2.201432466506958,13.235750198364258,52497,50763,57119,50327
88009,-2.947385549545288,1.3331568241119385,13.157008171081543,52415,52293,58172,49685
88019,-2.9906909465789795,0.4480286240577698,13.30925178527832,56492,53891,53138,51249
88029,-2.957451343536377,0.34352752566337585,13.197935104370117,57083,49379,57476,52295
88039,-2.52708101272583,-1.5783103704452515,13.25340747833252,54549,51584,55634,51135
88049,-2.2877070903778076,-2.5748212337493896,13.323209762573242,56220,51766,51770,51445
88059,-2.1544039249420166,-3.623117685317993,13.457778930664062,56244,54269,48533,50233
88069,-1.947271704673767,-4.489037036895752,13.630269050598145,57790,53577,51459,53559
88079,-1.7778042554855347,-5.454410076141357,13.731922149658203,59650,45028,57020,53357
88089,-1.7851054668426514,-6.367478370666504,13.94839096069336,57398,50314,59518,53597
88099,-1.8367427587509155,-7.071077823638916,14.142571449279785,56810,52487,57161,51852
88109,-1.9298779964447021,-7.674821853637695,14.308028221130371,55705,52969,57525,51149
88119,-1.986227035522461,-8.163385391235352,14.294295310974121,53679,50359,55791,51762
88129,-1.8028846979141235,-8.529728889465332,14.343894958496094,47996,36440,60446,49663
88139,-1.9304486513137817,-8.785477638244629,14.53377914428711,47413,43520,58266,45922
88149,-2.039930582046509,-8.964771270751953,14.691187858581543,48754,47249,55283,43840
88159,-2.062526226043701,-9.133378028869629,14.802549362182617,51828,48802,51868,42490
88169,-1.7520524263381958,-9.199216842651367,14.863009452819824,48477,45607,48834,47642
88179,-1.6370415687561035,-9.343870162963867,14.99964427947998,50741,43924,46253,45147
88189,-1.51188325881958,-9.538711547851562,15.187773704528809,48614,44944,48790,44367
88199,-1.256040334701538,-9.652817726135254,15.357048988342285,51288,45149,49175,42130
88209,-1.0265413522720337,-9.74970817565918,15.380437850952148,49199,43547,54990,42083
88219,-0.8015779852867126,-9.798439979553223,15.520987510681152,47222,45973,50787,41935
88229,-0.6006938815116882,-9.83623218536377,15.650310516357422,45555,42088,52302,41839
88239,-0.5875842571258545,-9.886703491210938,15.808977127075195,46511,44407,51935,41365
88249,-0.39979222416877747,-9.870790481567383,15.794465065002441,52564,41591,42946,43870
88259,-0.13511940836906433,-9.85554313659668,15.850996971130371,52738,46601,45263,45270
88269,0.1589839905500412,-9.943297386169434,15.973036766052246,47931,47392,47923,42231
88279,0.4882706105709076,-9.929683685302734,16.056913375854492,46380,44223,52504,39061
88289,0.8141639232635498,-9.934504508972168,16.167007446289062,45730,43526,51197,43048
88299,1.0325353145599365,-9.814711570739746,16.19991683959961,47093,38886,49277,45028
88309,1.1686789989471436,-9.692167282104492,16.300447463989258,48274,43616,47382,45555
88319,1.2158122062683105,-9.541045188903809,16.410451889038086,43931,41656,48562,43467
88329,1.271859884262085,-9.34642219543457,16.5120906829834,47101,43134,50362,37833
88339,1.2478690147399902,-9.121511459350586,16.544361114501953,42810,44161,48618,40101
88349,1.3630889654159546,-8.886366844177246,16.749664306640625,51144,42779,43998,42487
88359,1.469719648361206,-8.662185668945312,16.90829086303711,50832,43707,46370,41848
88369,1.4296928644180298,-8.485883712768555,16.992813110351562,47289,40686,50173,39481
88379,1.3320670127868652,-8.288463592529297,17.031719207763672,47205,43430,53538,39709
88389,1.2237555980682373,-8.116107940673828,17.076967239379883,45274,47118,45595,44715
88399,1.0949950218200684,-7.9668498039245605,17.137855529785156,51051,44048,50448,47245
88409,0.9778398275375366,-7.811861991882324,17.168664932250977,51907,40481,51585,45367
88419,0.8393874168395996,-7.6937055587768555,17.22256088256836,49399,43228,52080,43325
88429,0.7119350433349609,-7.517568588256836,17.309669494628906,48668,47357,47812,40550
88439,0.5627432465553284,-7.304872512817383,17.306636810302734,45732,48324,46668,43679
88449,0.4102940559387207,-7.0727972984313965,17.234516143798828,45576,46664,49453,45145
88459,0.34238266944885254,-6.806701183319092,17.3071231842041,48739,44098,51949,42275
88470,0.11146488040685654,-6.566208362579346,17.277267456054688,48943,43942,55484,44638
88479,0.014997445046901703,-6.21665096282959,17.481943130493164,50996,49433,50760,44444
88489,-0.2846606969833374,-5.900806903839111,17.462543487548828,50573,49893,51937,46710
88499,-0.49542149901390076,-5.624348163604736,17.55154037475586,49519,47630,49025,45188
88509,-0.8580803275108337,-5.282045841217041,17.450345993041992,48786,42571,53734,46721
88519,-1.2685796022415161,-4.977980613708496,17.353071212768555,43100,41845,54429,46416
88529,-1.3780215978622437,-4.83204984664917,17.6729793548584,58364,54213,47023,45085
88539,-1.8224236965179443,-4.515616416931152,17.585920333862305,52990,52910,54749,45304
88549,-2.2270867824554443,-4.224094867706299,17.506031036376953,46605,49786,52458,52508
88559,-2.4617393016815186,-3.956231117248535,17.634822845458984,53279,53344,47975,49450
88569,-2.9299228191375732,-3.678849458694458,17.533782958984375,52302,46827,51397,49754
88579,-3.370999574661255,-3.427481174468994,17.496925354003906,55241,48201,56604,52147
88589,-3.8866493701934814,-3.1837589740753174,17.453834533691406,48029,49071,59497,48111
88599,-4.352532386779785,-2.9840357303619385,17.54451560974121,46702,48409,54031,46791
88609,-4.894784450531006,-2.7058346271514893,17.552915573120117,47023,49234,50820,46994
88619,-5.434195518493652,-2.469773530960083,17.483566284179688,52106,49086,47908,47940
88629,-5.7561726570129395,-2.3307363986968994,17.524707794189453,57863,54427,47746,52929
88639,-6.082832336425781,-2.166822671890259,17.47186851501465,55618,49801,53879,50946
88649,-6.354092597961426,-2.0867998600006104,17.417879104614258,49756,50002,57763,46288
88659,-6.613530158996582,-1.9598076343536377,17.446887969970703,47436,52586,55400,46216
88669,-6.846751689910889,-1.7392840385437012,17.4671688079834,55344,53308,52584,47768
88679,-7.144102573394775,-1.5016136169433594,17.392000198364258,51616,49870,58853,50871
88689,-7.46419095993042,-1.2627335786819458,17.29860496520996,48781,46936,53566,51803
88699,-7.610731601715088,-1.1649304628372192,17.381067276000977,53412,49381,52224,44225
88709,-7.901832580566406,-1.025704026222229,17.261919021606445,48166,51269,51522,46917
88719,-8.08771800994873,-0.9391770958900452,17.18866729736328,52108,57068,45086,51416
88729,-8.170226097106934,-0.8972875475883484,17.150638580322266,54561,51096,52613,50988
88739,-8.23331356048584,-0.8942739367485046,17.059873580932617,53120,45176,53626,50713
88749,-8.377409934997559,-0.8416375517845154,17.02419662475586,48076,44860,57884,46070
88759,-8.51958179473877,-0.8520848751068115,17.029582977294922,46915,51028,53866,45774
88769,-8.675163269042969,-0.8113274574279785,16.973642349243164,50110,51409,50372,50272
88779,-8.816805839538574,-0.790898859500885,16.931665420532227,47885,50324,56109,47044
88789,-8.831258773803711,-0.8189924955368042,16.99319076538086,55269,52598,44251,47944
88799,-8.86333179473877,-0.8135179877281189,16.936437606811523,54018,50183,53424,43408
88809,-8.90134048461914,-0.8514069318771362,16.866090774536133,51690,48131,54044,49587
88820,-8.960251808166504,-0.8627017140388489,16.807086944580078,47280,49584,51583,50588
88830,-8.999932289123535,-0.9562978148460388,16.82985496520996,47724,47272,52100,48108
88839,-9.117814064025879,-0.9848817586898804,16.76711082458496,43072,48512,56477,45379
88849,-9.2411470413208,-0.9507735967636108,16.69791603088379,53264,47523,52886,47411
88859,-9.346977233886719,-0.9132369160652161,16.64972686767578,51032,50830,54071,47174
88870,-9.337379455566406,-0.9709632992744446,16.697816848754883,51196,49524,49495,48566
88880,-9.360199928283691,-0.9156994223594666,16.575214385986328,45573,49615,49372,45387
88890,-9.339247703552246,-0.8921689987182617,16.49725914001465,44125,50198,44637,46074
88900,-9.28581714630127,-0.8225333094596863,16.39002227783203,51823,50364,49992,45839
88910,-9.228389739990234,-0.7313708066940308,16.317161560058594,51093,49749,51626,48891
88920,-8.944808959960938,-0.6334755420684814,16.381742477416992,54549,56637,50105,46907
88930,-8.868185997009277,-0.6021594405174255,16.30242347717285,47713,52194,53043,44202
88940,-8.838273048400879,-0.43946099281311035,16.240285873413086,49023,53033,52228,46524
88950,-8.855113983154297,-0.3746720850467682,16.182573318481445,52943,51307,51720,50935
88960,-8.890689849853516,-0.33510851860046387,16.06542205810547,53833,47358,54075,52958
88969,-8.939870834350586,-0.373012512922287,15.980046272277832,47695,44230,54776,48483
88979,-8.951043128967285,-0.50593501329422,16.07172203063965,46821,50068,53509,43354
88989,-9.028040885925293,-0.5652192831039429,16.008573532104492,46394,53407,46726,45379
88999,-9.09167766571045,-0.5730266571044922,15.942585945129395,50237,53021,48577,48887
89009,-9.06906509399414,-0.5665613412857056,15.876924514770508,53466,53445,47817,50726
89019,-9.05103588104248,-0.5712687969207764,15.768241882324219,54311,46608,53143,49256
89029,-8.999150276184082,-0.6626860499382019,15.71683120727539,47472,50896,50820,46007
89039,-8.975215911865234,-0.7203118205070496,15.653631210327148,49017,47883,52610,46131
89049,-8.740737915039062,-0.6996504664421082,15.56503677368164,51678,59333,43149,44667
89059,-8.428542137145996,-0.6602622866630554,15.479137420654297,55135,56721,43564,46794
89069,-8.414958953857422,-0.7641999125480652,15.406279563903809,52960,52641,50258,47245
89079,-8.365287780761719,-0.8207635879516602,15.393669128417969,51947,51741,53506,49923
89089,-8.336434364318848,-0.9300356507301331,15.33194637298584,54514,52121,54190,49884
89099,-8.408885955810547,-1.0255531072616577,15.24140739440918,49308,54048,53816,52913
89109,-8.524645805358887,-1.091552734375,15.173293113708496,48915,52702,55179,50555
89119,-8.706357955932617,-1.0976346731185913,15.032797813415527,45810,50021,53723,46432
89129,-8.999116897583008,-1.0476133823394775,14.812799453735352,51000,47853,50496,49107
89139,-9.042923927307129,-1.117621660232544,14.757373809814453,50678,50977,47234,48192
89149,-9.048993110656738,-1.2024788856506348,14.649812698364258,46481,55980,45594,51098
