timestamp (ms),stateEstimate.x,stateEstimate.y,stateEstimate.z,stabilizer.roll,stabilizer.pitch,stabilizer.yaw
11106,2.418477561150212e-05,7.998874934855849e-06,-0.06502677500247955,-0.007616961374878883,-0.0111770648509264,0.0003528783854562789
11116,-9.320869867224246e-05,-0.0001183212298201397,0.026005662977695465,0.06371676176786423,0.07552386075258255,-0.0012592163402587175
11126,-6.644763197982684e-05,0.00022498266480397433,0.026071717962622643,-0.17200905084609985,0.03638187795877457,-0.0005721063353121281
11136,-7.447667303495109e-05,0.00029760273173451424,0.026044342666864395,-0.17184564471244812,0.03695426136255264,-0.0008085978915914893
11146,-1.9864883142872714e-05,0.0001318723225267604,0.026030223816633224,-0.046891648322343826,0.009516159072518349,-0.0006639619241468608
11156,0.00025334180099889636,7.132255268516019e-05,0.02496451698243618,-0.011610813438892365,-0.12190026044845581,-0.00191081955563277
11166,7.40723407943733e-05,6.264020339585841e-05,0.02491496503353119,-0.01730966940522194,0.011016118340194225,-0.001596124959178269
11176,9.739775850903243e-05,0.0004706664476543665,0.024852436035871506,-0.22518451511859894,0.020497644320130348,-0.002053881762549281
11186,0.00021473076776601374,-0.0002491069899406284,0.024795012548565865,0.1314893364906311,-0.011707831174135208,-0.002185191260650754
11196,-0.00016668959870003164,0.0005391724407672882,0.024847261607646942,-0.2546021044254303,0.18705926835536957,-0.0012820034753531218
11206,0.00028509306139312685,-0.0010257107205688953,0.024784313514828682,0.4251891076564789,-0.00109473941847682,-0.0018137006554752588
11216,6.83602993376553e-05,2.413282118141069e-06,0.024757713079452515,-0.06508693099021912,0.11468791216611862,-0.002257599728181958
11226,-0.00044238739064894617,0.0006482151802629232,0.024667756631970406,-0.32656487822532654,0.3236488997936249,0.0003659619251266122
11236,0.0001083783499780111,0.00010499494237592444,0.02472219429910183,-0.11513884365558624,0.11131366342306137,-0.00032865122193470597
11246,0.00015357312804553658,7.322822057176381e-05,0.024614393711090088,-0.11490140855312347,0.11099725216627121,8.852261089487001e-05
11256,-0.0005182224558666348,0.0007402620394714177,0.024506332352757454,-0.34215787053108215,0.3448653221130371,0.0007262372528202832
11266,0.00018217545584775507,-0.0006585486116819084,0.024406712502241135,0.10160870850086212,0.11978740990161896,2.3619988496648148e-05
11276,0.00023652259551454335,-0.0007861796766519547,0.024278152734041214,0.1014716625213623,0.11791795492172241,-0.0007848626119084656
11287,-0.0003797741956077516,0.00415294012054801,0.02492893487215042,-1.2881399393081665,0.3006734251976013,0.003931897692382336
11297,0.00045169173972681165,0.0022712359204888344,0.024970579892396927,-0.6934645771980286,0.08116406202316284,0.002034368459135294
11306,0.0005354602471925318,0.0024534177500754595,0.024871448054909706,-0.6929118633270264,0.08155135810375214,0.0018702306551858783
11317,3.515908247209154e-05,0.0014648223295807838,0.024814026430249214,-0.41915571689605713,0.2184876650571823,0.0017708148807287216
11327,7.251768693095073e-05,0.0015291778836399317,0.02368011325597763,-0.4183449149131775,0.21818411350250244,0.001395004102960229
11336,-0.0007377238944172859,0.0034029167145490646,0.023470748215913773,-0.770304262638092,0.3878156840801239,0.0024961810559034348
11346,-0.0009951555402949452,0.0014659320004284382,0.023360520601272583,-0.363044798374176,0.4304805397987366,0.0016430772375315428
11356,-0.000978542142547667,0.0019875895231962204,0.02319539338350296,-0.4488513469696045,0.4168773591518402,0.0016395491547882557
11366,0.001430230913683772,9.943849727278575e-05,0.02307037264108658,-0.11188437044620514,-0.0033832238987088203,0.0020359966438263655
11376,0.0011198646388947964,0.00012676973710767925,0.022889189422130585,-0.1325298249721527,0.07527624815702438,0.002885963534936309
11386,-0.0002251949190394953,-0.0014417489292100072,0.022726206108927727,0.10190721601247787,0.3083081841468811,0.0008040789980441332
11396,-0.00022588300635106862,-0.004802914801985025,0.022452739998698235,0.5746498703956604,0.31035923957824707,-0.002372977789491415
11406,-0.00022359166177920997,-0.0015444363234564662,0.02257705107331276,0.029948800802230835,0.3112756311893463,0.001592692220583558
11416,-0.00022722594439983368,-0.002279211999848485,0.022233908995985985,0.10369598865509033,0.3144921362400055,0.0020564638543874025
11426,-0.00023697128926869482,0.0003641002986114472,0.02213861048221588,-0.28541791439056396,0.3207091987133026,0.00447331415489316
11436,-0.0012817997485399246,0.00036634007119573653,0.021975288167595863,-0.29004722833633423,0.46016642451286316,0.004874411504715681
11446,0.0005428639124147594,0.0003707418218255043,0.021837793290615082,-0.29324960708618164,0.22284898161888123,0.004984167870134115
11456,0.0007849091198295355,-0.00013772018428426236,0.021396666765213013,-0.23418323695659637,0.2018485814332962,0.004399080760776997
11466,0.000885636662133038,-0.00020690742530860007,0.021216709166765213,-0.23475730419158936,0.20246197283267975,0.004699397832155228
11476,-0.0005416723433881998,-0.0007462691864930093,0.02105242758989334,-0.18175798654556274,0.3777100145816803,0.004368923604488373
11486,-0.0005327932303771377,0.0014945754082873464,0.020896224305033684,-0.43876978754997253,0.37471500039100647,0.0071967062540352345
11496,0.0005619919393211603,0.0003807916946243495,0.02074471302330494,-0.31352028250694275,0.25813037157058716,0.006366104818880558
11506,0.003502479288727045,-0.003939053043723106,0.021964503452181816,0.12851877510547638,-0.037000905722379684,0.005248329136520624
11516,0.003958296030759811,-0.006794247776269913,0.021755144000053406,0.38129615783691406,-0.051456667482852936,0.0042177471332252026
11526,0.00360405957326293,-0.005852750968188047,0.021781334653496742,0.2374543994665146,0.015136095695197582,0.004137295763939619
11536,0.0048473733477294445,-0.006260356865823269,0.02164476364850998,0.23356865346431732,-0.07579302787780762,0.004918269347399473
11546,0.002414473332464695,-0.00564564298838377,0.023572389036417007,0.13229955732822418,0.18367914855480194,0.004825147800147533
11556,0.0039361282251775265,-0.006070383358746767,0.023575816303491592,0.1342269331216812,0.060300562530756,0.004480734933167696
11566,0.004199696704745293,-0.006470414809882641,0.023593198508024216,0.13575369119644165,0.05921382084488869,0.005191229283809662
11576,0.0041100638918578625,-0.006892871111631393,0.023619599640369415,0.1361308991909027,0.08992493897676468,0.00472805742174387
11586,0.009578140452504158,-0.008714940398931503,0.024545911699533463,0.2520557641983032,-0.3488665521144867,0.0032726237550377846
11596,0.010751023888587952,-0.010469214990735054,0.02452012337744236,0.3529422879219055,-0.39204880595207214,0.004021676257252693
11606,0.008136133663356304,-0.009757563471794128,0.024916863068938255,0.24591462314128876,-0.12480522692203522,0.005438850726932287
11616,0.0077342260628938675,-0.007186463102698326,0.025227274745702744,-0.0024281619116663933,-0.056280042976140976,0.005089789628982544
11626,0.0076149832457304,-0.007882529869675636,0.02519623376429081,0.023896820843219757,-0.012145540677011013,0.004602644592523575
11636,0.009886467829346657,-0.007523613981902599,0.02525491453707218,-0.03217925876379013,-0.15688326954841614,0.004001887049525976
11646,0.008441890589892864,-0.00953454989939928,0.025403089821338654,0.09370914101600647,-0.007482252549380064,0.005754506215453148
11656,0.007827895693480968,-0.006830115336924791,0.025664981454610825,-0.1405819207429886,0.06858961284160614,0.005788144655525684
11666,0.007749477401375771,-0.009091190062463284,0.025755038484930992,0.006519298534840345,0.09842810034751892,0.007090710569173098
11676,0.008418058045208454,-0.014111430384218693,0.02494809217751026,0.3454883098602295,0.0711456909775734,0.008197877556085587
11686,0.007587722036987543,-0.010136861354112625,0.02534542791545391,0.01006421260535717,0.15365105867385864,0.006157046649605036
11696,0.007868440821766853,-0.010550620034337044,0.025405580177903175,0.009478924795985222,0.1527606099843979,0.006327511742711067
11706,0.008053729310631752,-0.009071359410881996,0.025539875030517578,-0.12356250733137131,0.16029979288578033,0.00466298358514905
11716,0.006635449826717377,-0.00683040963485837,0.025861449539661407,-0.3018285632133484,0.2776359021663666,0.005540027283132076
11726,0.009242769330739975,-0.0011831673327833414,0.02591138891875744,-0.6997650861740112,0.11088601499795914,0.003997773863375187
11736,0.010209153406322002,-0.0012398615945130587,0.025981582701206207,-0.6810125708580017,0.06798909604549408,0.003688995959237218
11746,0.00932956114411354,-0.001280547701753676,0.02611282467842102,-0.6657559871673584,0.15101465582847595,0.004493762273341417
11756,0.005301817320287228,0.002350753638893366,0.025637127459049225,-0.8941327929496765,0.4379987120628357,0.005638679955154657
11766,0.0060881758108735085,0.001405811170116067,0.02577221393585205,-0.8003745079040527,0.3866124451160431,0.004177497699856758
11776,0.006318829022347927,0.002617877209559083,0.02577146887779236,-0.8607379198074341,0.37832510471343994,0.005320516414940357
11786,0.010362396948039532,0.0010141389211639762,0.025967292487621307,-0.727243185043335,0.1111714094877243,0.0051451437175273895
11796,0.010288424789905548,-0.00056556606432423,0.026134513318538666,-0.6017943024635315,0.13900825381278992,0.003996971528977156
11806,0.01122931856662035,-0.005834340583533049,0.024927694350481033,-0.25986483693122864,0.0995241329073906,0.0026630391366779804
11816,0.01215533260256052,-0.004053146578371525,0.02494743838906288,-0.38250458240509033,0.06422322988510132,0.0028632625471800566
11826,0.011334323324263096,-0.0005656341090798378,0.025020303204655647,-0.6002002358436584,0.13945288956165314,0.0033159535378217697
11836,0.012257982976734638,-9.81716439127922e-05,0.02499048411846161,-0.619793713092804,0.10319050401449203,0.004981847945600748
11846,0.010448497720062733,-0.00432768976315856,0.024716949090361595,-0.3467937707901001,0.23775918781757355,0.001862307428382337
11856,0.013579484075307846,-0.004562676884233952,0.02465669997036457,-0.3351312577724457,0.06225907802581787,0.0032680975273251534
11866,0.013513351790606976,-0.004787465091794729,0.024650558829307556,-0.3268537223339081,0.08993103355169296,0.0033452953211963177
11876,0.012477296404540539,-0.0035520640667527914,0.024709733203053474,-0.40681564807891846,0.17769382894039154,0.003118313616141677
11886,0.014584038406610489,-0.0069555011577904224,0.023958297446370125,-0.20340204238891602,0.06843370944261551,0.003959752153605223
11896,0.012599289417266846,-0.004278319422155619,0.024057537317276,-0.37369367480278015,0.21252447366714478,0.0031670278403908014
11906,0.014234501868486404,-0.004754532594233751,0.023973168805241585,-0.3469807207584381,0.13369446992874146,0.004420514218509197
11916,0.014613782986998558,-0.004828502889722586,0.023912440985441208,-0.34733816981315613,0.13508658111095428,0.004275612533092499
11926,0.0127286771312356,-0.004553509410470724,0.023944372311234474,-0.3661670386791229,0.2677304744720459,0.0014875084161758423
11936,0.011927436105906963,-0.004549878649413586,0.023511871695518494,-0.37032997608184814,0.32829102873802185,0.001448864582926035
11946,0.012141418643295765,-0.004042050801217556,0.023435870185494423,-0.40293368697166443,0.3268607556819916,0.0018219284247606993
11956,0.013343801721930504,-0.004787067417055368,0.023346496745944023,-0.3610285222530365,0.27027636766433716,0.002211441518738866
11966,0.014282185584306717,-0.004774533212184906,0.02325177751481533,-0.3652525842189789,0.23248285055160522,0.0029167819302529097
11976,0.012275276705622673,-0.004018951207399368,0.023918848484754562,-0.40992212295532227,0.3630844056606293,0.002977206138893962
11986,0.012248977087438107,-0.014242244884371758,0.023874305188655853,0.155122771859169,0.374076247215271,-0.0023768439423292875
11996,0.01241640280932188,-0.014859797433018684,0.023824287578463554,0.15531893074512482,0.3739185035228729,-0.0010060891509056091
12006,0.01237684115767479,-0.015222614631056786,0.023801594972610474,0.14002369344234467,0.38297387957572937,-0.0019177014473825693
12016,0.011085069738328457,-0.013814130797982216,0.024796253070235252,0.03232578933238983,0.461669385433197,-0.0007986602140590549
12026,0.01308437343686819,-0.01446652039885521,0.024813581258058548,0.040255993604660034,0.3584338426589966,0.0004189313040114939
12036,0.013270524330437183,-0.014994882047176361,0.02482757344841957,0.04070575535297394,0.3567080497741699,4.869675194640877e-06
12046,0.012417658232152462,-0.016175951808691025,0.02481284737586975,0.07381759583950043,0.4101451635360718,-0.0012739305384457111
12056,0.013172747567296028,-0.015491703525185585,0.02455233596265316,0.009378469549119473,0.3756767809391022,0.00015906430780887604
12066,0.013384170830249786,-0.015359865501523018,0.024574441835284233,-0.023496337234973907,0.3744359314441681,0.00048530910862609744
12076,0.012828956358134747,-0.015759766101837158,0.024580717086791992,-0.027343951165676117,0.41158467531204224,-0.0008069162140600383
12086,0.013057230040431023,-0.014631068333983421,0.024655286222696304,-0.1086430773139,0.4050982892513275,0.0012601084308698773
12096,0.012524204328656197,-0.015557556413114071,0.024637950584292412,-0.08230990916490555,0.43570610880851746,0.0008557665278203785
12106,0.013250465504825115,-0.01346608903259039,0.024441320449113846,-0.20743641257286072,0.40370848774909973,0.002375905169174075
12116,0.012232983484864235,-0.015393064357340336,0.024406375363469124,-0.12619154155254364,0.46166643500328064,-0.00012477369455154985
12126,0.01221968699246645,-0.014586126431822777,0.024430666118860245,-0.18513770401477814,0.465385377407074,0.0005538220866583288
12136,0.012948790565133095,-0.015258315950632095,0.024406686425209045,-0.16816367208957672,0.43010348081588745,0.0012176430318504572
12146,0.012692456133663654,-0.015690471976995468,0.02464507706463337,-0.16391822695732117,0.44693052768707275,0.00045224561472423375
12156,0.01268417201936245,-0.01539972797036171,0.024661803618073463,-0.19587194919586182,0.4489952027797699,0.002038443461060524
12166,0.012194199487566948,-0.015353572554886341,0.02467210590839386,-0.2124696969985962,0.475665807723999,0.0021509421057999134
12176,0.0124268913641572,-0.015068735927343369,0.024689435958862305,-0.24182547628879547,0.46576792001724243,0.0027157978620380163
12186,0.012182015925645828,-0.01643826998770237,0.024369405582547188,-0.18889907002449036,0.4809670150279999,0.001350542763248086
12196,0.011002780869603157,-0.012888195924460888,0.024455131962895393,-0.3802362382411957,0.5413650870323181,0.007290069479495287
12206,0.012417581863701344,-0.015217646025121212,0.024476492777466774,-0.26954424381256104,0.4680018723011017,0.0031481212936341763
12216,0.012452097609639168,-0.015475235879421234,0.0244638342410326,-0.26672035455703735,0.4676533043384552,0.003805447369813919
12226,0.012945123016834259,-0.015409320592880249,0.02383643202483654,-0.2817710041999817,0.44556140899658203,0.0034913895651698112
12236,0.019548406824469566,-0.011684460565447807,0.02381102181971073,-0.4765164852142334,0.12745784223079681,0.007676461711525917
12246,0.018263228237628937,-0.016304053366184235,0.023958297446370125,-0.24947760999202728,0.21271711587905884,0.003498825943097472
12256,0.017964577302336693,-0.01650572381913662,0.023951662704348564,-0.2521844506263733,0.24363034963607788,0.004173253662884235
12266,0.01719839684665203,-0.01622568443417549,0.023984024301171303,-0.27906325459480286,0.2962517738342285,0.005409978795796633
12276,0.01882237382233143,-0.02142246626317501,0.023823345080018044,-0.036308616399765015,0.23101995885372162,0.0009009026107378304
12286,0.018069293349981308,-0.018987612798810005,0.02401595003902912,-0.18266285955905914,0.2851296067237854,0.0028863477054983377
12296,0.02038283459842205,-0.022466253489255905,0.023771289736032486,-0.029730811715126038,0.18440231680870056,-0.00013976027548778802
12306,0.01963629573583603,-0.022868487983942032,0.023802561685442924,-0.035902202129364014,0.24263839423656464,0.0009042411693371832
12316,0.018901078030467033,-0.02211582101881504,0.024385303258895874,-0.10176920890808105,0.2943035662174225,0.001802251092158258
12326,0.021179677918553352,-0.025071309879422188,0.024191029369831085,0.023717001080513,0.19462084770202637,0.0006263480172492564
12336,0.02228761464357376,-0.02523846924304962,0.024168388918042183,0.000688239757437259,0.15811502933502197,-0.00018273090245202184
12346,0.02132677659392357,-0.025184262543916702,0.024291791021823883,-0.03317737206816673,0.22940707206726074,0.0005876354989595711
12356,0.021041924133896828,-0.02393942140042782,0.023403659462928772,-0.12476956844329834,0.2615240812301636,0.0010549892904236913
12366,0.020034192129969597,-0.03089774027466774,0.02306940220296383,0.2230568677186966,0.33441439270973206,-0.0025941396597772837
12376,0.01911478117108345,-0.031046118587255478,0.02309040166437626,0.1831500381231308,0.39826661348342896,-0.001984559465199709
12386,0.01930808648467064,-0.03188801929354668,0.023004982620477676,0.18271706998348236,0.39845970273017883,-0.002463805489242077
12396,0.019527621567249298,-0.032967112958431244,0.02334347367286682,0.19495245814323425,0.39625126123428345,-0.002986870240420103
12406,0.014385001733899117,-0.029620911926031113,0.023685479536652565,-0.019226156175136566,0.6675255298614502,0.0017565316520631313
12416,0.015099234879016876,-0.029544025659561157,0.02372247353196144,-0.05497179925441742,0.6255045533180237,0.001351149519905448
12426,0.014392653480172157,-0.029056336730718613,0.02374214679002762,-0.11451546847820282,0.6586399078369141,0.0023241364397108555
12436,0.01440400816500187,-0.029228754341602325,0.02374185621738434,-0.13399621844291687,0.6522905230522156,0.00237529375590384
12446,0.01533734891563654,-0.02799031138420105,0.02349659614264965,-0.22478188574314117,0.6003817319869995,0.004126935265958309
12456,0.01533958874642849,-0.029091617092490196,0.02344428189098835,-0.19217969477176666,0.5986182689666748,0.0037720059044659138
12466,0.014434360899031162,-0.02904267981648445,0.023413406684994698,-0.22068002820014954,0.6428546905517578,0.005761710926890373
12476,0.014446363784372807,-0.02991209737956524,0.023361671715974808,-0.19973379373550415,0.634600818157196,0.005986668169498444
12486,0.013537106104195118,-0.03015405870974064,0.024408839643001556,-0.21511195600032806,0.6775635480880737,0.006333390716463327
12496,0.015134585089981556,-0.02785644121468067,0.02455391362309456,-0.35657626390457153,0.5863941311836243,0.009851028211414814
12506,0.014462988823652267,-0.028952056542038918,0.0245643462985754,-0.3161296546459198,0.6179341673851013,0.007685615681111813
12516,0.013574935495853424,-0.027812857180833817,0.024610310792922974,-0.39345496892929077,0.6578200459480286,0.01110666710883379
12527,0.014481181278824806,-0.029815809801220894,0.024641508236527443,-0.30339691042900085,0.6056905388832092,0.008777860552072525
12537,0.013372409157454967,-0.02841387689113617,0.024019300937652588,-0.3922329545021057,0.6578370928764343,0.010968111455440521
12546,0.014489885419607162,-0.02883823774755001,0.024030137807130814,-0.3848687410354614,0.5920432209968567,0.01051248237490654
12556,0.014415786601603031,-0.029132971540093422,0.024017194285988808,-0.3850361108779907,0.590650200843811,0.009907337836921215
12566,0.013480349443852901,-0.029093651100993156,0.02399858459830284,-0.40148937702178955,0.6352270245552063,0.010982238687574863
12576,0.015848807990550995,-0.026685116812586784,0.023250209167599678,-0.537040650844574,0.5070137977600098,0.01574249379336834
12586,0.014453289099037647,-0.028755027800798416,0.02321585826575756,-0.44038480520248413,0.5780438780784607,0.012613036669790745
12596,0.01399876270443201,-0.02803293615579605,0.023168165236711502,-0.4887400269508362,0.5971365571022034,0.015363818034529686
12606,0.014234389178454876,-0.02870550937950611,0.02311648242175579,-0.46333539485931396,0.5807556509971619,0.014115763828158379
12616,0.013554771430790424,-0.027996541932225227,0.02306429296731949,-0.5086196064949036,0.6105757355690002,0.014967825263738632
12626,0.013330437242984772,-0.022986937314271927,0.02341355010867119,-0.7635955214500427,0.6162205338478088,0.02400326170027256
12636,0.01244704145938158,-0.014611412771046162,0.02299383468925953,-1.167943000793457,0.6532487869262695,0.03652064502239227
12646,0.011342142708599567,-0.013315933756530285,0.02282818593084812,-1.1952365636825562,0.6975733041763306,0.037917610257864
12656,0.012470468878746033,-0.01471139956265688,0.023143284022808075,-1.0914474725723267,0.6281304359436035,0.03450976684689522
12666,0.0113618653267622,-0.019221719354391098,0.023025784641504288,-0.8393190503120422,0.6763104200363159,0.02351037971675396
12676,0.01249237172305584,-0.013680683448910713,0.022794077172875404,-1.095607876777649,0.6110463738441467,0.03469174727797508
12686,0.012347168289124966,-0.013042738661170006,0.022730492055416107,-1.0955926179885864,0.608958899974823,0.033988721668720245
12696,0.012358518317341805,-0.014064354822039604,0.022860020399093628,-1.0140448808670044,0.600924015045166,0.031083395704627037
12706,0.013270022347569466,-0.014085028320550919,0.024224799126386642,-0.9826169013977051,0.5489959716796875,0.03214056044816971
12716,0.011427371762692928,-0.012754182331264019,0.024208171293139458,-1.0209777355194092,0.633491575717926,0.031224001199007034
12726,0.011904357932507992,-0.012121395207941532,0.02425389364361763,-1.021069884300232,0.6019134521484375,0.03227395564317703
12736,0.012373754754662514,-0.01309451088309288,0.024435950443148613,-0.9426651000976562,0.5724506974220276,0.0302029587328434
12746,0.012382724322378635,-0.01222718134522438,0.024457290768623352,-0.9586641788482666,0.5656576156616211,0.02967754378914833
12756,0.013287795707583427,-0.015432467684149742,0.024950329214334488,-0.7764819860458374,0.5157749652862549,0.027217915281653404
12766,0.013287689536809921,-0.013882545754313469,0.02499762549996376,-0.8332270383834839,0.5153006315231323,0.028220025822520256
12776,0.012394284829497337,-0.014134046621620655,0.02509639970958233,-0.7990679144859314,0.5539222359657288,0.024780934676527977
12786,0.013296052813529968,-0.013482782058417797,0.025169286876916885,-0.8135895133018494,0.5040758848190308,0.02848607860505581
12796,0.008856000378727913,-0.017102979123592377,0.02484307996928692,-0.6206739544868469,0.7152249813079834,0.012302415445446968
12806,0.008654394187033176,-0.012679485604166985,0.02491389401257038,-0.8251354694366455,0.7076285481452942,0.01982288993895054
12816,0.00867062620818615,-0.011818003840744495,0.024951068684458733,-0.8460385203361511,0.6905661225318909,0.020574962720274925
12826,0.008687399327754974,-0.012939510866999626,0.025103962048888206,-0.7689193487167358,0.6721473932266235,0.01973562128841877
12836,0.009345595724880695,-0.012715000659227371,0.02557850070297718,-0.7595716118812561,0.6260796189308167,0.021636806428432465
12846,0.008480291813611984,-0.012729315087199211,0.025646597146987915,-0.7417860627174377,0.6575219035148621,0.019953124225139618
12856,0.008276066742837429,-0.012742012739181519,0.02573353424668312,-0.7241140604019165,0.6530380845069885,0.02009405754506588
12866,0.007420310750603676,-0.011673067696392536,0.02575729973614216,-0.7606194019317627,0.682240903377533,0.019680941477417946
12876,0.009003372862935066,-0.013732708059251308,0.02425829879939556,-0.6442986130714417,0.5909097194671631,0.020288091152906418
12886,0.00857466273009777,-0.013743615709245205,0.024229668080806732,-0.6307321190834045,0.6035159826278687,0.018162982538342476
12896,0.007511156145483255,-0.012028904631733894,0.024162670597434044,-0.7031852006912231,0.6444180607795715,0.0192280150949955
12906,0.0081633934751153,-0.012031665071845055,0.024171633645892143,-0.6870999932289124,0.5969091653823853,0.019524365663528442
12916,0.009244048036634922,-0.012470067478716373,0.02420167624950409,-0.648754894733429,0.5309235453605652,0.021758155897259712
12926,0.009232323616743088,-0.012034231796860695,0.024529678747057915,-0.654176652431488,0.5250642895698547,0.022020623087882996
12936,0.008378302678465843,-0.012895531952381134,0.024543093517422676,-0.5941570997238159,0.5617508888244629,0.01998746395111084
12946,0.007528950925916433,-0.0118400938808918,0.024509530514478683,-0.6369600296020508,0.5969577431678772,0.01935376599431038
12956,0.008592632599174976,-0.01312391646206379,0.02458411268889904,-0.5555762648582458,0.531253457069397,0.019301261752843857
12966,0.009232181124389172,-0.015033143572509289,0.02478111907839775,-0.44786423444747925,0.48795658349990845,0.017385223880410194
12976,0.00749365845695138,-0.011977029033005238,0.024806460365653038,-0.6138567328453064,0.5789905786514282,0.019244004040956497
12986,0.008343692868947983,-0.012821675278246403,0.024864377453923225,-0.5530686974525452,0.5195842385292053,0.020444219931960106
12996,0.007714841514825821,-0.012823088094592094,0.02486347407102585,-0.5434146523475647,0.5461999773979187,0.01818075403571129
13006,0.007930750027298927,-0.013681245967745781,0.024097612127661705,-0.49033403396606445,0.5239353179931641,0.01787611097097397
13016,0.00814229715615511,-0.012838592752814293,0.02406432293355465,-0.529877781867981,0.5054025650024414,0.018358660861849785
13026,0.008358199149370193,-0.012844505719840527,0.024031905457377434,-0.5208375453948975,0.4869578182697296,0.019033320248126984
13036,0.007516732905060053,-0.012636801227927208,0.023987319320440292,-0.5244275331497192,0.5244895815849304,0.01910451613366604
13046,0.007520617917180061,-0.01201013382524252,0.02394602634012699,-0.5497586131095886,0.5145164132118225,0.019366741180419922
13056,0.0075385007075965405,-0.014959955587983131,0.02353818342089653,-0.3819703459739685,0.5037744045257568,0.016310663893818855
13066,0.008375684730708599,-0.013917578384280205,0.02350861392915249,-0.43541061878204346,0.4511478841304779,0.018657727167010307
13076,0.007542547769844532,-0.012049233540892601,0.023456690832972527,-0.5310635566711426,0.492450088262558,0.018859563395380974
13086,0.009220807813107967,-0.012889910489320755,0.023445021361112595,-0.4768843650817871,0.3940221965312958,0.018793320283293724
13096,0.0087851257994771,-0.009915784932672977,0.024022510275244713,-0.6284878253936768,0.41500890254974365,0.021250171586871147
13106,0.006937072612345219,-0.005605059210211039,0.023862747475504875,-0.8429785966873169,0.5119621157646179,0.02228282205760479
13116,0.006518702022731304,-0.005813362076878548,0.023878952488303185,-0.803194522857666,0.5258274078369141,0.021756203845143318
13126,0.007546758744865656,-0.0055972859263420105,0.02389325201511383,-0.7887653112411499,0.46045222878456116,0.022871123626828194
13136,0.006902800872921944,-0.00536436028778553,0.02471931464970112,-0.7749886512756348,0.4896292984485626,0.022197796031832695
13146,0.007740410044789314,-0.0007935719331726432,0.02451184391975403,-0.9928368926048279,0.43568456172943115,0.025555849075317383
13156,0.007667385973036289,-8.231669198721647e-05,0.02450466714799404,-0.99139004945755,0.4370476007461548,0.02571561001241207
13166,0.0070097073912620544,0.0009759857784956694,0.024454651400446892,-1.0075349807739258,0.4690524935722351,0.02492615394294262
13176,0.00702142808586359,0.00443451851606369,0.024090351536870003,-1.147883653640747,0.4641137421131134,0.02632785215973854
13186,0.0063729239627718925,0.005477835424244404,0.023997671902179718,-1.15302574634552,0.4922785460948944,0.02622007392346859
13196,0.0063781035132706165,0.005653115455061197,0.02404952049255371,-1.1113158464431763,0.4846881926059723,0.02699809893965721
13206,0.00551231112331152,0.006267414428293705,0.02403712086379528,-1.0940600633621216,0.522516131401062,0.025198346003890038
13216,0.006598790176212788,0.0036517491098493338,0.024503186345100403,-0.911993682384491,0.45825737714767456,0.0253852978348732
13226,0.006604503374546766,0.001025705598294735,0.024490095674991608,-0.7401496767997742,0.45245805382728577,0.024491427466273308
13236,0.007468911353498697,0.0005752615397796035,0.02452738955616951,-0.6926437616348267,0.40423038601875305,0.024426927790045738
13246,0.008328434079885483,-0.0002982300356961787,0.024565888568758965,-0.6251193881034851,0.36014795303344727,0.025774911046028137
13256,0.00811272393912077,-0.0005220461171120405,0.024583078920841217,-0.5953143239021301,0.37158122658729553,0.02539328671991825
13266,0.007682390511035919,0.0007409177487716079,0.024331795051693916,-0.6428472399711609,0.39445510506629944,0.024195587262511253
13276,0.008322014473378658,-0.0005473424680531025,0.024355448782444,-0.5571768283843994,0.3618815839290619,0.02493903785943985
13286,0.006620253901928663,-0.0005547750042751431,0.024359026923775673,-0.5398563742637634,0.4462922215461731,0.02286222018301487
13296,0.008329893462359905,-0.0005614982219412923,0.024373279884457588,-0.5245057940483093,0.3556496202945709,0.02432677149772644
13306,0.008537710644304752,-0.0005676398286595941,0.024364786222577095,-0.5124360918998718,0.34724941849708557,0.024446960538625717
13316,0.007686949800699949,-0.0010068037081509829,0.02420940436422825,-0.4784121513366699,0.39168596267700195,0.023263458162546158
13326,0.006419351790100336,0.00026249303482472897,0.024183886125683784,-0.5305132865905762,0.4541056752204895,0.023169567808508873
13336,0.0053642489947378635,4.8945279559120536e-05,0.02415446750819683,-0.5081329345703125,0.5004359483718872,0.022427214309573174
13346,0.005789292976260185,-0.0007989676669239998,0.024169227108359337,-0.4543764293193817,0.47190991044044495,0.022724397480487823
13356,0.0009438651613891125,-0.001022710232064128,0.02400256134569645,-0.4356701970100403,0.7065192461013794,0.01958100125193596
13366,0.003047163365408778,0.003194809891283512,0.02413627691566944,-0.6361498236656189,0.578615128993988,0.02304256148636341
13376,0.0027788965962827206,0.0035965258721262217,0.02411019429564476,-0.6341773867607117,0.5790597200393677,0.02274688147008419
13386,0.0027968042995780706,0.003340963739901781,0.02413860522210598,-0.5988706350326538,0.5646390318870544,0.02204311080276966
13396,0.0028053349815309048,0.0044564553536474705,0.02492857351899147,-0.6334395408630371,0.5493582487106323,0.02170008234679699
13406,0.0032570266630500555,0.004873153753578663,0.02497272752225399,-0.6333184838294983,0.5142830610275269,0.0228804312646389
13416,0.0030479247216135263,0.0026332323905080557,0.025135790929198265,-0.499831885099411,0.5150400996208191,0.02183540351688862
13426,0.0037178390193730593,0.003936093766242266,0.02516944520175457,-0.5495050549507141,0.47127431631088257,0.022605186328291893
13436,0.003071678103879094,0.0032626911997795105,0.025239715352654457,-0.5012109875679016,0.4957022964954376,0.022639060392975807
13446,-0.002594049321487546,0.005190426018089056,0.02459108829498291,-0.5835378170013428,0.7677967548370361,0.022452015429735184
13456,-0.0030039369594305754,0.009090917184948921,0.024442560970783234,-0.7572896480560303,0.759467601776123,0.025360407307744026
13466,-0.003537618089467287,0.009688072837889194,0.024419350549578667,-0.7561025023460388,0.7581785917282104,0.02494814060628414
13476,-0.003481188090518117,0.008700720965862274,0.024615773931145668,-0.6779088973999023,0.7280884385108948,0.023989200592041016
13486,-0.004332552198320627,0.01436611358076334,0.024044353514909744,-0.9308377504348755,0.7445781826972961,0.027192886918783188
13496,-0.005199190694838762,0.013377052731812,0.024173421785235405,-0.8384233117103577,0.7616268396377563,0.024539154022932053
13506,-0.002199446549639106,0.018974918872117996,0.023913545534014702,-1.0805071592330933,0.5848931074142456,0.029044173657894135
13516,-0.00218031695112586,0.018227148801088333,0.02418413758277893,-0.9916037917137146,0.5675078630447388,0.028814084827899933
13526,-0.0023454877082258463,0.02350381389260292,0.023230277001857758,-1.2093403339385986,0.5586838126182556,0.03243090584874153
13536,-0.0023276866413652897,0.02275995723903179,0.02341853827238083,-1.1075665950775146,0.5401266813278198,0.03057785890996456
13546,-0.0036232571583241224,0.02710723504424095,0.022847797721624374,-1.2709659337997437,0.589094877243042,0.0326586477458477
13556,-0.004707244224846363,0.028132421895861626,0.022750860080122948,-1.2565499544143677,0.6251094937324524,0.031943801790475845
13566,-0.0033850788604468107,0.02612212486565113,0.023437896743416786,-1.085707426071167,0.5359767079353333,0.029948092997074127
13576,-0.006220548413693905,0.03241336718201637,0.022986380383372307,-1.3464553356170654,0.6655523180961609,0.030535239726305008
13586,-0.006392568349838257,0.03268631175160408,0.023117173463106155,-1.2817816734313965,0.6493658423423767,0.029050180688500404
13596,-0.006378513760864735,0.03242603689432144,0.023376425728201866,-1.190494179725647,0.6234846115112305,0.028000973165035248
13606,-0.006805806420743465,0.03372333571314812,0.023309174925088882,-1.1894904375076294,0.6228468418121338,0.027710195630788803
13616,-0.005892324261367321,0.0334649458527565,0.02419455163180828,-1.1032001972198486,0.551790714263916,0.029048366472125053
13626,-0.006812277249991894,0.03347798064351082,0.024323126301169395,-1.0336319208145142,0.5792546272277832,0.028026388958096504
13636,-0.006780157797038555,0.034512270241975784,0.024350514635443687,-1.0245461463928223,0.5583993792533875,0.028054453432559967
13646,-0.007432684767991304,0.03352393954992294,0.024626849219202995,-0.9107517004013062,0.5726906657218933,0.024826275184750557
13656,-0.005606382619589567,0.03208528831601143,0.024640006944537163,-0.7805726528167725,0.4586538076400757,0.026489855721592903
13666,-0.006486014928668737,0.03290101885795593,0.024656761437654495,-0.7730497717857361,0.49129927158355713,0.024671243503689766
13676,-0.006690496113151312,0.03328704461455345,0.024718597531318665,-0.7430131435394287,0.48570218682289124,0.024068109691143036
13686,-0.006899027619510889,0.03323572874069214,0.024819517508149147,-0.6936575770378113,0.4804207384586334,0.02530558593571186
13696,-0.007228717673569918,0.03239016234874725,0.024877579882740974,-0.6473392248153687,0.4985146224498749,0.02422712743282318
13706,-0.005735804792493582,0.03752179816365242,0.02442193776369095,-0.8303569555282593,0.3879145085811615,0.02908424101769924
13716,-0.006168840918689966,0.03419828787446022,0.02480453997850418,-0.6047670245170593,0.39899128675460815,0.026843421161174774
13726,-0.005130277015268803,0.032605331391096115,0.024906689301133156,-0.5149919390678406,0.342843234539032,0.027226421982049942
13736,-0.005278313532471657,0.03327589109539986,0.024939950555562973,-0.5149919390678406,0.342843234539032,0.027226421982049942
13746,-0.0069927251897752285,0.03167440742254257,0.02466864325106144,-0.3921123147010803,0.4283493459224701,0.02471160516142845
13756,-0.006296584382653236,0.034453634172677994,0.024685285985469818,-0.47753629088401794,0.36765146255493164,0.026329128071665764
13766,-0.006296584382653236,0.034453634172677994,0.024685285985469818,-0.47753629088401794,0.36765146255493164,0.026329128071665764
13776,-0.005467942915856838,0.03473620489239693,0.024773038923740387,-0.42577439546585083,0.3084713816642761,0.027582326903939247
13786,-0.007164555601775646,0.0356932058930397,0.02473079226911068,-0.4766387939453125,0.3990756869316101,0.026741916313767433
13796,-0.006137966178357601,0.03263261914253235,0.024631299078464508,-0.2609323263168335,0.32778143882751465,0.02842903323471546
13806,-0.0056513333693146706,0.03375692665576935,0.024642426520586014,-0.295899361371994,0.2960352897644043,0.029651787132024765
13816,-0.0061082905158400536,0.034639667719602585,0.024648098275065422,-0.3168020248413086,0.31463414430618286,0.029025821015238762
13826,-0.005161438602954149,0.03341289982199669,0.024715954437851906,-0.2332836538553238,0.2630641758441925,0.02896467037498951
13836,-0.005387003533542156,0.03800281137228012,0.02439655363559723,-0.44265154004096985,0.27153897285461426,0.027539072558283806
13846,-0.0035398059990257025,0.03838872164487839,0.024391451850533485,-0.43175581097602844,0.1785474419593811,0.02661900967359543
13856,-0.006293796002864838,0.03695976734161377,0.024555929005146027,-0.3341294527053833,0.31701457500457764,0.030179210007190704
13866,-0.007179087959229946,0.03236045315861702,0.02474907413125038,-0.08831426501274109,0.35578370094299316,0.03316037729382515
13876,-0.003997062798589468,0.030279802158474922,0.024472570046782494,0.016251346096396446,0.19636373221874237,0.03189485892653465
13886,-0.0033128317445516586,0.02438250184059143,0.024275565519928932,0.29956957697868347,0.16765019297599792,0.03461277112364769
13896,-0.0033127348870038986,0.02350914105772972,0.024224212393164635,0.3235371708869934,0.17323748767375946,0.03513682261109352
13906,-0.004215313587337732,0.02555520087480545,0.0245058611035347,0.20542828738689423,0.2201821655035019,0.03484056144952774
13916,-0.004214123822748661,0.02534717507660389,0.024518383666872978,0.20621193945407867,0.2206002026796341,0.03497189283370972
13926,-0.002227705204859376,0.024021517485380173,0.023769672960042953,0.25462010502815247,0.12827467918395996,0.03301514312624931
13936,-0.0031136975158005953,0.02425989881157875,0.023801852017641068,0.2271593064069748,0.17748303711414337,0.03339194506406784
13946,-0.003121431451290846,0.024709491059184074,0.023820050060749054,0.19083938002586365,0.18400952219963074,0.033345457166433334
13956,-0.003122037975117564,0.024500275030732155,0.023795481771230698,0.19196106493473053,0.1848069429397583,0.03256762772798538
13966,-0.0022557962220162153,0.01994420774281025,0.02279137820005417,0.39659249782562256,0.14853516221046448,0.03484921157360077
13976,-0.0020975249353796244,0.019359121099114418,0.022702252492308617,0.3973664939403534,0.15006306767463684,0.03529537096619606
13986,-0.0019371140515431762,0.018757939338684082,0.022611156105995178,0.39691805839538574,0.14927847683429718,0.03509515896439552
13996,-0.0027025688905268908,0.0183712188154459,0.022567307576537132,0.38640835881233215,0.1951282024383545,0.03844407573342323
14006,-0.001751655712723732,0.01652946136891842,0.022570718079805374,0.4427814781665802,0.1564420610666275,0.03691742196679115
14016,-0.0017717790324240923,0.015434656292200089,0.022450216114521027,0.4631155729293823,0.16426284611225128,0.03854283317923546
14026,-0.0016130988951772451,0.014688199386000633,0.022357512265443802,0.4624040424823761,0.16534708440303802,0.03857285529375076
14036,-0.0016130988951772451,0.014688199386000633,0.022357512265443802,0.4624040424823761,0.16534708440303802,0.03857285529375076
14046,-0.0022941238712519407,0.015682974830269814,0.021871201694011688,0.37875083088874817,0.2066938728094101,0.039248041808605194
14056,-0.0021837763488292694,0.015016619116067886,0.02175184153020382,0.37827667593955994,0.20757067203521729,0.03976895287632942
14066,-0.0005108434706926346,0.015000514686107635,0.02159690111875534,0.31489965319633484,0.1401304006576538,0.03318474069237709
14076,-0.0005108434706926346,0.015000514686107635,0.02159690111875534,0.31489965319633484,0.1401304006576538,0.03318474069237709
14086,-0.00279238261282444,0.017081543803215027,0.021796440705657005,0.1782541275024414,0.2648079991340637,0.04053676500916481
14096,-0.0027235564775764942,0.01654776558279991,0.02272050641477108,0.17751365900039673,0.2657173275947571,0.040789391845464706
14106,-0.0008673023548908532,0.02915586344897747,0.022765647619962692,-0.4519807994365692,0.19007933139801025,0.017222082242369652
14116,-0.0008673023548908532,0.02915586344897747,0.022765647619962692,-0.4519807994365692,0.19007933139801025,0.017222082242369652
14126,3.232683229725808e-05,0.028837760910391808,0.02278846688568592,-0.4038066267967224,0.16362974047660828,0.01792248897254467
14136,2.7432344722910784e-05,0.02885407954454422,0.022454997524619102,-0.4038066267967224,0.16362974047660828,0.01792248897254467
14146,-0.0013980057556182146,0.028778238222002983,0.022538840770721436,-0.3849194049835205,0.24799895286560059,0.023004762828350067
14156,-0.0013980057556182146,0.028778238222002983,0.022538840770721436,-0.3849194049835205,0.24799895286560059,0.023004762828350067
14166,-0.0009625823004171252,0.027822891250252724,0.022552017122507095,-0.31355345249176025,0.2383437305688858,0.02240831032395363
14176,-0.0021455399692058563,0.035119131207466125,0.022959193214774132,-0.6972213387489319,0.300515741109848,0.016971707344055176
14186,-0.0020884911064058542,0.035756923258304596,0.022943541407585144,-0.6960954070091248,0.2983696162700653,0.01699030213057995
14196,-0.0030161875765770674,0.0335647352039814,0.023196181282401085,-0.5559143424034119,0.34524038434028625,0.022353149950504303
14206,-0.0004860176413785666,0.0287054143846035,0.02358737401664257,-0.27938514947891235,0.2097974568605423,0.021696671843528748
14216,0.0038813829887658358,0.024126915261149406,0.022961735725402832,-0.026206782087683678,-0.01688145101070404,0.017489144578576088
14226,0.004708779510110617,0.025171639397740364,0.022959329187870026,-0.09008074551820755,-0.04014747589826584,0.01598571427166462
14236,0.005143520887941122,0.025075608864426613,0.022941315546631813,-0.08933013677597046,-0.040587082505226135,0.01625172793865204
14246,0.00555778993293643,0.02398146316409111,0.022900540381669998,-0.039551153779029846,-0.03818228468298912,0.016757797449827194
14256,0.006408173590898514,0.024221930652856827,0.02286526747047901,-0.05949542671442032,-0.0598258450627327,0.015287784859538078
14266,0.00676617631688714,0.018236633390188217,0.02317778952419758,0.25864720344543457,-0.0519995279610157,0.026270044967532158
14276,0.007242931984364986,0.017729561775922775,0.023171063512563705,0.25785964727401733,-0.05109304189682007,0.026232099160552025
14286,0.007233017589896917,0.024412892758846283,0.02383684180676937,-0.12063051015138626,-0.0008495777728967369,0.014352330937981606
14296,0.007233017589896917,0.024412892758846283,0.02383684180676937,-0.12063051015138626,-0.0008495777728967369,0.014352330937981606
14306,0.007420127280056477,0.0267223808914423,0.023591602221131325,-0.25717464089393616,0.01566847786307335,0.009635061956942081
14316,0.00785740651190281,0.02675359696149826,0.02360798418521881,-0.254414439201355,0.014000973664224148,0.009589542634785175
14326,0.008270102553069592,0.02332489751279354,0.02369018644094467,-0.07783820480108261,0.04078726842999458,0.017823295667767525
14336,0.008270102553069592,0.02332489751279354,0.02369018644094467,-0.07783820480108261,0.04078726842999458,0.017823295667767525
14346,0.008259204216301441,0.02375037781894207,0.023747876286506653,-0.10889984667301178,0.06338880956172943,0.01791381649672985
14356,0.0082563366740942,0.02100287191569805,0.023841112852096558,0.025245217606425285,0.08522586524486542,0.024664347991347313
14366,0.007835345342755318,0.025231830775737762,0.024120211601257324,-0.22619158029556274,0.1504458636045456,0.02022714726626873
14376,0.007835345342755318,0.025231830775737762,0.024120211601257324,-0.22619158029556274,0.1504458636045456,0.02022714726626873
14386,0.007832586765289307,0.02459833025932312,0.024220023304224014,-0.19666047394275665,0.18526741862297058,0.023784270510077477
14396,0.007832586765289307,0.02459833025932312,0.024220023304224014,-0.19666047394275665,0.18526741862297058,0.023784270510077477
14406,0.0033571370877325535,0.0245982613414526,0.023009469732642174,-0.19866491854190826,0.43175408244132996,0.03275540471076965
14416,0.002933282172307372,0.02438078261911869,0.02296943962574005,-0.18882878124713898,0.4544692933559418,0.03441302850842476
14426,0.0027335193008184433,0.023544592782855034,0.02293434739112854,-0.15135838091373444,0.4667176902294159,0.035322222858667374
14436,0.0027335193008184433,0.023544592782855034,0.02293434739112854,-0.15135838091373444,0.4667176902294159,0.035322222858667374
14446,0.006704419385641813,0.036477960646152496,0.022565387189388275,-0.8276709914207458,0.2673254907131195,0.01752532087266445
14456,0.006704419385641813,0.036477960646152496,0.022565387189388275,-0.8276709914207458,0.2673254907131195,0.01752532087266445
14466,0.005732609890401363,0.03683202713727951,0.022578490898013115,-0.8079097867012024,0.32852792739868164,0.019170915707945824
14476,0.005874780006706715,0.037516314536333084,0.022527607157826424,-0.8068901896476746,0.32779794931411743,0.019012602046132088
14486,0.010258483700454235,0.03359900414943695,0.023848116397857666,-0.5396467447280884,0.12474440783262253,0.01996602676808834
14496,0.010258483700454235,0.03359900414943695,0.023848116397857666,-0.5396467447280884,0.12474440783262253,0.01996602676808834
14506,0.010261353105306625,0.029247496277093887,0.024114243686199188,-0.29777759313583374,0.14536258578300476,0.023665431886911392
14516,0.010653465054929256,0.029293233528733253,0.024158373475074768,-0.2975587844848633,0.14712832868099213,0.024254536256194115
14527,0.009433398023247719,0.030074236914515495,0.024305524304509163,-0.3376142382621765,0.23024088144302368,0.02562537044286728
14536,0.009722473099827766,0.030162589624524117,0.02420029602944851,-0.3363145887851715,0.23127660155296326,0.025207240134477615
14546,0.010347912088036537,0.028845960274338722,0.0242950189858675,-0.2652163803577423,0.22827601432800293,0.025803914293646812
14556,0.010347912088036537,0.028845960274338722,0.0242950189858675,-0.2652163803577423,0.22827601432800293,0.025803914293646812
14566,0.010543984360992908,0.028200456872582436,0.024424083530902863,-0.22819073498249054,0.24260328710079193,0.027105866000056267
14576,0.01053409744054079,0.028188377618789673,0.023824185132980347,-0.22819073498249054,0.24260328710079193,0.027105866000056267
14586,0.009658352471888065,0.030128780752420425,0.02389596588909626,-0.32493114471435547,0.3144996166229248,0.026064446195960045
14596,0.009658352471888065,0.030128780752420425,0.02389596588909626,-0.32493114471435547,0.3144996166229248,0.026064446195960045
14606,0.0109349200502038,0.02819903939962387,0.02389626018702984,-0.22478130459785461,0.262116014957428,0.025888592004776
14616,0.010490608401596546,0.028186874464154243,0.02312595210969448,-0.22639355063438416,0.29713138937950134,0.026447217911481857
14626,0.010897953994572163,0.0288173109292984,0.023043718189001083,-0.26287415623664856,0.29846036434173584,0.027377473190426826
14636,0.010897953994572163,0.0288173109292984,0.023043718189001083,-0.26287415623664856,0.29846036434173584,0.027377473190426826
14646,0.009830785915255547,0.029244329780340195,0.022993972525000572,-0.2806394696235657,0.3725946247577667,0.02782139927148819
14657,0.010242857970297337,0.028814714401960373,0.022508826106786728,-0.25804272294044495,0.3604104518890381,0.02778090350329876
14667,0.009611696936190128,0.030074531212449074,0.022449130192399025,-0.3216854929924011,0.39932647347450256,0.026581134647130966
14676,0.009611696936190128,0.030074531212449074,0.022449130192399025,-0.3216854929924011,0.39932647347450256,0.026581134647130966
14687,0.011286317370831966,0.029021818190813065,0.022323928773403168,-0.2711823284626007,0.3282819390296936,0.02681664377450943
14697,0.009715788997709751,0.029237227514386177,0.022368665784597397,-0.2830251157283783,0.4141327440738678,0.02738344855606556
14707,0.005020755343139172,0.025901230052113533,0.02349601686000824,-0.11032183468341827,0.6649830937385559,0.029687613248825073
14717,0.005020755343139172,0.025901230052113533,0.02349601686000824,-0.11032183468341827,0.6649830937385559,0.029687613248825073
14727,0.004804402589797974,0.02569255232810974,0.023524973541498184,-0.12497775256633759,0.6524137258529663,0.02932053618133068
14737,0.004804402589797974,0.02569255232810974,0.023524973541498184,-0.12497775256633759,0.6524137258529663,0.02932053618133068
14747,0.005832964554429054,0.02755739912390709,0.023882558569312096,-0.24534070491790771,0.5748412013053894,0.02977740205824375
14757,0.005832964554429054,0.02755739912390709,0.023882558569312096,-0.24534070491790771,0.5748412013053894,0.02977740205824375
14766,0.004588232841342688,0.025690577924251556,0.023861320689320564,-0.15105921030044556,0.6331716179847717,0.028499005362391472
14777,0.0050055799074471,0.02506271004676819,0.02388876862823963,-0.1257348507642746,0.5983681082725525,0.027435870841145515
14787,0.003967632073909044,0.02547188475728035,0.023897875100374222,-0.15863505005836487,0.6452959775924683,0.030069993808865547
14797,0.0037531096022576094,0.024821922183036804,0.023514550179243088,-0.13486051559448242,0.6437235474586487,0.029559725895524025
14807,0.004788094200193882,0.026063503697514534,0.023584719747304916,-0.2130674570798874,0.5757209062576294,0.030039353296160698
14817,0.004791237413883209,0.025025326758623123,0.02356836199760437,-0.16316372156143188,0.5657920837402344,0.029371412470936775
14827,0.004781131166964769,0.025838181376457214,0.023591289296746254,-0.21687735617160797,0.5574961304664612,0.031049437820911407
14837,0.003937984351068735,0.025828059762716293,0.024176467210054398,-0.22374966740608215,0.5936591625213623,0.03151281177997589
14847,0.003908742684870958,0.02672656998038292,0.02422468550503254,-0.28392845392227173,0.5878240466117859,0.03393479436635971
14857,0.0037303189747035503,0.026650531217455864,0.02425316721200943,-0.2851332724094391,0.5878338813781738,0.03415863960981369
14867,0.004761883523315191,0.025410572066903114,0.02436114475131035,-0.23301440477371216,0.5152165293693542,0.03104773350059986
14877,0.004765916615724564,0.025412408635020256,0.02421698160469532,-0.23301440477371216,0.5152165293693542,0.03104773350059986
14887,0.0037341683637350798,0.032202303409576416,0.0243084579706192,-0.6140559315681458,0.5631110668182373,0.043640848249197006
14897,0.0037297855596989393,0.033436160534620285,0.024281542748212814,-0.665427565574646,0.5535449981689453,0.04500456899404526
14907,0.003933524712920189,0.030975688248872757,0.024552322924137115,-0.49476292729377747,0.5235968828201294,0.03931667283177376
14917,0.0029048845171928406,0.03301452100276947,0.024704502895474434,-0.5965762734413147,0.5724743008613586,0.042526524513959885
14927,0.0029048845171928406,0.03301452100276947,0.024704502895474434,-0.5965762734413147,0.5724743008613586,0.042526524513959885
14937,0.005568474065512419,0.03343547508120537,0.02478908747434616,-0.6039791107177734,0.41738489270210266,0.0424298495054245
14947,0.0014367576222866774,0.03508201241493225,0.02479059249162674,-0.6770622730255127,0.6413946151733398,0.04459711164236069
14957,0.0006100740283727646,0.035496726632118225,0.02479742281138897,-0.6784946918487549,0.6714681386947632,0.04477554187178612
14967,0.0004116260097362101,0.03590705990791321,0.02414662018418312,-0.6617638468742371,0.6538254022598267,0.04276297613978386
14977,0.0004116260097362101,0.03590705990791321,0.02414662018418312,-0.6617638468742371,0.6538254022598267,0.04276297613978386
14987,0.0016412476543337107,0.03448007255792618,0.024294912815093994,-0.5463914275169373,0.5622686743736267,0.03973483666777611
14997,0.0016412476543337107,0.03448007255792618,0.024294912815093994,-0.5463914275169373,0.5622686743736267,0.03973483666777611
15007,0.0014071386540308595,0.03429840877652168,0.02495192363858223,-0.5228649973869324,0.5641079545021057,0.038700856268405914
15017,0.0014003432588651776,0.034708958119153976,0.024985836818814278,-0.5332349538803101,0.5557382106781006,0.0404217392206192
15027,0.0016057075699791312,0.035327546298503876,0.02507033757865429,-0.5366021394729614,0.521643877029419,0.041568364948034286
15037,0.0016057075699791312,0.035327546298503876,0.02507033757865429,-0.5366021394729614,0.521643877029419,0.041568364948034286
15047,0.0017393872840330005,0.036077793687582016,0.025106176733970642,-0.5636624693870544,0.5028038620948792,0.042943112552165985
15057,0.0016059638001024723,0.036356572061777115,0.025080205872654915,-0.5603729486465454,0.5020526647567749,0.042808689177036285
15067,0.001395877101458609,0.03533357381820679,0.02517084777355194,-0.47654131054878235,0.4974958002567291,0.0395156592130661
15077,0.001395877101458609,0.03533357381820679,0.02517084777355194,-0.47654131054878235,0.4974958002567291,0.0395156592130661
15087,0.0013990553561598063,0.03431639075279236,0.025265365839004517,-0.40191540122032166,0.4809337556362152,0.03704928979277611
15098,0.0014454375486820936,0.031932421028614044,0.023891951888799667,-0.27730125188827515,0.4763246178627014,0.03522596135735512
15107,0.0014454375486820936,0.031932421028614044,0.023891951888799667,-0.27730125188827515,0.4763246178627014,0.03522596135735512
15117,0.003405916038900614,0.0356803759932518,0.02395382709801197,-0.47221899032592773,0.368503600358963,0.04283567890524864
15127,0.0029987338930368423,0.035681284964084625,0.023911213502287865,-0.46164003014564514,0.38917550444602966,0.04203948378562927
15137,0.0029985078144818544,0.035067614167928696,0.0239251758903265,-0.4201315939426422,0.38710734248161316,0.04226237162947655
15147,0.0021725709084421396,0.03362278267741203,0.023935038596391678,-0.34557878971099854,0.42342206835746765,0.04038110002875328
15157,0.0021725709084421396,0.03362278267741203,0.023935038596391678,-0.34557878971099854,0.42342206835746765,0.04038110002875328
15167,0.0021671997383236885,0.03690478950738907,0.02384498156607151,-0.5023341178894043,0.4200916290283203,0.04392930120229721
15178,0.0029875608161091805,0.03403733670711517,0.024382973089814186,-0.34257736802101135,0.3755228519439697,0.04110681265592575
15187,0.0025795341935008764,0.03587731719017029,0.024388935416936874,-0.43332234025001526,0.3951358497142792,0.042304590344429016
15197,0.0025795341935008764,0.03587731719017029,0.024388935416936874,-0.43332234025001526,0.3951358497142792,0.042304590344429016
15207,0.0027826104778796434,0.035877544432878494,0.024381261318922043,-0.42573854327201843,0.38531869649887085,0.04205700010061264
15218,0.00181109388358891,0.036921266466379166,0.024359136819839478,-0.4759860932826996,0.43503326177597046,0.04260966181755066
15227,0.0033939185086637735,0.0330326184630394,0.024285372346639633,-0.25812557339668274,0.34934717416763306,0.04184843972325325
15237,0.0033939185086637735,0.0330326184630394,0.024285372346639633,-0.25812557339668274,0.34934717416763306,0.04184843972325325
15248,0.0027640170883387327,0.037924326956272125,0.024363689124584198,-0.515578031539917,0.3846856355667114,0.045409414917230606
15257,0.002771685365587473,0.03816396743059158,0.02435070276260376,-0.5144912004470825,0.38538655638694763,0.04588912054896355
15267,0.0023619255516678095,0.036129944026470184,0.02513863705098629,-0.3868095874786377,0.40636664628982544,0.04516950249671936
15277,0.0023619255516678095,0.036129944026470184,0.02513863705098629,-0.3868095874786377,0.40636664628982544,0.04516950249671936
15287,0.0031822379678487778,0.0371536910533905,0.025204133242368698,-0.42394936084747314,0.36005300283432007,0.045839689671993256
15297,0.0031822379678487778,0.0371536910533905,0.025204133242368698,-0.42394936084747314,0.36005300283432007,0.045839689671993256
15308,0.0074912067502737045,0.0365319661796093,0.024682875722646713,-0.3743998110294342,0.14295102655887604,0.04924236238002777
15316,0.0074912067502737045,0.0365319661796093,0.024682875722646713,-0.3743998110294342,0.14295102655887604,0.04924236238002777
15328,0.007789725437760353,0.03638942167162895,0.024698730558156967,-0.35877639055252075,0.15716080367565155,0.04968976974487305
15338,0.007789725437760353,0.03638942167162895,0.024698730558156967,-0.35877639055252075,0.15716080367565155,0.04968976974487305
15346,0.008643995970487595,0.036167070269584656,0.024664483964443207,-0.3448459208011627,0.1285930871963501,0.04935881122946739
15356,0.008400297723710537,0.0354919470846653,0.023518793284893036,-0.3077556788921356,0.15933942794799805,0.049411945044994354
15368,0.007513498887419701,0.03656376153230667,0.023453889414668083,-0.3587632477283478,0.2330245077610016,0.05086283013224602
15376,0.007513498887419701,0.03656376153230667,0.023453889414668083,-0.3587632477283478,0.2330245077610016,0.05086283013224602
15386,0.008582325652241707,0.036342911422252655,0.023356977850198746,-0.34328970313072205,0.18996840715408325,0.05158764496445656
15396,0.006854409817606211,0.0361250564455986,0.023220136761665344,-0.3281707763671875,0.296170711517334,0.04938648268580437
15406,0.008610652759671211,0.031916484236717224,0.023112984374165535,-0.08992338180541992,0.20646214485168457,0.05130671337246895
15418,0.008603495545685291,0.024293769150972366,0.022694043815135956,0.322094589471817,0.22170697152614594,0.05509326234459877
15428,0.008625157177448273,0.024870285764336586,0.022753048688173294,0.25321120023727417,0.23524242639541626,0.054140444844961166
15436,0.00884475838392973,0.02402658574283123,0.02317287027835846,0.26453572511672974,0.23663295805454254,0.05487566068768501
15446,0.00778119545429945,0.02722710743546486,0.02344926819205284,0.058387428522109985,0.306037962436676,0.05396748334169388
15458,0.008840230293571949,0.024260621517896652,0.023241551592946053,0.1926729381084442,0.2585865557193756,0.054624803364276886
15466,0.008843828924000263,0.0251152403652668,0.023308249190449715,0.11680349707603455,0.26824408769607544,0.05427921190857887
15476,0.007780173793435097,0.02596420794725418,0.023389782756567,0.04383067414164543,0.3359570801258087,0.05431339144706726
15486,0.0118131497874856,0.024033933877944946,0.024759577587246895,0.12163881957530975,0.12803514301776886,0.04952698573470116
15496,0.012233570218086243,0.02298835478723049,0.02475164085626602,0.1474965512752533,0.12626823782920837,0.050759993493556976
15506,0.010965406894683838,0.025098731741309166,0.025039708241820335,0.003998883068561554,0.2153923362493515,0.049831047654151917
15516,0.010750196874141693,0.025098426267504692,0.025114456191658974,-0.020183010026812553,0.24347539246082306,0.04944416135549545
15528,0.012223770841956139,0.023621385917067528,0.025498945266008377,0.013173755258321762,0.19148871302604675,0.05023011937737465
15536,0.012223770841956139,0.023621385917067528,0.025498945266008377,0.013173755258321762,0.19148871302604675,0.05023011937737465
15548,0.01200211513787508,0.02278372272849083,0.025551021099090576,0.033927418291568756,0.21861489117145538,0.05257769301533699
15556,0.016361622139811516,0.017608633264899254,0.025205975398421288,0.2819489538669586,0.004529010504484177,0.049554500728845596
15568,0.015512838959693909,0.01846795529127121,0.02496756985783577,0.1906837671995163,0.08252314478158951,0.05144059658050537
15576,0.01597866229712963,0.01777896285057068,0.024971934035420418,0.19086205959320068,0.08292854577302933,0.05083843693137169
15586,0.016833214089274406,0.017156070098280907,0.024961300194263458,0.1886446326971054,0.0629185289144516,0.04948708787560463
15596,0.017335256561636925,0.016448991373181343,0.02496235817670822,0.1896655410528183,0.06352975219488144,0.04973706975579262
15606,0.018207518383860588,0.016531312838196754,0.025012439116835594,0.14883077144622803,0.045322638005018234,0.04823215305805206
15616,0.021900173276662827,0.015409598127007484,0.025647616013884544,0.170113205909729,-0.11567326635122299,0.042397115379571915
15628,0.019759133458137512,0.01431715115904808,0.02588234841823578,0.19041767716407776,0.03008631430566311,0.04960769787430763
15636,0.020601605996489525,0.008452406153082848,0.02551148273050785,0.4499782919883728,0.01742401532828808,0.05615129694342613
15646,0.02100318670272827,0.007408739998936653,0.025546535849571228,0.4503808319568634,0.027584126219153404,0.05732867494225502
15656,0.021348100155591965,0.007375523913651705,0.024259349331259727,0.4027727544307709,0.03572520986199379,0.05611037462949753
15666,0.022209350019693375,0.008579420857131481,0.024405524134635925,0.2899651527404785,0.02224517986178398,0.051679547876119614
15676,0.02014715038239956,0.00818831566721201,0.02456337958574295,0.2639855444431305,0.15340609848499298,0.05884247645735741
15686,0.02033776417374611,0.007803478743880987,0.024589940905570984,0.23702454566955566,0.16607873141765594,0.05766458436846733
15696,0.02124425582587719,0.008226501755416393,0.025599215179681778,0.1691439002752304,0.14411380887031555,0.055374838411808014
15706,0.018116304650902748,0.012240495532751083,0.02605864591896534,-0.0663762167096138,0.32053887844085693,0.05861277133226395
