timestamp (ms),stabilizer.roll,stabilizer.pitch,stabilizer.yaw,motor.m1,motor.m2,motor.m3,motor.m4
5139,0.0,0.0,0.0,0,0,0,0
5149,0.0,0.0,0.0,0,0,0,0
5159,0.0,0.0,0.0,0,0,0,0
5169,0.0,0.0,0.0,0,0,0,0
5179,0.0,0.0,0.0,0,0,0,0
5189,0.0,0.0,0.0,0,0,0,0
5199,0.0,0.0,0.0,0,0,0,0
5209,0.0,0.0,0.0,0,0,0,0
5219,0.0,0.0,0.0,0,0,0,0
5229,0.0,0.0,0.0,0,0,0,0
5239,0.0,0.0,0.0,0,0,0,0
5249,0.0,0.0,0.0,0,0,0,0
5259,0.0,0.0,0.0,0,0,0,0
5269,0.0,0.0,0.0,0,0,0,0
5279,0.0,0.0,0.0,0,0,0,0
5289,0.0,0.0,0.0,0,0,0,0
5299,0.0,0.0,0.0,0,0,0,0
5309,0.0,0.0,0.0,0,0,0,0
5319,0.0,0.0,0.0,0,0,0,0
5329,0.0,0.0,0.0,0,0,0,0
5339,0.0,0.0,0.0,0,0,0,0
5349,0.0,0.0,0.0,0,0,0,0
5359,0.0,0.0,0.0,0,0,0,0
5369,0.0,0.0,0.0,0,0,0,0
5379,0.0,0.0,0.0,0,0,0,0
5389,0.0,0.0,0.0,0,0,0,0
5399,0.0,0.0,0.0,0,0,0,0
5409,0.0,0.0,0.0,0,0,0,0
5419,0.0,0.0,0.0,0,0,0,0
5429,0.0,0.0,0.0,0,0,0,0
5439,0.0,0.0,0.0,0,0,0,0
5449,0.0,0.0,0.0,0,0,0,0
5459,0.0,0.0,0.0,0,0,0,0
5469,0.0,0.0,0.0,0,0,0,0
5479,0.0,0.0,0.0,0,0,0,0
5489,0.0,0.0,0.0,0,0,0,0
5499,0.0,0.0,0.0,0,0,0,0
5509,0.0,0.0,0.0,0,0,0,0
5519,0.0,0.0,0.0,0,0,0,0
5529,0.0,0.0,0.0,0,0,0,0
5539,0.0,0.0,0.0,0,0,0,0
5549,0.0,0.0,0.0,0,0,0,0
5559,0.0,0.0,0.0,0,0,0,0
5569,0.0,0.0,0.0,0,0,0,0
5579,0.0,0.0,0.0,0,0,0,0
5589,0.0,0.0,0.0,0,0,0,0
5599,0.0,0.0,0.0,0,0,0,0
5609,0.0,0.0,0.0,0,0,0,0
5619,0.0,0.0,0.0,0,0,0,0
5629,0.0,0.0,0.0,0,0,0,0
5639,0.0,0.0,0.0,0,0,0,0
5649,0.0,0.0,0.0,0,0,0,0
5659,0.0,0.0,0.0,0,0,0,0
5669,0.0,0.0,0.0,0,0,0,0
5679,0.0,0.0,0.0,0,0,0,0
5689,0.0,0.0,0.0,0,0,0,0
5699,0.0,0.0,0.0,0,0,0,0
5709,0.0,0.0,0.0,0,0,0,0
5719,0.0,0.0,0.0,0,0,0,0
5729,0.0,0.0,0.0,0,0,0,0
5739,0.0,0.0,0.0,0,0,0,0
5749,0.0,0.0,0.0,0,0,0,0
5759,0.0,0.0,0.0,0,0,0,0
5769,0.0,0.0,0.0,0,0,0,0
5779,0.0,0.0,0.0,0,0,0,0
5789,0.0,0.0,0.0,0,0,0,0
5799,0.0,0.0,0.0,0,0,0,0
5809,0.0,0.0,0.0,0,0,0,0
5819,0.0,0.0,0.0,0,0,0,0
5829,0.0,0.0,0.0,0,0,0,0
5839,0.0,0.0,0.0,0,0,0,0
5849,0.0,0.0,0.0,0,0,0,0
5859,0.0,0.0,0.0,0,0,0,0
5869,0.0,0.0,0.0,0,0,0,0
5879,0.0,0.0,0.0,0,0,0,0
5889,0.0,0.0,0.0,0,0,0,0
5899,0.0,0.0,0.0,0,0,0,0
5909,0.0,0.0,0.0,0,0,0,0
5919,0.0,0.0,0.0,0,0,0,0
5929,0.0,0.0,0.0,0,0,0,0
5939,0.0,0.0,0.0,0,0,0,0
5949,0.0,0.0,0.0,0,0,0,0
5959,0.0,0.0,0.0,0,0,0,0
5969,0.0,0.0,0.0,0,0,0,0
5979,0.0,0.0,0.0,0,0,0,0
5989,0.0,0.0,0.0,0,0,0,0
5999,0.0,0.0,0.0,0,0,0,0
6009,0.0,0.0,0.0,0,0,0,0
6019,0.0,0.0,0.0,0,0,0,0
6029,0.0,0.0,0.0,0,0,0,0
6039,0.0,0.0,0.0,0,0,0,0
6049,0.0,0.0,0.0,0,0,0,0
6059,0.0,0.0,0.0,0,0,0,0
6069,0.0,0.0,0.0,0,0,0,0
6079,0.0,0.0,0.0,0,0,0,0
6089,0.0,0.0,0.0,0,0,0,0
6099,0.0,0.0,0.0,0,0,0,0
6109,0.0,0.0,0.0,0,0,0,0
6119,0.0,0.0,0.0,0,0,0,0
6129,0.0,0.0,0.0,0,0,0,0
6139,0.0,0.0,0.0,0,0,0,0
6149,0.0,0.0,0.0,0,0,0,0
6159,0.0,0.0,0.0,0,0,0,0
6169,0.0,0.0,0.0,0,0,0,0
6179,0.0,0.0,0.0,0,0,0,0
6189,0.0,0.0,0.0,0,0,0,0
6199,0.0,0.0,0.0,0,0,0,0
6209,0.0,0.0,0.0,0,0,0,0
6219,0.0,0.0,0.0,0,0,0,0
6229,0.0,0.0,0.0,0,0,0,0
6239,0.0,0.0,0.0,0,0,0,0
6249,0.0,0.0,0.0,0,0,0,0
6259,0.0,0.0,0.0,0,0,0,0
6269,0.0,0.0,0.0,0,0,0,0
6279,0.0,0.0,0.0,0,0,0,0
6289,0.0,0.0,0.0,0,0,0,0
6299,0.0,0.0,0.0,0,0,0,0
6309,0.0,0.0,0.0,0,0,0,0
6319,0.0,0.0,0.0,0,0,0,0
6329,0.0,0.0,0.0,0,0,0,0
6339,0.0,0.0,0.0,0,0,0,0
6349,0.0,0.0,0.0,0,0,0,0
6359,0.0,0.0,0.0,0,0,0,0
6369,0.0,0.0,0.0,0,0,0,0
6379,0.0,0.0,0.0,0,0,0,0
6389,0.0,0.0,0.0,0,0,0,0
6399,0.0,0.0,0.0,0,0,0,0
6409,0.0,0.0,0.0,0,0,0,0
6419,0.0,0.0,0.0,0,0,0,0
6429,0.0,0.0,0.0,0,0,0,0
6439,0.0,0.0,0.0,0,0,0,0
6449,0.0,0.0,0.0,0,0,0,0
6459,0.0,0.0,0.0,0,0,0,0
6469,0.0,0.0,0.0,0,0,0,0
6479,0.0,0.0,0.0,0,0,0,0
6489,0.0,0.0,0.0,0,0,0,0
6499,0.0,0.0,0.0,0,0,0,0
6509,0.0,0.0,0.0,0,0,0,0
6519,0.0,0.0,0.0,0,0,0,0
6529,0.0,0.0,0.0,0,0,0,0
6539,0.0,0.0,0.0,0,0,0,0
6549,0.0,0.0,0.0,0,0,0,0
6559,0.0,0.0,0.0,0,0,0,0
6569,0.0,0.0,0.0,0,0,0,0
6579,0.0,0.0,0.0,0,0,0,0
6589,0.0,0.0,0.0,0,0,0,0
6599,0.0,0.0,0.0,0,0,0,0
6609,0.0,0.0,0.0,0,0,0,0
6619,0.0,0.0,0.0,0,0,0,0
6629,0.0,0.0,0.0,0,0,0,0
6639,0.0,0.0,0.0,0,0,0,0
6649,0.0,0.0,0.0,0,0,0,0
6659,0.0,0.0,0.0,0,0,0,0
6669,0.0,0.0,0.0,0,0,0,0
6679,0.0,0.0,0.0,0,0,0,0
6689,0.0,0.0,0.0,0,0,0,0
6699,0.0,0.0,0.0,0,0,0,0
6709,0.0,0.0,0.0,0,0,0,0
6719,0.0,0.0,0.0,0,0,0,0
6729,0.0,0.0,0.0,0,0,0,0
6739,0.0,0.0,0.0,0,0,0,0
6749,0.0,0.0,0.0,0,0,0,0
6759,0.0,0.0,0.0,0,0,0,0
6769,0.0,0.0,0.0,0,0,0,0
6779,0.0,0.0,0.0,0,0,0,0
6789,0.0,0.0,0.0,0,0,0,0
6799,0.0,0.0,0.0,0,0,0,0
6809,0.0,0.0,0.0,0,0,0,0
6819,0.0,0.0,0.0,0,0,0,0
6829,0.0,0.0,0.0,0,0,0,0
6839,0.0,0.0,0.0,0,0,0,0
6849,0.0,0.0,0.0,0,0,0,0
6859,0.0,0.0,0.0,0,0,0,0
6869,0.0,0.0,0.0,0,0,0,0
6879,0.0,0.0,0.0,0,0,0,0
6889,0.0,0.0,0.0,0,0,0,0
6899,0.0,0.0,0.0,0,0,0,0
6909,0.0,0.0,0.0,0,0,0,0
6919,0.0,0.0,0.0,0,0,0,0
6929,0.0,0.0,0.0,0,0,0,0
6939,0.0,0.0,0.0,0,0,0,0
6949,0.0,0.0,0.0,0,0,0,0
6959,0.0,0.0,0.0,0,0,0,0
6969,0.0,0.0,0.0,0,0,0,0
6979,0.0,0.0,0.0,0,0,0,0
6989,0.0,0.0,0.0,0,0,0,0
6999,0.0,0.0,0.0,0,0,0,0
7009,0.0,0.0,0.0,0,0,0,0
7019,0.0,0.0,0.0,0,0,0,0
7029,0.0,0.0,0.0,0,0,0,0
7039,0.0,0.0,0.0,0,0,0,0
7049,0.0,0.0,0.0,0,0,0,0
7059,0.0,0.0,0.0,0,0,0,0
7069,0.0,0.0,0.0,0,0,0,0
7079,0.0,0.0,0.0,0,0,0,0
7089,0.0,0.0,0.0,0,0,0,0
7099,0.0,0.0,0.0,0,0,0,0
7109,0.0,0.0,0.0,0,0,0,0
7119,0.0,0.0,0.0,0,0,0,0
7129,0.0,0.0,0.0,0,0,0,0
7139,0.0,0.0,0.0,0,0,0,0
7149,0.0,0.0,0.0,0,0,0,0
7159,0.0,0.0,0.0,0,0,0,0
7169,0.0,0.0,0.0,0,0,0,0
7179,0.0,0.0,0.0,0,0,0,0
7189,0.0,0.0,0.0,0,0,0,0
7199,0.0,0.0,0.0,0,0,0,0
7209,0.0,0.0,0.0,0,0,0,0
7219,0.0,0.0,0.0,0,0,0,0
7229,0.0,0.0,0.0,0,0,0,0
7239,0.0,0.0,0.0,0,0,0,0
7249,0.0,0.0,0.0,0,0,0,0
7259,0.0,0.0,0.0,0,0,0,0
7269,0.0,0.0,0.0,0,0,0,0
7279,0.0,0.0,0.0,0,0,0,0
7289,0.0,0.0,0.0,0,0,0,0
7299,0.0,0.0,0.0,0,0,0,0
7309,0.0,0.0,0.0,0,0,0,0
7319,0.0,0.0,0.0,0,0,0,0
7329,0.0,0.0,0.0,0,0,0,0
7339,0.0,0.0,0.0,0,0,0,0
7349,0.0,0.0,0.0,0,0,0,0
7359,0.0,0.0,0.0,0,0,0,0
7369,0.0,0.0,0.0,0,0,0,0
7379,0.0,0.0,0.0,0,0,0,0
7389,0.0,0.0,0.0,0,0,0,0
7399,0.0,0.0,0.0,0,0,0,0
7409,0.0,0.0,0.0,0,0,0,0
7419,0.0,0.0,0.0,0,0,0,0
7429,0.0,0.0,0.0,0,0,0,0
7439,0.0,0.0,0.0,0,0,0,0
7449,0.0,0.0,0.0,0,0,0,0
7459,0.0,0.0,0.0,0,0,0,0
7469,0.0,0.0,0.0,0,0,0,0
7479,0.0,0.0,0.0,0,0,0,0
7489,0.0,0.0,0.0,0,0,0,0
7499,0.0,0.0,0.0,0,0,0,0
7509,0.0,0.0,0.0,0,0,0,0
7519,0.0,0.0,0.0,0,0,0,0
7529,0.0,0.0,0.0,0,0,0,0
7539,0.0,0.0,0.0,0,0,0,0
7549,0.0,0.0,0.0,0,0,0,0
7559,0.0,0.0,0.0,0,0,0,0
7569,0.0,0.0,0.0,0,0,0,0
7579,0.0,0.0,0.0,0,0,0,0
7589,0.0,0.0,0.0,0,0,0,0
7599,0.0,0.0,0.0,0,0,0,0
7609,0.0,0.0,0.0,0,0,0,0
7619,0.0,0.0,0.0,0,0,0,0
7629,0.0,0.0,0.0,0,0,0,0
7639,0.0,0.0,0.0,0,0,0,0
7649,0.0,0.0,0.0,0,0,0,0
7659,0.0,0.0,0.0,0,0,0,0
7669,0.0,0.0,0.0,0,0,0,0
7679,0.0,0.0,0.0,0,0,0,0
7689,0.0,0.0,0.0,0,0,0,0
7699,0.0,0.0,0.0,0,0,0,0
7709,0.0,0.0,0.0,0,0,0,0
7719,0.0,0.0,0.0,0,0,0,0
7729,0.0,0.0,0.0,0,0,0,0
7739,0.0,0.0,0.0,0,0,0,0
7749,0.0,0.0,0.0,0,0,0,0
7759,0.0,0.0,0.0,0,0,0,0
7769,0.0,0.0,0.0,0,0,0,0
7779,0.0,0.0,0.0,0,0,0,0
7789,0.0,0.0,0.0,0,0,0,0
7799,0.0,0.0,0.0,0,0,0,0
7809,0.0,0.0,0.0,0,0,0,0
7819,0.0,0.0,0.0,0,0,0,0
7829,0.0,0.0,0.0,0,0,0,0
7839,0.0,0.0,0.0,0,0,0,0
7849,0.0,0.0,0.0,0,0,0,0
7859,0.0,0.0,0.0,0,0,0,0
7869,0.0,0.0,0.0,0,0,0,0
7879,0.0,0.0,0.0,0,0,0,0
7889,0.0,0.0,0.0,0,0,0,0
7899,0.0,0.0,0.0,0,0,0,0
7909,0.0,0.0,0.0,0,0,0,0
7919,0.0,0.0,0.0,0,0,0,0
7929,0.0,0.0,0.0,0,0,0,0
7939,0.0,0.0,0.0,0,0,0,0
7949,0.0,0.0,0.0,0,0,0,0
7959,0.0,0.0,0.0,0,0,0,0
7969,0.0,0.0,0.0,0,0,0,0
7979,0.0,0.0,0.0,0,0,0,0
7989,0.0,0.0,0.0,0,0,0,0
7999,0.0,0.0,0.0,0,0,0,0
8009,0.0,0.0,0.0,0,0,0,0
8019,0.0,0.0,0.0,0,0,0,0
8029,0.0,0.0,0.0,0,0,0,0
8039,0.0,0.0,0.0,0,0,0,0
8049,0.0,0.0,0.0,0,0,0,0
8059,0.0,0.0,0.0,0,0,0,0
8069,0.0,0.0,0.0,0,0,0,0
8079,0.0,0.0,0.0,0,0,0,0
8089,0.0,0.0,0.0,0,0,0,0
8099,0.0,0.0,0.0,0,0,0,0
8109,0.0,0.0,0.0,0,0,0,0
8119,0.0,0.0,0.0,0,0,0,0
8129,0.0,0.0,0.0,0,0,0,0
8139,0.0,0.0,0.0,0,0,0,0
8149,0.0,0.0,0.0,0,0,0,0
8159,0.0,0.0,0.0,0,0,0,0
8169,0.0,0.0,0.0,0,0,0,0
8179,0.0,0.0,0.0,0,0,0,0
8189,0.0,0.0,0.0,0,0,0,0
8199,0.0,0.0,0.0,0,0,0,0
8209,0.0,0.0,0.0,0,0,0,0
8219,0.0,0.0,0.0,0,0,0,0
8229,0.0,0.0,0.0,0,0,0,0
8239,0.0,0.0,0.0,0,0,0,0
8250,0.0,0.0,0.0,0,0,0,0
8260,0.0,0.0,0.0,0,0,0,0
8270,-0.0041022878140211105,-0.01266744639724493,-0.0008625424234196544,0,0,0,0
8280,-0.07695047557353973,-0.060281991958618164,-0.0019065843662247062,0,0,0,0
8290,0.11669817566871643,-0.0034260284155607224,-0.0025724531151354313,0,0,0,0
8300,0.11669817566871643,-0.0034260284155607224,-0.0025724531151354313,0,0,0,0
8310,0.004666340071707964,-0.05369330570101738,-0.0018813522765412927,0,0,0,0
8320,0.004666340071707964,-0.05369330570101738,-0.0018813522765412927,0,0,0,0
8330,-0.360028475522995,0.2865607440471649,-0.0010651479242369533,0,0,0,0
8340,0.062496501952409744,0.15021581947803497,-0.0032596932724118233,0,0,0,0
8350,0.1123042181134224,0.1070692390203476,-0.002940753474831581,0,0,0,0
8360,0.1123042181134224,0.1070692390203476,-0.002940753474831581,0,0,0,0
8370,0.5990903973579407,0.6368696689605713,-0.006073225289583206,0,0,0,0
8380,0.3059850037097931,0.35452550649642944,-0.003091550897806883,0,0,0,0
8390,0.38143929839134216,0.3401663601398468,-0.003532825503498316,0,0,0,0
8400,0.7945287227630615,-0.12029194831848145,-0.003401329042389989,0,0,0,0
8410,0.7945287227630615,-0.12029194831848145,-0.003401329042389989,0,0,0,0
8419,0.6122252941131592,0.06502023339271545,-0.0020675219129770994,0,0,0,0
8430,0.8119913339614868,-0.02617092803120613,-0.00026516258367337286,0,0,0,0
8440,0.8119913339614868,-0.02617092803120613,-0.00026516258367337286,0,0,0,0
8450,0.4380555748939514,0.11990999430418015,-5.4649288358632475e-05,0,0,0,0
8460,0.4380555748939514,0.11990999430418015,-5.4649288358632475e-05,0,0,0,0
8470,0.23888374865055084,0.18345262110233307,9.502380999037996e-05,0,0,0,0
8480,0.34495314955711365,0.19293972849845886,0.0008966250461526215,0,0,0,0
8490,0.2893976867198944,-0.06568922847509384,0.001372302183881402,0,0,0,0
8500,0.2893976867198944,-0.06568922847509384,0.001372302183881402,0,0,0,0
8510,0.227354496717453,0.09088766574859619,-0.0006559304893016815,0,0,0,0
8520,0.227354496717453,0.09088766574859619,-0.0006559304893016815,0,0,0,0
8530,-0.0778302401304245,0.10344558954238892,-0.0012551364488899708,0,0,0,0
8540,-0.012473370879888535,0.11830788850784302,-0.00031085265800356865,0,0,0,0
8550,0.23031404614448547,0.9453365206718445,-0.0006713427719660103,0,0,0,0
8560,0.23031404614448547,0.9453365206718445,-0.0006713427719660103,0,0,0,0
8570,0.707421600818634,1.0197789669036865,-0.0072516826912760735,0,0,0,0
8580,0.6878930330276489,0.9095014333724976,-0.00638227816671133,0,0,0,0
8590,0.3140093684196472,1.0821959972381592,-0.00037411891389638186,0,0,0,0
8600,0.3140093684196472,1.0821959972381592,-0.00037411891389638186,0,0,0,0
8611,0.38466396927833557,0.6725395917892456,-0.0006612286670133471,0,0,0,0
8620,0.38466396927833557,0.6725395917892456,-0.0006612286670133471,0,0,0,0
8630,0.3328316807746887,0.5193302631378174,-0.0004722042940557003,0,0,0,0
8640,0.20542976260185242,0.602023720741272,0.0016594567568972707,0,0,0,0
8651,0.2728439271450043,0.5398641228675842,0.0006508594960905612,0,0,0,0
8660,0.2728439271450043,0.5398641228675842,0.0006508594960905612,0,0,0,0
8671,0.12607626616954803,0.5145664811134338,0.0032044979743659496,0,0,0,0
8679,-0.013833125121891499,0.5928289294242859,0.006386199034750462,0,0,0,0
8689,-0.013280968181788921,0.5939693450927734,0.006865179631859064,0,0,0,0
8699,0.12267882376909256,0.4806459844112396,0.004569815006107092,0,0,0,0
8709,0.0126831429079175,0.48253268003463745,0.006334668956696987,0,0,0,0
8719,0.012209383770823479,0.48204100131988525,0.006549467798322439,0,0,0,0
8731,0.003640752751380205,0.3193953037261963,0.005824350751936436,0,0,0,0
8739,0.004163713660091162,0.3194734454154968,0.005060974508523941,0,0,0,0
8751,-0.08769997954368591,0.34681081771850586,0.0060128094628453255,0,0,0,0
8761,-0.08645888417959213,0.34718990325927734,0.0062828874215483665,0,0,0,0
8771,0.10081754624843597,0.33234620094299316,0.003108389675617218,0,0,0,0
8779,0.10079392045736313,0.3316459655761719,0.0026604279410094023,0,0,0,0
8791,0.07899699360132217,0.314913809299469,0.0043168580159544945,0,0,0,0
8799,0.08080805838108063,0.31504350900650024,0.004245406948029995,0,0,0,0
8811,0.08383551985025406,0.43561139702796936,0.0019916293676942587,0,0,0,0
8819,0.0856700912117958,0.43258151412010193,0.0012734225019812584,0,0,0,0
8829,-0.021521570160984993,0.25952214002609253,0.0029799912590533495,0,0,0,0
8839,-0.021293319761753082,0.25736644864082336,0.0033936072140932083,0,0,0,0
8851,-0.14673005044460297,0.25330156087875366,0.004576579667627811,0,0,0,0
8861,0.11545541882514954,0.3268905282020569,0.0036801930982619524,0,0,0,0
8869,-0.11183561384677887,0.23997436463832855,0.006063734646886587,0,0,0,0
8881,-0.11272028833627701,0.2375456988811493,0.005079455208033323,0,0,0,0
8891,-0.06685736775398254,0.2320081740617752,0.005995302926748991,0,0,0,0
8899,-0.06685736775398254,0.2320081740617752,0.005995302926748991,0,0,0,0
8911,-0.1243579313158989,0.5560562610626221,0.0035529378801584244,0,0,0,0
8919,0.4151918590068817,0.5282555818557739,-0.0012576342560350895,0,0,0,0
8931,0.4151688516139984,0.5276896357536316,-0.0017563882283866405,0,0,0,0
8939,0.43228408694267273,0.4994039237499237,-0.0015025661559775472,0,0,0,0
8951,0.37504252791404724,0.8440472483634949,-0.002483427757397294,0,0,0,0
8959,0.6990129947662354,0.6310216784477234,-0.005121549125760794,0,0,0,0
8971,0.622844398021698,0.5286004543304443,-0.0018706131959334016,0,0,0,0
8979,0.548965573310852,0.48469603061676025,-0.0008025025599636137,0,0,0,0
8991,0.5484552979469299,0.5126649141311646,0.00048010252066887915,0,0,0,0
9001,0.49536776542663574,0.5690534710884094,-0.0005931840278208256,0,0,0,0
9011,0.3703593611717224,0.4316492974758148,0.0009688197169452906,0,0,0,0
9021,0.31612271070480347,0.4782131612300873,0.0018393885111436248,0,0,0,0
9031,0.19401416182518005,0.4579348564147949,0.003911070059984922,0,0,0,0
9041,0.28978174924850464,0.4670666754245758,0.0032248427160084248,0,0,0,0
9049,0.17285817861557007,0.43566086888313293,0.004885152447968721,0,0,0,0
9061,0.1713773012161255,0.43651682138442993,0.0047099171206355095,0,0,0,0
9071,0.08936760574579239,0.41884106397628784,0.005067282356321812,0,0,0,0
9081,-0.05129636824131012,0.46376582980155945,0.006771605461835861,0,0,0,0
9091,0.09994538128376007,0.337234765291214,0.00399382971227169,0,0,0,0
9101,0.09994538128376007,0.337234765291214,0.00399382971227169,0,0,0,0
9111,0.07010141015052795,0.3677484393119812,0.004538742825388908,0,0,0,0
9121,-0.07518615573644638,0.3568759560585022,0.006601432338356972,0,0,0,0
9131,-0.10573522746562958,0.46709781885147095,0.0068140095099806786,0,0,0,0
9141,-0.05554617568850517,0.2956584393978119,0.007251446135342121,0,0,0,0
9151,-0.1270333081483841,0.2901710569858551,0.00827194657176733,0,0,0,0
9161,-0.14278119802474976,0.29704713821411133,0.007919340394437313,0,0,0,0
9171,-0.08267653733491898,0.30376631021499634,0.007662087678909302,0,0,0,0
9181,-0.16759373247623444,0.28128039836883545,0.008235882967710495,0,0,0,0
9191,-0.15451928973197937,0.276696115732193,0.008110322058200836,0,0,0,0
9201,-0.1094965785741806,0.3889531195163727,0.00649414723739028,0,0,0,0
9211,-0.1094965785741806,0.3889531195163727,0.00649414723739028,0,0,0,0
9221,-0.22784200310707092,0.3111686110496521,0.007954447530210018,0,0,0,0
9231,-0.15289272367954254,0.23269818723201752,0.008820521645247936,0,0,0,0
9241,-0.2051500678062439,0.1945144683122635,0.01058697234839201,0,0,0,0
9251,-0.2743125855922699,0.18296296894550323,0.011579367332160473,0,0,0,0
9261,-0.31925511360168457,0.29495519399642944,0.009992469102144241,0,0,0,0
9272,-0.293523371219635,0.2473989576101303,0.012288384139537811,0,0,0,0
9279,-0.293523371219635,0.2473989576101303,0.012288384139537811,0,0,0,0
9290,-0.1978643536567688,0.1809169352054596,0.014320289716124535,0,0,0,0
9299,-0.2436845749616623,0.18342147767543793,0.014149224385619164,0,0,0,0
9312,-0.3201697766780853,0.2356903851032257,0.013452849350869656,0,0,0,0
9319,-0.3201697766780853,0.2356903851032257,0.013452849350869656,0,0,0,0
9332,-0.32056882977485657,0.2935850918292999,0.01295249629765749,0,0,0,0
9339,-0.3339645266532898,0.28924769163131714,0.012996280565857887,0,0,0,0
9352,-0.21735207736492157,0.2353181689977646,0.015542489476501942,0,0,0,0
9359,-0.21735207736492157,0.2353181689977646,0.015542489476501942,0,0,0,0
9372,-0.27979931235313416,0.17057041823863983,0.019134556874632835,0,0,0,0
9379,-0.27979931235313416,0.17057041823863983,0.019134556874632835,0,0,0,0
9392,-0.2802281379699707,0.23057298362255096,0.01715276576578617,0,0,0,0
9399,-0.2802281379699707,0.23057298362255096,0.01715276576578617,0,0,0,0
9409,-0.2801457941532135,0.23098689317703247,0.01687116175889969,0,0,0,0
9422,-0.2841128706932068,0.21494713425636292,0.016215166077017784,0,0,0,0
9429,-0.3006669282913208,0.24169783294200897,0.015421212650835514,0,0,0,0
9442,-0.5572637319564819,0.20213675498962402,0.013548730872571468,0,0,0,0
9449,-0.2735052704811096,0.20403903722763062,0.015357823111116886,0,0,0,0
9459,-0.27720266580581665,0.15479186177253723,0.01557342242449522,0,0,0,0
9469,-0.33156684041023254,0.21070341765880585,0.012636044062674046,0,0,0,0
9479,-0.40423038601875305,0.26026931405067444,0.010723070241510868,0,0,0,0
9489,-0.2962853014469147,0.25618720054626465,0.011654512956738472,0,0,0,0
9499,-0.3075195252895355,0.23075079917907715,0.013153711333870888,0,0,0,0
9509,-0.30850085616111755,0.21924398839473724,0.01391715370118618,0,0,0,0
9519,-0.3343350887298584,0.2682357132434845,0.012479192577302456,0,0,0,0
9529,-0.3806779980659485,0.31340429186820984,0.010496656410396099,0,0,0,0
9542,-0.29050034284591675,0.22402474284172058,0.013089533895254135,0,0,0,0
9549,-0.26688793301582336,0.2013775259256363,0.013269811868667603,0,0,0,0
9559,-0.316457062959671,0.20418497920036316,0.013734826818108559,0,0,0,0
9569,-0.31579673290252686,0.2701704800128937,0.013708132319152355,0,0,0,0
9579,-0.29064711928367615,0.2553771138191223,0.013729174621403217,0,0,0,0
9589,-0.2914104759693146,0.20929013192653656,0.014327416196465492,0,0,0,0
9599,-0.3127110004425049,0.20943008363246918,0.015245923772454262,0,0,0,0
9609,-0.2236558198928833,0.3425651788711548,0.011016224510967731,0,0,0,0
9619,-0.23083972930908203,0.17701318860054016,0.016667746007442474,0,0,0,0
9629,-0.23627835512161255,0.13554903864860535,0.017832443118095398,0,0,0,0
9639,-0.23683039844036102,0.13622361421585083,0.018118590116500854,0,0,0,0
9649,-0.22923922538757324,0.16490678489208221,0.018089931458234787,0,0,0,0
9659,-0.19860990345478058,0.2900269627571106,0.016013339161872864,0,0,0,0
9669,-0.25117143988609314,0.24113725125789642,0.018265245482325554,0,0,0,0
9679,-0.2526070475578308,0.23959729075431824,0.017568543553352356,0,0,0,0
9689,-0.30532047152519226,0.19264768064022064,0.018439244478940964,0,0,0,0
9699,-0.20564132928848267,0.1347421109676361,0.02065330743789673,0,0,0,0
9709,-0.21205149590969086,0.16676247119903564,0.02004670538008213,0,0,0,0
9719,-0.266194611787796,0.24548324942588806,0.01821640506386757,0,0,0,0
9729,-0.26734766364097595,0.16579695045948029,0.021226489916443825,0,0,0,0
9739,-0.3292197287082672,0.3830612003803253,0.01650759018957615,0,0,0,0
9749,-0.21218755841255188,0.2618703246116638,0.020491041243076324,0,0,0,0
9759,-0.27830034494400024,0.3200918734073639,0.019130852073431015,0,0,0,0
9769,-0.21104124188423157,0.21474814414978027,0.020768865942955017,0,0,0,0
9779,-0.2290978729724884,0.2507510483264923,0.02042659930884838,0,0,0,0
9789,-0.2662401497364044,0.4046016335487366,0.017690295353531837,0,0,0,0
9799,-0.1997188925743103,0.44935348629951477,0.016814500093460083,0,0,0,0
9809,-0.39199918508529663,0.4236178994178772,0.017697246745228767,0,0,0,0
9819,-0.32762497663497925,0.419323205947876,0.018533380702137947,0,0,0,0
9829,-0.09515582025051117,0.3068026006221771,0.021180007606744766,0,0,0,0
9839,-0.0630568265914917,0.24466077983379364,0.023618729785084724,0,0,0,0
9849,-0.12567263841629028,0.24205856025218964,0.023859182372689247,0,0,0,0
9859,-0.12551921606063843,0.24022908508777618,0.02492547407746315,0,0,0,0
9869,-0.1845502108335495,0.2624352276325226,0.024006934836506844,0,0,0,0
9879,-0.19287645816802979,0.309122771024704,0.023989394307136536,0,0,0,0
9889,-0.2025219202041626,0.32698044180870056,0.02398015558719635,0,0,0,0
9899,-0.2099635899066925,0.28462639451026917,0.02531028538942337,0,0,0,0
9909,-0.2118886262178421,0.284991592168808,0.02560974471271038,0,0,0,0
9919,-0.21687759459018707,0.34190642833709717,0.02635374292731285,0,0,0,0
9929,-0.18731689453125,0.3186589479446411,0.025616472586989403,0,0,0,0
9939,-0.2318171113729477,0.23977404832839966,0.02725883573293686,0,0,0,0
9949,-0.23680056631565094,0.2506563365459442,0.026698658242821693,0,0,0,0
9959,-0.242439866065979,0.3096005618572235,0.025625087320804596,0,0,0,0
9969,-0.2418166697025299,0.30858084559440613,0.02510851062834263,0,0,0,0
9979,-0.2092253863811493,0.22732436656951904,0.026271866634488106,0,0,0,0
9989,-0.22902777791023254,0.22669681906700134,0.025501646101474762,0,0,0,0
9999,-0.2581039071083069,0.26466238498687744,0.024328818544745445,0,0,0,0
10009,-0.19993682205677032,0.26255664229393005,0.025484584271907806,0,0,0,0
10019,-0.1694066971540451,0.1865321695804596,0.02699306234717369,0,0,0,0
10029,-0.2262398898601532,0.21420490741729736,0.02789180912077427,0,0,0,0
10039,-0.2786872088909149,0.2371220886707306,0.027486266568303108,0,0,0,0
10049,-0.6072425246238708,0.13940107822418213,0.027794325724244118,0,0,0,0
10059,-0.6474314332008362,0.09653079509735107,0.02703343890607357,0,0,0,0
10069,-0.4478343427181244,0.09257759898900986,0.028650755062699318,0,0,0,0
10079,-0.3662651777267456,0.0535888709127903,0.02907152846455574,0,0,0,0
10089,-0.41960516571998596,0.09140179306268692,0.02858993224799633,0,0,0,0
10099,-0.4827868342399597,0.275383859872818,0.024480115622282028,0,0,0,0
10109,-0.38835829496383667,0.04245615378022194,0.028835013508796692,0,0,0,0
10119,-0.38103121519088745,0.031224165111780167,0.02957952953875065,0,0,0,0
10129,-0.3769063353538513,0.055485907942056656,0.029936404898762703,0,0,0,0
10139,-0.6063842177391052,0.315107136964798,0.025367112830281258,0,0,0,0
10149,-0.5300217866897583,0.2540946304798126,0.025839906185865402,0,0,0,0
10159,-0.33987581729888916,0.08042561262845993,0.02997543103992939,0,0,0,0
10169,-0.3414485454559326,0.08023600280284882,0.029717810451984406,0,0,0,0
10179,-0.3373910188674927,0.032501399517059326,0.03036188706755638,0,0,0,0
10189,-0.3885446786880493,0.13955844938755035,0.027193358168005943,0,0,0,0
10199,-0.31880366802215576,0.1116543710231781,0.028354978188872337,0,0,0,0
10209,-0.3184422552585602,0.11006808280944824,0.028947830200195312,0,0,0,0
10219,-0.3272765874862671,0.09577442705631256,0.028948837891221046,0,0,0,0
10229,-0.26394325494766235,0.1296612024307251,0.028901563957333565,0,0,0,0
10239,-0.3129793405532837,0.11447274684906006,0.028988158330321312,0,0,0,0
10249,-0.3434409201145172,0.13437627255916595,0.029075637459754944,0,0,0,0
10259,-0.3363664448261261,0.15624383091926575,0.029385870322585106,0,0,0,0
10269,-0.32220807671546936,0.14247725903987885,0.030086200684309006,0,0,0,0
10279,-0.32823097705841064,0.183916836977005,0.029066989198327065,0,0,0,0
10289,-0.30344128608703613,0.15586882829666138,0.029484791681170464,0,0,0,0
10299,-0.3028601109981537,0.1565665304660797,0.029809188097715378,0,0,0,0
10309,-0.28684449195861816,0.1793552041053772,0.02981763333082199,0,0,0,0
10319,-0.358384370803833,0.3652041554450989,0.027242181822657585,0,0,0,0
10329,-0.4078385829925537,0.3694577217102051,0.026559190824627876,0,0,0,0
10339,-0.17542417347431183,0.29071223735809326,0.02982158400118351,0,0,0,0
10349,-0.1705044060945511,0.24495884776115417,0.030833814293146133,0,0,0,0
10359,-0.11799439042806625,0.3363737463951111,0.030482355505228043,0,0,0,0
10369,-0.13691386580467224,0.2984635531902313,0.03014693595468998,0,0,0,0
10379,-0.20194824039936066,0.2393953949213028,0.031479064375162125,0,0,0,0
10389,-0.15298956632614136,0.2848477065563202,0.030023565515875816,0,0,0,0
10399,-0.25014835596084595,0.2835119366645813,0.029107490554451942,0,0,0,0
10409,-0.21800895035266876,0.3129391372203827,0.02822105586528778,0,0,0,0
10419,-0.2192288488149643,0.23015132546424866,0.028212448582053185,0,0,0,0
10429,-0.2010893076658249,0.22149977087974548,0.027082430198788643,0,0,0,0
10439,-0.21525447070598602,0.24757790565490723,0.026956090703606606,0,0,0,0
10449,-0.23018878698349,0.325603187084198,0.027502669021487236,0,0,0,0
10459,-0.26584336161613464,0.2803056240081787,0.02695678174495697,0,0,0,0
10469,-0.22195681929588318,0.2802744209766388,0.028093717992305756,0,0,0,0
10479,-0.2239697277545929,0.22299756109714508,0.028040193021297455,0,0,0,0
10489,-0.1929313987493515,0.2802255153656006,0.027809495106339455,0,0,0,0
10499,-0.18569640815258026,0.3247682750225067,0.027554690837860107,0,0,0,0
10509,-0.19054318964481354,0.27596762776374817,0.028369808569550514,0,0,0,0
10519,-0.19427484273910522,0.24019581079483032,0.028288748115301132,0,0,0,0
10529,-0.25303056836128235,0.21994656324386597,0.02847530134022236,0,0,0,0
10539,-0.24262242019176483,0.22264963388442993,0.030464407056570053,0,0,0,0
10549,-0.19991880655288696,0.2819419503211975,0.02948581799864769,0,0,0,0
10559,-0.22564899921417236,0.22443285584449768,0.03003007173538208,0,0,0,0
10569,-0.23925110697746277,0.22658129036426544,0.029741836711764336,0,0,0,0
10579,-0.19837486743927002,0.30679136514663696,0.029872354120016098,0,0,0,0
10589,-0.2710975706577301,0.24944756925106049,0.029896579682826996,0,0,0,0
10599,-0.21547318994998932,0.2635332942008972,0.029206767678260803,0,0,0,0
10609,-0.2642710208892822,0.23059608042240143,0.030645446851849556,0,0,0,0
10619,-0.2642229199409485,0.2776232063770294,0.031059879809617996,0,0,0,0
10629,-0.24256564676761627,0.41383475065231323,0.03193763270974159,0,0,0,0
10639,-0.3550865650177002,0.16979356110095978,0.033426012843847275,0,0,0,0
10649,-0.34886258840560913,0.19752013683319092,0.03498910740017891,0,0,0,0
10660,-0.4550103545188904,0.20291219651699066,0.03517772629857063,0,0,0,0
10670,-0.43200942873954773,0.24086247384548187,0.0358564555644989,0,0,0,0
10680,-0.3851451575756073,0.19822710752487183,0.036456115543842316,0,0,0,0
10690,-0.38646385073661804,0.19816799461841583,0.036413855850696564,0,0,0,0
10699,-0.38607919216156006,0.19694310426712036,0.03712055832147598,0,0,0,0
10709,-0.3142034709453583,0.37331444025039673,0.03538702800869942,0,0,0,0
10719,-0.30898329615592957,0.19246622920036316,0.03631461784243584,0,0,0,0
10729,-0.35140731930732727,0.1974288523197174,0.03527733311057091,0,0,0,0
10739,-0.3511265218257904,0.19697339832782745,0.034590739756822586,0,0,0,0
10749,-0.34437984228134155,0.17783811688423157,0.03429660201072693,0,0,0,0
10759,-0.22057892382144928,0.28513303399086,0.03423651307821274,0,0,0,0
10769,-0.34106168150901794,0.1879979968070984,0.03472612425684929,0,0,0,0
10779,-0.34243911504745483,0.18820545077323914,0.03509078547358513,0,0,0,0
10789,-0.3353813588619232,0.20960256457328796,0.035972949117422104,0,0,0,0
10799,-0.3332882821559906,0.21019169688224792,0.03623735159635544,0,0,0,0
10809,-0.29897499084472656,0.17826856672763824,0.034617770463228226,0,0,0,0
10819,-0.28103774785995483,0.226949080824852,0.03360370919108391,0,0,0,0
10829,-0.2661448121070862,0.21910615265369415,0.03361259773373604,0,0,0,0
10839,-0.3245677947998047,0.31102457642555237,0.03297312185168266,0,0,0,0
10849,-0.318025141954422,0.29852744936943054,0.033350083976984024,0,0,0,0
10859,-0.26227492094039917,0.23802044987678528,0.033674079924821854,0,0,0,0
10869,-0.29575827717781067,0.24206240475177765,0.0341014601290226,0,0,0,0
10879,-0.28866297006607056,0.2349178045988083,0.03408728912472725,0,0,0,0
10889,-0.27599313855171204,0.3180280327796936,0.03544842451810837,0,0,0,0
10899,-0.2724260091781616,0.25716936588287354,0.03665979951620102,0,0,0,0
10909,-0.2733836770057678,0.25809070467948914,0.03722326084971428,0,0,0,0
10919,-0.24374939501285553,0.21299214661121368,0.037168920040130615,0,0,0,0
10929,-0.2533620595932007,0.30944234132766724,0.0368451364338398,0,0,0,0
10939,-0.27559053897857666,0.43591034412384033,0.035636935383081436,0,0,0,0
10949,-0.19096389412879944,0.3727738559246063,0.03608332946896553,0,0,0,0
10959,-0.22841088473796844,0.40291959047317505,0.036378245800733566,0,0,0,0
10969,-0.2269706428050995,0.3183957040309906,0.03638958930969238,0,0,0,0
10979,-0.3292812705039978,0.3161710202693939,0.037740305066108704,0,0,0,0
10989,-0.23534978926181793,0.2055968940258026,0.036724917590618134,0,0,0,0
10999,-0.3340454697608948,0.3139515817165375,0.03882397338747978,0,0,0,0
11009,-0.24755239486694336,0.21104906499385834,0.036594126373529434,0,0,0,0
11019,-0.32218268513679504,0.2826857566833496,0.03722080588340759,0,0,0,0
11029,-0.22613465785980225,0.2834169268608093,0.037552397698163986,0,0,0,0
11039,-0.24681997299194336,0.2829432785511017,0.03806000575423241,0,0,0,0
11049,-0.22253194451332092,0.21755580604076385,0.03894003853201866,0,0,0,0
11059,-0.20974548161029816,0.22164078056812286,0.03873252496123314,0,0,0,0
11069,-0.29672926664352417,0.32224607467651367,0.040407054126262665,0,0,0,0
11079,-0.26873043179512024,0.2750159502029419,0.040440283715724945,0,0,0,0
11089,-0.19719840586185455,0.22150489687919617,0.03899852931499481,0,0,0,0
11099,-0.1976214200258255,0.2207629531621933,0.038961559534072876,0,0,0,0
11109,-0.25663965940475464,0.32103580236434937,0.03974157199263573,9362,9362,9362,9362
11119,-0.2543792128562927,0.25002408027648926,0.039684150367975235,9362,9362,9362,9362
11129,-0.2636409103870392,0.26382696628570557,0.04011179506778717,9362,9362,9362,9362
11139,-0.18920324742794037,0.2436838001012802,0.0391770675778389,9362,9362,9362,9362
11149,-0.22373554110527039,0.3392679989337921,0.040237803012132645,9362,9362,9362,9362
11159,-0.30288487672805786,0.3247406482696533,0.042617231607437134,9362,9362,9362,9362
11169,-0.2955459654331207,0.22814151644706726,0.04072596877813339,9362,9362,9362,9362
11179,-0.18173915147781372,0.26570749282836914,0.04043038561940193,9362,9362,9362,9362
11189,-0.27432605624198914,0.2918018698692322,0.041628867387771606,9362,9362,9362,9362
11199,-0.0501924604177475,0.3500957190990448,0.04100373759865761,9362,9362,9362,9362
11209,-0.12566249072551727,0.11407879739999771,0.040903910994529724,9362,9362,9362,9362
11219,-0.18625852465629578,0.13268205523490906,0.04148949682712555,9362,9362,9362,9362
11229,-0.11697088927030563,0.12950628995895386,0.04166838899254799,9362,9362,9362,9362
11239,-0.18823865056037903,0.13852934539318085,0.041797440499067307,9362,9362,9362,9362
11249,-0.18570241332054138,0.19053518772125244,0.04366684332489967,9362,9362,9362,9362
11259,-0.12587013840675354,0.20543605089187622,0.042880453169345856,9362,9362,9362,9362
11269,-0.1822272688150406,0.2531709671020508,0.043156642466783524,9362,9362,9362,9362
11279,-0.14764320850372314,0.14791339635849,0.04118160158395767,9362,9362,9362,9362
11289,-0.19137723743915558,0.20546342432498932,0.04257463291287422,9362,9362,9362,9362
11299,-0.14453822374343872,0.17246761918067932,0.04120326787233353,9362,9362,9362,9362
11309,-0.17850612103939056,0.15354327857494354,0.04347759112715721,9362,9362,9362,9362
11319,-0.13117603957653046,0.19230753183364868,0.040140289813280106,9362,9362,9362,9362
11329,-0.17543576657772064,0.16403628885746002,0.04545086249709129,9362,9362,9362,9362
11339,-0.30196741223335266,0.1684083640575409,0.041543588042259216,9362,9362,9362,9362
11349,-0.27051711082458496,-0.05712883919477463,0.037120286375284195,9362,9362,9362,9362
11359,-0.2853117287158966,-0.025708405300974846,0.04948385804891586,9362,9362,9362,9362
11369,-0.28628990054130554,-0.029897160828113556,0.03670913726091385,9362,9362,9362,9362
11379,-0.22941192984580994,0.04313685745000839,0.038293734192848206,9362,9362,9362,9362
11389,-0.22398774325847626,0.0023431195877492428,0.056303881108760834,9362,9362,9362,9362
11399,-0.22073423862457275,0.04195830598473549,0.041272468864917755,9362,9362,9362,9362
11409,-0.2534758448600769,0.02940616011619568,0.034432731568813324,9362,9362,9362,9362
11419,-0.14981669187545776,0.19655440747737885,0.05162462592124939,9362,9362,9362,9362
11429,-0.1848728060722351,0.14708274602890015,0.058376215398311615,9362,9362,9362,9362
11439,-0.23313021659851074,0.1024581640958786,0.04208333045244217,9362,9362,9362,9362
11449,-0.23007144033908844,0.09949488192796707,0.03240000456571579,9362,9362,9362,9362
11459,-0.2757183611392975,0.1408500373363495,0.0376431904733181,9362,9362,9362,9362
11469,-0.3210105895996094,0.32532182335853577,0.04586689919233322,9362,9362,9362,9362
11479,-0.26372861862182617,0.14390960335731506,0.046951938420534134,9362,9362,9362,9362
11489,-0.26345717906951904,0.1856023222208023,0.042552098631858826,9362,9362,9362,9362
11499,-0.24124613404273987,0.11910635232925415,0.03787245973944664,9362,9362,9362,9362
11509,-0.12803418934345245,0.151959627866745,0.034377142786979675,9362,9362,9362,9362
11519,-0.23482076823711395,0.14124658703804016,0.03226082772016525,9362,9362,9362,9362
11529,-0.21471500396728516,0.17117881774902344,0.030993472784757614,9362,9362,9362,9362
11539,-0.17649492621421814,0.13801999390125275,0.02923823706805706,9362,9362,9362,9362
11549,-0.24331986904144287,0.1796369105577469,0.03067234717309475,9362,9362,9362,9362
11559,-0.2132224589586258,0.17782442271709442,0.030022570863366127,9362,9362,9362,9362
11569,-0.18505321443080902,0.17718960344791412,0.03106319159269333,9362,9362,9362,9362
11579,-0.15624020993709564,0.0773979127407074,0.029635274782776833,9362,9362,9362,9362
11589,-0.21530281007289886,0.10389642417430878,0.027765575796365738,9362,9362,9362,9362
11599,-0.04911153018474579,0.3617304861545563,0.0295085571706295,9362,9362,9362,9362
11609,-0.09420464187860489,0.19475828111171722,0.02562924474477768,9362,9362,9362,9362
11619,-0.059068888425827026,0.12868012487888336,0.022532932460308075,62990,60586,60453,64663
11629,-0.06212306767702103,0.12827321887016296,0.02306557446718216,62590,60990,61689,64030
11639,-0.06369434297084808,0.08376371115446091,0.02738986164331436,63503,60394,62028,63934
11649,-0.05748589709401131,0.0794525146484375,0.05881193280220032,63212,61845,61452,62581
11659,-0.08904670923948288,0.11337640136480331,0.09895359724760056,63201,60164,62127,63024
11669,-0.06342155486345291,0.13389134407043457,0.1695919632911682,63683,60012,61167,62586
11679,-0.06926699727773666,0.20873692631721497,0.26553472876548767,61951,57844,63125,62725
11689,0.07979513704776764,0.3126368522644043,0.3776128590106964,63448,58574,58968,63244
11699,-0.014662274159491062,0.45799317955970764,0.4645339548587799,58987,63206,63625,55391
11709,-0.0050627500750124454,0.7484119534492493,0.6067332029342651,61457,57634,63372,61463
11719,-0.1712586134672165,0.8958541750907898,0.8271962404251099,62651,56883,62174,61967
11729,-0.24691690504550934,0.800934910774231,1.0955919027328491,62540,56126,61680,63244
11739,-0.5270942449569702,0.7153747081756592,1.3475077152252197,61304,58871,62799,61913
11749,-0.38293740153312683,0.6525589823722839,1.576315999031067,62431,61075,61635,56591
11759,-0.276251882314682,0.8063660860061646,1.8959484100341797,63331,61873,62150,49838
11769,0.057622622698545456,1.0470161437988281,2.3250644207000732,63593,62653,60150,50483
11779,0.6364737153053284,1.363917350769043,2.715804100036621,62850,58921,62671,57065
11789,0.9719712734222412,1.553512454032898,3.1101982593536377,61445,54213,64304,59899
11800,0.8946981430053711,1.8249245882034302,3.4968559741973877,59589,54468,64442,59619
11809,0.5276626944541931,2.096208333969116,3.899446964263916,55432,54566,64857,59221
11819,0.09189502149820328,2.3924343585968018,4.303128719329834,53361,57452,64944,57822
11829,-0.6039369106292725,2.9221832752227783,4.7531232833862305,55152,56510,64909,58745
11839,-1.3769534826278687,3.500600814819336,5.214172840118408,54498,57623,64961,56138
11849,-2.10561466217041,4.065061092376709,5.692546367645264,54994,59053,64660,53993
11859,-2.6632802486419678,4.875854015350342,6.204446315765381,57356,57924,64468,53676
11869,-3.252017021179199,5.465692043304443,6.729908466339111,56089,57031,63438,56264
11879,-3.50264835357666,5.820871829986572,7.210338115692139,58041,58059,62915,54589
11889,-3.7672507762908936,6.013260364532471,7.712972640991211,60053,54465,61158,55712
11899,-3.9785196781158447,5.871392726898193,8.233749389648438,61473,51516,58641,54467
11909,-4.15051794052124,5.575082302093506,8.758581161499023,60819,52242,58755,50719
11919,-4.059833526611328,5.3738932609558105,9.175480842590332,58841,54542,59540,53041
11929,-4.0777363777160645,5.019202709197998,9.583256721496582,56586,54904,60810,53379
11939,-4.079255104064941,4.756607532501221,9.93897533416748,57380,54384,61241,55588
11949,-4.352048397064209,4.739871978759766,10.362128257751465,56830,50129,62167,54294
11959,-4.370339393615723,4.2231855392456055,10.722138404846191,58324,50226,60510,51222
11969,-4.416569232940674,3.7631032466888428,11.0842866897583,57564,53707,58173,49080
11979,-4.487009048461914,3.223325729370117,11.443841934204102,56274,53595,55889,52754
11989,-4.6012701988220215,2.563354969024658,11.853792190551758,55195,51279,56308,49114
11999,-4.416631698608398,1.9552721977233887,12.141860961914062,58491,48406,53627,52038
12009,-4.109016418457031,1.3065545558929443,12.38510513305664,57070,47510,54660,51204
12019,-3.8035528659820557,0.7126381397247314,12.629157066345215,56229,47818,53882,47762
12029,-3.613435745239258,0.25538501143455505,12.87496280670166,50832,48656,54878,47692
12039,-3.430293560028076,-0.11829909682273865,13.094361305236816,47783,47799,55102,48182
12049,-3.270189046859741,-0.5320010185241699,13.349023818969727,52231,46786,50039,48469
12059,-3.060178756713867,-0.9156249165534973,13.580743789672852,53977,44460,49815,48296
12069,-2.8064534664154053,-1.2456110715866089,13.819774627685547,54803,44323,50806,45292
12079,-2.521049737930298,-1.3633917570114136,14.002889633178711,52953,49581,52640,42475
12089,-2.2219884395599365,-1.52171790599823,14.225543022155762,50226,48858,55837,42129
12099,-2.0196805000305176,-1.5899416208267212,14.4686279296875,46924,47685,55426,43410
12109,-1.9634538888931274,-1.8408148288726807,14.755335807800293,49536,43148,51976,45268
12119,-1.696650743484497,-1.8720576763153076,14.947978973388672,51638,41839,48777,45290
12129,-1.4590442180633545,-1.950589656829834,15.156781196594238,51973,43910,49450,42734
12139,-1.2150253057479858,-1.9665353298187256,15.376120567321777,49602,47994,47636,43606
12149,-0.9038086533546448,-2.0321943759918213,15.562383651733398,47860,49499,50557,43550
12159,-0.5082126259803772,-2.08258056640625,15.780210494995117,51550,41599,53201,45041
12169,-0.39394181966781616,-2.0383341312408447,16.044282913208008,51845,40643,52260,42058
12179,-0.25850749015808105,-1.9850319623947144,16.26905632019043,47118,43089,52837,39044
12189,-0.18040916323661804,-1.944817066192627,16.457050323486328,45841,44222,50181,39858
12199,-0.062014658004045486,-1.9228847026824951,16.579753875732422,41301,47807,48896,39451
12209,0.020777523517608643,-1.9030728340148926,16.75550079345703,49664,41794,45885,42965
12219,0.13387440145015717,-1.9354814291000366,16.89633560180664,50578,43143,43355,43373
12229,0.2775281071662903,-1.9514942169189453,17.047502517700195,53692,39449,50330,42332
12239,0.28975972533226013,-2.0894434452056885,17.256017684936523,51210,43491,52738,38331
12249,0.3654026985168457,-2.0885603427886963,17.248666763305664,44706,45570,51063,41607
12259,0.4956221878528595,-2.1904633045196533,17.49193000793457,40742,44233,48438,42184
12269,0.5146868228912354,-2.190566301345825,17.495119094848633,44436,40155,45074,44262
12279,0.6711294054985046,-2.2760748863220215,17.719743728637695,52344,35074,49316,43538
12289,0.6229283213615417,-2.279527425765991,17.71137237548828,52052,41040,55149,39109
12299,0.6310666799545288,-2.33327579498291,17.880258560180664,48061,47781,51826,40393
12309,0.6808546781539917,-2.379718780517578,17.99376106262207,44220,46124,46889,43877
12319,0.7239415049552917,-2.3935329914093018,18.04513168334961,44604,40436,44526,43660
12329,0.7663373351097107,-2.4176113605499268,18.11517906188965,47882,38639,46700,42261
12339,0.770638644695282,-2.470306396484375,18.160001754760742,50669,40871,48769,40381
12349,0.718901515007019,-2.4615182876586914,18.250932693481445,47158,43597,53702,39981
12359,0.7631927132606506,-2.520155906677246,18.364501953125,46578,45210,51115,41092
12369,0.7800308465957642,-2.544187307357788,18.465213775634766,45627,41984,45593,45134
12379,0.8001611232757568,-2.529496192932129,18.495519638061523,49332,43046,43133,45398
12389,0.8339524865150452,-2.55985689163208,18.523286819458008,51848,41765,47438,43213
12399,0.9666093587875366,-2.586808919906616,18.581388473510742,51967,46294,50797,40457
12409,1.1469870805740356,-2.555131673812866,18.66826820373535,47826,47347,55046,37108
12419,1.3003671169281006,-2.4387521743774414,18.712129592895508,45391,46112,53215,43774
12429,1.4912124872207642,-2.2881388664245605,18.779712677001953,43871,42839,46808,43212
12439,1.6863397359848022,-2.099454641342163,18.83396339416504,54398,40893,50446,46599
12449,1.9095544815063477,-2.0139412879943848,18.844242095947266,55461,44603,50299,43565
12459,2.07319974899292,-1.919846773147583,18.868547439575195,51862,47447,53183,44053
12469,2.339204788208008,-1.8420778512954712,18.90814781188965,43756,52750,46670,43006
12479,2.5922279357910156,-1.6823734045028687,18.908008575439453,43007,42770,49576,43922
12489,2.840759515762329,-1.482121467590332,18.89389419555664,50802,40989,51373,42761
12499,2.948003053665161,-1.3121544122695923,18.923799514770508,54296,39830,53743,46434
12509,3.0402066707611084,-1.1716283559799194,19.01175308227539,47537,49859,57986,42579
12519,3.078420400619507,-1.0137381553649902,19.076669692993164,44790,50489,52544,45082
12529,3.118896007537842,-0.8118590116500854,19.067420959472656,46405,47938,49729,44653
12539,3.164095878601074,-0.629382312297821,19.03079605102539,50979,44160,49799,45703
12549,3.219292640686035,-0.47622841596603394,19.029266357421875,58000,40464,49747,46174
12559,3.292649030685425,-0.3546009361743927,19.074316024780273,51853,46734,58309,43403
12569,3.273664712905884,-0.29156383872032166,19.109352111816406,50770,49708,54943,44015
12579,3.2800111770629883,-0.1694289892911911,19.108299255371094,47190,48517,50661,46827
12589,3.3526809215545654,-0.07970480620861053,19.096546173095703,45965,47147,47346,51957
12599,3.3511898517608643,0.0407496839761734,19.066797256469727,54807,43843,53402,49763
12609,3.3389647006988525,0.1314259022474289,19.05147933959961,56599,46479,57235,46548
12619,3.350034475326538,0.2529657483100891,19.074670791625977,54463,49350,58648,42003
12629,3.3670763969421387,0.37222710251808167,19.12526512145996,47312,50650,54288,46493
12639,3.3996222019195557,0.48791801929473877,19.156221389770508,44370,46479,45428,50321
12649,3.4237594604492188,0.5931787490844727,19.127286911010742,56723,42575,51793,48666
12659,3.4804887771606445,0.666194498538971,19.101890563964844,56400,46346,56821,46930
12669,3.4884417057037354,0.6544488668441772,19.165016174316406,55696,50834,58848,47322
12679,3.444681167602539,0.6681346893310547,19.218297958374023,48957,52190,57495,46379
12689,3.4393062591552734,0.7087386250495911,19.2515811920166,50905,48660,53873,51656
12699,3.3790833950042725,0.8101664185523987,19.239906311035156,55761,42064,52186,48745
12709,3.347289800643921,0.9030786752700806,19.26983642578125,58122,48793,54192,51877
12719,3.2743120193481445,0.8542109727859497,19.36607551574707,57360,53009,57747,46241
12729,3.258646249771118,0.8520323038101196,19.376174926757812,52793,52541,60715,44465
12739,3.266575336456299,0.8750512003898621,19.432729721069336,52847,53346,56366,46713
12749,3.2261688709259033,0.9492349624633789,19.454877853393555,49920,49868,56794,51413
12759,3.196161985397339,1.0420353412628174,19.469532012939453,58753,49659,53546,53123
12769,3.105700731277466,1.0706454515457153,19.483781814575195,58509,48659,58943,50777
12779,3.0364859104156494,1.033037543296814,19.57228660583496,57853,50038,58147,49102
12789,2.988945960998535,1.0027097463607788,19.650907516479492,51016,53818,55696,47116
12799,2.9679553508758545,0.995690643787384,19.712528228759766,49580,52312,54983,49892
12809,2.9228615760803223,1.0232144594192505,19.752830505371094,55865,48450,55779,49728
12819,2.9252827167510986,1.0993645191192627,19.799707412719727,59536,47043,59769,50035
12829,2.8901994228363037,1.1825206279754639,19.91864585876465,57116,52837,58881,49364
12839,2.854750394821167,1.1838856935501099,20.02402114868164,52115,53530,58994,49773
12849,2.8141486644744873,1.1697622537612915,20.078060150146484,52183,51485,55409,49023
12859,2.7361505031585693,1.1236293315887451,20.15268898010254,58391,48270,52326,52921
12869,2.6744866371154785,1.1725267171859741,20.21976089477539,59817,44352,56190,50942
12879,2.6961982250213623,1.098686933517456,20.32967758178711,57267,53534,59574,47346
12890,2.6689507961273193,0.933903157711029,20.470808029174805,54455,51364,58936,47855
12900,2.652266263961792,0.8528157472610474,20.540151596069336,50989,51080,59080,50175
12910,2.639930486679077,0.8021316528320312,20.630531311035156,53043,53596,52619,53890
12920,2.547602891921997,0.7731016874313354,20.7176513671875,58203,45331,57581,52899
12930,2.469046115875244,0.7219452857971191,20.726335525512695,59121,48720,58755,49580
12940,2.364982843399048,0.6106711626052856,20.88896369934082,55699,50770,59585,45517
12950,2.2343368530273438,0.4620833396911621,20.998811721801758,55568,49771,56517,49536
12960,2.2147698402404785,0.5732885599136353,21.11393928527832,48313,56429,52066,49541
12970,2.148064374923706,0.4955591857433319,21.173072814941406,58256,47773,55164,50989
12980,2.0980987548828125,0.46442466974258423,21.24773597717285,58387,50460,56788,50122
12990,2.056816339492798,0.35063695907592773,21.356698989868164,58927,50349,59779,47901
12999,2.022122383117676,0.22103391587734222,21.46408462524414,52538,53233,59893,46610
13009,1.9539620876312256,0.2263171374797821,21.576229095458984,49490,53142,51826,53938
13019,1.8338890075683594,0.10292162746191025,21.63857650756836,55834,46034,56270,50014
13029,1.699638843536377,0.008190793916583061,21.686004638671875,59151,49887,53302,51680
13039,1.5235514640808105,-0.13792629539966583,21.8203182220459,57838,52138,57813,47125
13049,1.3987979888916016,-0.28364863991737366,21.906597137451172,55949,52610,59962,45954
13059,1.297101378440857,-0.4060277044773102,21.98174476623535,52931,50980,58524,46191
13069,1.2039940357208252,-0.448612779378891,22.130950927734375,52491,46062,58787,51071
13079,1.1246415376663208,-0.5265752673149109,22.206676483154297,58141,48078,50966,52917
13089,1.0119316577911377,-0.6012105941772461,22.2383975982666,57725,47727,54863,52809
13099,0.9395214915275574,-0.6932541131973267,22.285633087158203,56156,50194,59281,44146
13109,0.8587850332260132,-0.831473171710968,22.34678077697754,55357,51689,54447,47818
13119,0.7440014481544495,-0.9735024571418762,22.476306915283203,50579,50368,57319,49808
13129,0.6667824387550354,-1.0865144729614258,22.489704132080078,54757,48584,54736,51565
13139,0.6784470081329346,-1.0457770824432373,22.569198608398438,59293,43882,56308,49775
13149,0.6627702713012695,-1.1049717664718628,22.63235092163086,54056,51332,59698,42550
13159,0.5440482497215271,-1.1859619617462158,22.72028923034668,53812,50523,55969,48081
13169,0.4694689214229584,-1.260911464691162,22.778718948364258,49634,52110,52903,49822
13179,0.4051332473754883,-1.2645094394683838,22.780136108398438,55017,49648,55197,48239
13189,0.2713218331336975,-1.3307334184646606,22.842723846435547,58361,47393,53579,49318
13199,0.1865047663450241,-1.4704978466033936,22.91390037536621,56736,51522,57962,45663
13209,0.10991218686103821,-1.4892202615737915,23.003507614135742,52416,51191,57921,44495
13219,0.00726469187065959,-1.5747913122177124,23.048192977905273,52971,47926,55691,46794
13229,-0.08036673069000244,-1.592948317527771,23.092632293701172,46842,52637,51112,49153
13239,-0.17309923470020294,-1.671470284461975,23.084959030151367,54519,42179,53004,51867
13249,-0.2664082944393158,-1.727077603340149,23.100826263427734,57517,50250,53647,45684
13259,-0.40470409393310547,-1.8420965671539307,23.20488739013672,56243,47705,55913,47746
13269,-0.4651290774345398,-1.9840904474258423,23.265865325927734,55732,49832,57458,43662
13279,-0.44066861271858215,-2.1048531532287598,23.315570831298828,50258,52014,52656,46697
13289,-0.44789326190948486,-2.1656551361083984,23.337446212768555,49423,46088,54149,49703
13299,-0.4506346583366394,-2.130887746810913,23.338659286499023,53528,48483,54642,46780
13309,-0.5299193263053894,-2.141866683959961,23.35032081604004,59006,41964,56112,48287
13319,-0.6785033345222473,-2.117403030395508,23.409704208374023,52256,47079,58894,45208
13329,-0.8135645389556885,-2.1808223724365234,23.470319747924805,49572,54384,51236,48146
13339,-0.9042218923568726,-2.2295219898223877,23.453655242919922,50233,45892,56158,47007
13349,-0.9825738072395325,-2.2947700023651123,23.459800720214844,57869,47228,45660,53166
13359,-1.0930231809616089,-2.263956069946289,23.43901252746582,57126,47302,53387,49193
13369,-1.1272673606872559,-2.3515119552612305,23.440092086791992,52966,49378,58654,45384
13379,-1.1695301532745361,-2.4346811771392822,23.492761611938477,50914,50730,56412,42863
13389,-1.2150375843048096,-2.4758968353271484,23.493675231933594,51639,46274,58006,48105
13399,-1.2835115194320679,-2.435891628265381,23.502334594726562,53967,49460,51288,49287
13409,-1.4033076763153076,-2.3670551776885986,23.505260467529297,55546,45718,55819,48944
13419,-1.454680323600769,-2.366372585296631,23.49154281616211,55558,50178,54408,44674
13429,-1.561667561531067,-2.360875129699707,23.52610969543457,55808,47679,54292,48653
13439,-1.5944064855575562,-2.312774658203125,23.515832901000977,47730,52452,55841,40110
13449,-1.57645845413208,-2.310950756072998,23.488725662231445,53401,49282,50155,52218
13459,-1.5005030632019043,-2.277581214904785,23.42955780029297,55216,44895,56910,49149
13469,-1.5191842317581177,-2.2665302753448486,23.425029754638672,55998,47670,57524,50552
13479,-1.5560330152511597,-2.253232479095459,23.470067977905273,57573,48147,57220,47886
13489,-1.6168104410171509,-2.191990613937378,23.46930503845215,48877,48025,57033,51352
13499,-1.6141750812530518,-2.1845014095306396,23.46910858154297,55165,52112,49260,49577
13509,-1.6479072570800781,-2.109886646270752,23.408599853515625,51056,48358,56614,46697
13519,-1.6033685207366943,-2.0885307788848877,23.40752410888672,57662,49073,55118,49101
13529,-1.6013872623443604,-2.023022174835205,23.423606872558594,57761,44342,57427,48481
13539,-1.6538740396499634,-1.93970787525177,23.41741371154785,52868,50008,58776,44909
13549,-1.647420883178711,-1.9031753540039062,23.418973922729492,49316,51692,53619,50323
13559,-1.606356143951416,-1.8596038818359375,23.4013671875,52125,48880,54885,49560
13569,-1.6152148246765137,-1.8446156978607178,23.34099769592285,55225,50150,52888,51864
13579,-1.5897507667541504,-1.8507620096206665,23.32377052307129,58806,46769,56276,50062
13589,-1.585153341293335,-1.8092918395996094,23.29376220703125,56054,51442,58220,46018
13599,-1.5768277645111084,-1.796101689338684,23.3105525970459,53853,50082,57721,47438
13609,-1.5605151653289795,-1.768554449081421,23.33841323852539,45467,52628,56670,44973
13619,-1.536080241203308,-1.6625372171401978,23.270353317260742,56166,50655,49888,50941
13629,-1.5352250337600708,-1.5248903036117554,23.215723037719727,55774,44489,54807,47954
13639,-1.4692379236221313,-1.398446798324585,23.196199417114258,55792,51260,57056,46566
13649,-1.4204986095428467,-1.3195339441299438,23.17341423034668,54164,51888,54615,46831
13659,-1.3539557456970215,-1.2644765377044678,23.14927101135254,51557,49798,57360,47091
13669,-1.2794047594070435,-1.2142921686172485,23.133312225341797,56532,49313,48328,51805
13679,-1.1838852167129517,-1.1901633739471436,23.087745666503906,54756,47148,54170,51517
13689,-1.1398944854736328,-1.192588448524475,23.042694091796875,56423,49094,56026,50627
13699,-1.054543137550354,-1.1670660972595215,23.01703643798828,54596,47960,56934,47094
13709,-0.940679669380188,-1.05780827999115,22.989593505859375,50696,52048,58303,45460
13719,-0.8609302639961243,-0.969414234161377,22.95935821533203,53796,50175,52281,49130
13729,-0.7513245344161987,-0.9052056670188904,22.907804489135742,54796,47973,55411,49119
13739,-0.590833306312561,-0.838308572769165,22.872690200805664,56093,50633,53400,50249
13749,-0.41875702142715454,-0.7393452525138855,22.85082244873047,56804,47961,56337,48752
13759,-0.36396902799606323,-0.6421316266059875,22.780170440673828,54499,50288,56522,45631
13769,-0.2227323055267334,-0.5699167251586914,22.748088836669922,50947,50843,56513,46716
13779,-0.11223706603050232,-0.542326033115387,22.73040008544922,51869,51762,54267,47380
13789,-0.05975859612226486,-0.47057077288627625,22.718467712402344,56714,47623,52887,52583
13800,-0.012450885958969593,-0.39460739493370056,22.648130416870117,56012,44725,56645,51556
13809,0.09349998831748962,-0.29647156596183777,22.597423553466797,55109,50381,56062,49413
13819,0.14005039632320404,-0.31239598989486694,22.565242767333984,51446,54555,53683,45472
13829,0.1619710922241211,-0.3373786509037018,22.51985740661621,52419,50226,57199,44046
13839,0.20880243182182312,-0.3062452971935272,22.51490020751953,54683,48327,50433,52334
13849,0.24146179854869843,-0.24226701259613037,22.503599166870117,53521,43830,56888,47530
13859,0.31672340631484985,-0.1966303586959839,22.4528751373291,55613,48096,55919,46927
13869,0.38034212589263916,-0.16959325969219208,22.444486618041992,52055,49444,56096,45438
13879,0.42073389887809753,-0.2195882946252823,22.448671340942383,50775,53401,53763,47909
13890,0.4439186453819275,-0.24617460370063782,22.41216468811035,55517,52071,50146,48777
13899,0.5541919469833374,-0.22471687197685242,22.334251403808594,54693,48916,54876,49086
13910,0.6265172362327576,-0.21730159223079681,22.31911849975586,56291,50284,52820,48438
13920,0.6904628872871399,-0.17060190439224243,22.272436141967773,54289,46815,57804,45661
13930,0.7549033164978027,-0.13831502199172974,22.244245529174805,51807,49636,57182,46684
13940,0.7601163983345032,-0.008359326049685478,22.203075408935547,49669,51141,52757,48572
13950,0.7986066937446594,-0.02010362036526203,22.163206100463867,53405,48710,53717,50423
13959,0.7378844618797302,0.11780691146850586,22.08075523376465,55243,48234,55401,47851
13969,0.7583534717559814,0.1366306096315384,22.048198699951172,55585,48897,55756,47548
13980,0.8047736287117004,0.13093098998069763,22.024974822998047,53914,50826,55737,46478
13990,0.8502485752105713,0.12093184143304825,22.003135681152344,51908,49461,54201,47552
14000,0.9278637766838074,0.16254490613937378,21.953882217407227,48908,51079,54866,48174
14010,0.935422956943512,0.17506982386112213,21.918500900268555,55916,47646,51486,52110
14020,0.8538090586662292,0.23243631422519684,21.89027976989746,56139,46065,57740,48466
14030,0.8505553007125854,0.2724454402923584,21.86855125427246,56531,48579,55650,48289
14040,0.779647946357727,0.2745869755744934,21.866544723510742,51630,53802,56564,46108
14049,0.769228458404541,0.23941965401172638,21.834857940673828,52215,49926,56502,47074
14060,0.8086854219436646,0.22971059381961823,21.777545928955078,56079,49687,52747,48380
14070,0.900905430316925,0.2766447961330414,21.753774642944336,55058,46506,52608,53952
14080,0.9069426655769348,0.2682870626449585,21.74249839782715,56213,46778,56044,49382
14089,0.8952106833457947,0.2963734567165375,21.69228172302246,51626,49461,59489,43775
14100,0.9189028739929199,0.2590709626674652,21.69947052001953,53003,50841,57491,47030
14110,0.8406310677528381,0.2362821102142334,21.717506408691406,52848,53168,52537,51105
14120,0.8177276253700256,0.26124143600463867,21.669946670532227,57473,42851,53589,51982
14130,0.7751939296722412,0.2720014452934265,21.609304428100586,56391,48600,56454,49070
14140,0.7802658677101135,0.17516030371189117,21.653844833374023,56193,50885,54192,49930
14150,0.661674976348877,0.17943373322486877,21.620521545410156,50139,52507,59009,43308
14160,0.6776188015937805,0.1407030075788498,21.618999481201172,53778,48417,55746,49622
14169,0.606182873249054,0.17841437458992004,21.62640953063965,48761,51844,57552,47011
14180,0.507878303527832,0.22245578467845917,21.614131927490234,56429,48307,56188,50139
14189,0.3810511529445648,0.2558029890060425,21.573589324951172,56892,46452,56069,52211
14199,0.29063260555267334,0.20844732224941254,21.574338912963867,54719,49560,56395,49839
14210,0.20241788029670715,0.18351179361343384,21.530961990356445,52820,51825,54004,47700
14220,0.20642432570457458,0.20962224900722504,21.503889083862305,55197,47704,56123,49678
14230,0.07140278071165085,0.27275383472442627,21.481674194335938,52886,51457,53854,51059
14239,0.004237283021211624,0.2694883644580841,21.472272872924805,51355,53310,55096,49570
14250,-0.06635572016239166,0.2807167172431946,21.426393508911133,53974,49798,59571,43430
14259,-0.06958074122667313,0.28227436542510986,21.429004669189453,56503,48228,57779,46372
14269,-0.1797414869070053,0.2692260444164276,21.44910430908203,51710,55804,53551,51073
14280,-0.23261749744415283,0.3319145143032074,21.36161231994629,54434,47379,54365,53117
14289,-0.2718360424041748,0.36864015460014343,21.328947067260742,55016,49479,53747,51998
14300,-0.3460017442703247,0.33833304047584534,21.29680824279785,55650,51075,57847,48569
14310,-0.46040424704551697,0.30958202481269836,21.31895637512207,55698,51045,59239,45854
14320,-0.5631828904151917,0.26081976294517517,21.350309371948242,45527,53143,58646,45839
14330,-0.6257139444351196,0.23854245245456696,21.309974670410156,54348,52502,51486,53899
14339,-0.7013146877288818,0.22061939537525177,21.240692138671875,53635,53085,52631,52364
14350,-0.7738728523254395,0.17802907526493073,21.207582473754883,57046,49672,58904,49772
14359,-0.78983074426651,0.0937705710530281,21.206350326538086,56988,51100,57349,52658
14370,-0.8921470046043396,0.028145253658294678,21.175296783447266,54003,51653,58966,49119
14381,-1.0091227293014526,0.015476464293897152,21.161022186279297,51519,52263,55121,48389
14390,-1.0356978178024292,0.014216676354408264,21.10069465637207,55728,47915,54323,52345
14400,-1.0677851438522339,0.025224391371011734,21.065093994140625,55894,53669,52060,51080
14410,-1.1845834255218506,-0.0017031673341989517,21.053115844726562,55790,48437,59265,49856
14420,-1.252249002456665,-0.05451136454939842,21.010162353515625,51997,55394,58632,45921
14430,-1.3316583633422852,-0.0715036690235138,20.970449447631836,52983,53371,55129,51465
14440,-1.4504605531692505,-0.07777483761310577,20.925405502319336,53513,52166,55272,49907
14450,-1.462483286857605,-0.10041923820972443,20.862213134765625,56313,48463,54995,51866
14459,-1.5384323596954346,-0.14228199422359467,20.82838249206543,56315,49873,55327,50904
14471,-1.5494248867034912,-0.20283177495002747,20.83316993713379,51739,51485,59811,45468
14479,-1.5140267610549927,-0.29664912819862366,20.79899024963379,54915,47866,57575,48893
14489,-1.5143755674362183,-0.38612329959869385,20.763322830200195,48134,55923,54085,50331
14499,-1.4663249254226685,-0.3909834027290344,20.64984893798828,51591,53260,56198,47899
14509,-1.400881052017212,-0.3283937871456146,20.608774185180664,57421,49221,55919,52890
14520,-1.4523862600326538,-0.22862370312213898,20.607702255249023,54883,52363,57660,48910
14531,-1.4396101236343384,-0.29751622676849365,20.593509674072266,50200,54167,56962,47105
14539,-1.463812232017517,-0.3341315984725952,20.551984786987305,50801,53449,55155,48944
14549,-1.4727673530578613,-0.34588363766670227,20.501901626586914,52999,51482,56266,48394
14559,-1.4483639001846313,-0.4430927038192749,20.459991455078125,50995,53106,50660,51798
14569,-1.4785373210906982,-0.5327275395393372,20.3858585357666,58936,47487,50630,55101
14581,-1.4089577198028564,-0.6694992780685425,20.358884811401367,56481,50202,58396,47890
14589,-1.4111030101776123,-0.764997124671936,20.370067596435547,55125,49829,58407,49556
14599,-1.4183908700942993,-0.8169610500335693,20.337120056152344,49205,55787,57324,45366
14611,-1.3935142755508423,-0.8584634065628052,20.29140281677246,54889,46596,51868,50163
14619,-1.391593098640442,-0.9311736226081848,20.263534545898438,52233,47117,54852,48555
14631,-1.3326963186264038,-1.0372588634490967,20.249685287475586,57371,50823,55798,46299
