timestamp (ms),stateEstimate.x,stateEstimate.y,stateEstimate.z,stabilizer.roll,stabilizer.pitch,stabilizer.yaw
10150,9.425305506738368e-06,-7.706139513175003e-06,-4.80757444165647e-06,0.0005530049093067646,-0.0004832294362131506,0.000762339448556304
10159,3.625490717240609e-05,-4.78367928735679e-06,0.017001168802380562,-0.004168041981756687,-0.00012881385919172317,0.001041247509419918
10170,8.383896056329831e-05,-2.8448805096559227e-05,0.01697818748652935,-0.005120747722685337,5.05873431393411e-05,0.0014729162212461233
10180,8.973585499916226e-05,0.00014106031449045986,0.01696060225367546,-0.08477853983640671,0.02212698385119438,0.0015029035275802016
10190,0.00026464316761121154,-3.427520641707815e-05,0.016918616369366646,-0.01239714864641428,-0.018843848258256912,0.002738646464422345
10200,0.0005577257834374905,-6.616605242015794e-05,0.015907330438494682,-0.016537494957447052,-0.08935845643281937,0.0024041326250880957
10209,-0.0008256903965957463,0.0024619614705443382,0.015987414866685867,-1.0347813367843628,0.5242446660995483,0.006257150322198868
10220,-0.000929471745621413,0.002882538828998804,0.01590961590409279,-1.0351766347885132,0.5232090353965759,0.004633881617337465
10230,-0.0009688053396530449,0.0027436395175755024,0.015920035541057587,-0.8228128552436829,0.502228856086731,0.0036296616308391094
10239,-0.0006301218527369201,0.0030037432443350554,0.0158566702157259,-0.793228268623352,0.3542504608631134,0.0023293436970561743
10250,-0.0006311237812042236,0.0033322549425065517,0.01621582917869091,-0.7934085726737976,0.35192185640335083,0.0022354640532284975
10259,-0.0010884361108765006,0.004340698942542076,0.016081281006336212,-1.0172561407089233,0.5066060423851013,0.003958695102483034
10270,-0.0011307025561109185,0.0047616297379136086,0.01598198525607586,-1.0166120529174805,0.5071730613708496,0.003785691224038601
10280,-0.002259667031466961,0.005747102200984955,0.01580946519970894,-1.1861885786056519,0.834830105304718,0.0058626048266887665
10290,-0.001286326558329165,0.005777185782790184,0.015868408605456352,-1.0509167909622192,0.5108893513679504,0.0033759712241590023
10300,-0.002291946904733777,0.00821277592331171,0.015628071501851082,-1.593048334121704,0.7787127494812012,0.009952281601727009
10310,-0.0012593521969392896,0.004095387179404497,0.015991125255823135,-0.3452152907848358,0.47957301139831543,-0.0012019106652587652
10320,-0.0014646996278315783,0.003031086642295122,0.01589037850499153,-0.0431031733751297,0.5333409905433655,-0.003776203142479062
10330,-0.0014540872070938349,0.003892330452799797,0.01587577350437641,-0.24499060213565826,0.5289353728294373,-0.0009267849964089692
10339,-0.0016706883907318115,0.003662800882011652,0.015757296234369278,-0.17356568574905396,0.5813411474227905,-0.0014130109921097755
10350,-0.0016719696577638388,0.0037093237042427063,0.01563338004052639,-0.173194020986557,0.5816267132759094,-0.001789518166333437
10360,-0.0019184156553819776,0.0036970647051930428,0.015507778152823448,-0.16307148337364197,0.6343222856521606,0.00043463092879392207
10371,-0.0028234778437763453,0.010714555159211159,0.015395749360322952,-1.6322129964828491,0.825415313243866,0.01837122067809105
10380,-0.0029221312142908573,0.011445442214608192,0.015970349311828613,-1.6313937902450562,0.8247950673103333,0.01874045468866825
10390,-0.0029006621334701777,0.012552088126540184,0.01584102027118206,-1.7001111507415771,0.8051566481590271,0.01829550787806511
10400,-0.002886011730879545,0.012643441557884216,0.015822650864720345,-1.575199007987976,0.7897099256515503,0.015046977438032627
10410,-0.0038681605365127325,0.012501795776188374,0.01582144759595394,-1.4236277341842651,0.9473100304603577,0.01214726734906435
10420,-0.001595713198184967,0.012371126562356949,0.01594170182943344,-1.2851591110229492,0.5459294319152832,0.007731026504188776
10430,-0.005108065437525511,0.017253009602427483,0.01567700132727623,-1.9710336923599243,1.1209163665771484,0.020810691639780998
10439,-0.00631240988150239,0.017553111538290977,0.01563386432826519,-1.8595308065414429,1.2737668752670288,0.019355682656168938
10449,-0.006606990937143564,0.01850193738937378,0.015547805465757847,-1.8577316999435425,1.2725794315338135,0.018513448536396027
10459,-0.005427709314972162,0.016859102994203568,0.015887223184108734,-1.4731897115707397,1.056579351425171,0.010339831933379173
10469,-0.011878548189997673,0.02314574643969536,0.0158937256783247,-2.25163197517395,1.943042516708374,0.028817694634199142
10479,-0.011902660131454468,0.02490980550646782,0.01580968126654625,-2.32574725151062,1.8524723052978516,0.031026829034090042
10491,-0.006213340908288956,0.020167985931038857,0.01715710759162903,-1.5114262104034424,1.0039284229278564,0.01136054191738367
10499,-0.0056465994566679,0.019958211109042168,0.01727370359003544,-1.3731167316436768,0.9093821048736572,0.008140387944877148
10509,-0.005859288387000561,0.020491372793912888,0.01674426719546318,-1.3468513488769531,0.9242081046104431,0.0071413335390388966
10519,-0.011313163675367832,0.027605926617980003,0.016462814062833786,-2.1225767135620117,1.57845139503479,0.0236026793718338
10529,-0.012496955692768097,0.027310743927955627,0.01657317392528057,-1.9327950477600098,1.6579464673995972,0.0181195717304945
10539,-0.01113103423267603,0.027430903166532516,0.016818448901176453,-1.7959370613098145,1.4280848503112793,0.015973364934325218
10549,-0.011033146642148495,0.027948280796408653,0.01690743677318096,-1.7281321287155151,1.368179440498352,0.013719666749238968
10559,-0.011992372572422028,0.02802453562617302,0.017441557720303535,-1.6121190786361694,1.427457571029663,0.009282105602324009
10569,-0.01623782329261303,0.02779291942715645,0.017417242750525475,-1.4749584197998047,1.8347681760787964,0.00042995880357921124
10579,-0.016083018854260445,0.02683229371905327,0.01763695478439331,-1.274584174156189,1.7398332357406616,-0.004703913815319538
10589,-0.015950294211506844,0.02743011899292469,0.017755089327692986,-1.2510690689086914,1.656076192855835,-0.0038124723359942436
10599,-0.01708570122718811,0.028277462348341942,0.01786264218389988,-1.2502644062042236,1.704825520515442,-0.004868622403591871
10609,-0.013243596069514751,0.03512512519955635,0.017927203327417374,-1.8363677263259888,1.2624276876449585,0.022936172783374786
10619,-0.013605321757495403,0.03637588024139404,0.017970599234104156,-1.8347502946853638,1.2607048749923706,0.02120606228709221
10629,-0.014311875216662884,0.036558378487825394,0.018132111057639122,-1.7319848537445068,1.2897266149520874,0.01682746596634388
10639,-0.013405490666627884,0.03649592399597168,0.018366293981671333,-1.6133681535720825,1.169507384300232,0.014821195974946022
10649,-0.017261607572436333,0.04169012978672981,0.017541775479912758,-1.976007342338562,1.4844073057174683,0.02393626980483532
10659,-0.016874955967068672,0.040304478257894516,0.01790603995323181,-1.7301982641220093,1.4021625518798828,0.014395026490092278
10669,-0.01911529153585434,0.03714156895875931,0.018319135531783104,-1.3516795635223389,1.5493117570877075,-0.0019963346421718597
10679,-0.019487349316477776,0.03690269589424133,0.01847718469798565,-1.2478930950164795,1.5264053344726562,-0.005290714558213949
10689,-0.0186898335814476,0.037191879004240036,0.016786523163318634,-1.2060449123382568,1.417438268661499,-0.005176347214728594
10699,-0.02289874479174614,0.0413326732814312,0.016490763053297997,-1.4653860330581665,1.7097442150115967,0.00106905959546566
10709,-0.02047375589609146,0.040355075150728226,0.016866980120539665,-1.29901921749115,1.4588738679885864,-0.003076263703405857
10719,-0.021043606102466583,0.0413387306034565,0.01685197278857231,-1.2996145486831665,1.4557348489761353,-0.003509842325001955
10729,-0.0262045469135046,0.04580855369567871,0.015736814588308334,-1.5632569789886475,1.8002331256866455,0.003926568664610386
10739,-0.02755756676197052,0.047049328684806824,0.015602878294885159,-1.5602688789367676,1.8335959911346436,0.002901436761021614
10749,-0.02469489350914955,0.04463433101773262,0.01620432361960411,-1.2950570583343506,1.5576311349868774,-0.0063955411314964294
10759,-0.020359234884381294,0.03968203440308571,0.016917724162340164,-0.8736788630485535,1.2003930807113647,-0.02071569114923477
10769,-0.01900234818458557,0.03982458636164665,0.017389528453350067,-0.8353903889656067,1.0774072408676147,-0.02087848260998726
10779,-0.01199405174702406,0.041184503585100174,0.017401468008756638,-0.8892313838005066,0.5832899808883667,-0.01208218839019537
10789,-0.01230473443865776,0.04232242703437805,0.017476065084338188,-0.9206682443618774,0.619697093963623,-0.010342653840780258
10799,-0.017185065895318985,0.042996425181627274,0.0178581140935421,-0.9165289402008057,0.9534997940063477,-0.013165014795958996
10809,-0.017405156046152115,0.04235002398490906,0.017993321642279625,-0.8286382555961609,0.9590674638748169,-0.016561107710003853
10821,-0.01810353994369507,0.04242974519729614,0.01765592396259308,-0.7975997924804688,0.9978347420692444,-0.015934281051158905
10829,-0.020800214260816574,0.04531293362379074,0.017640091478824615,-0.9429951906204224,1.1581432819366455,-0.01312447339296341
10839,-0.021119028329849243,0.04603613540530205,0.017683235928416252,-0.9405938386917114,1.155362844467163,-0.012612897902727127
10849,-0.021437406539916992,0.04676240682601929,0.017725253477692604,-0.9403600096702576,1.154042363166809,-0.012144176289439201
10859,-0.021324558183550835,0.047355927526950836,0.017885589972138405,-0.9316410422325134,1.1250665187835693,-0.012586334720253944
10869,-0.021615326404571533,0.04807967692613602,0.017936987802386284,-0.9312344789505005,1.1246126890182495,-0.014003826305270195
10879,-0.021906079724431038,0.048807475715875626,0.017989221960306168,-0.9297613501548767,1.1233850717544556,-0.012953778728842735
10889,-0.021748514845967293,0.04874108359217644,0.0181060079485178,-0.8826466202735901,1.0948885679244995,-0.014077754691243172
10899,-0.021924002096056938,0.04964552819728851,0.018152320757508278,-0.8956314325332642,1.088092565536499,-0.013449989259243011
10909,-0.027534034103155136,0.05747487396001816,0.016817579045891762,-1.2970044612884521,1.3892111778259277,-0.0007262121071107686
10919,-0.028117017820477486,0.058606188744306564,0.016770007088780403,-1.2961794137954712,1.388630747795105,0.0007564987754449248
10929,-0.026866663247346878,0.058009807020425797,0.017049256712198257,-1.1994993686676025,1.287405014038086,-0.0026684424374252558
10939,-0.026631643995642662,0.057204101234674454,0.017283296212553978,-1.098759651184082,1.2461849451065063,-0.006313444580882788
10949,-0.02642415463924408,0.05584968253970146,0.017315678298473358,-0.9769809246063232,1.2119090557098389,-0.01032692939043045
10959,-0.026834383606910706,0.05666908249258995,0.017324142158031464,-0.9741865396499634,1.2113503217697144,-0.010587585158646107
10969,-0.027570949867367744,0.05625099316239357,0.01739748753607273,-0.9090032577514648,1.2293174266815186,-0.013143965974450111
10981,-0.026129810139536858,0.05587875097990036,0.017556704580783844,-0.848907470703125,1.1309324502944946,-0.01581752486526966
10990,-0.025680163875222206,0.055260688066482544,0.017816932871937752,-0.7779439091682434,1.088807225227356,-0.01778685301542282
11000,-0.033287469297647476,0.06007273495197296,0.017615674063563347,-0.9931455254554749,1.4663207530975342,-0.007668843027204275
11009,-0.0330144539475441,0.06118127703666687,0.01768086664378643,-1.0032579898834229,1.4150586128234863,-0.007781239226460457
11019,-0.03566532954573631,0.06845173239707947,0.017088554799556732,-1.3307843208312988,1.5175458192825317,0.0026872383896261454
11029,-0.036421630531549454,0.06967147439718246,0.01706370711326599,-1.33042311668396,1.5165225267410278,0.003428701078519225
11039,-0.042330969125032425,0.07097604870796204,0.01712147705256939,-1.3312163352966309,1.7770774364471436,0.006768545601516962
11049,-0.04134037718176842,0.07977291941642761,0.016510451212525368,-1.713099718093872,1.6717448234558105,0.019849790260195732
11059,-0.042383138090372086,0.08159132301807404,0.016431506723165512,-1.7107669115066528,1.669067144393921,0.01801188476383686
11069,-0.043173760175704956,0.08144601434469223,0.01672193966805935,-1.618334412574768,1.658353567123413,0.014358649030327797
11079,-0.04117636755108833,0.08034225553274155,0.01603698916733265,-1.4915947914123535,1.5141562223434448,0.007182760629802942
11089,-0.034671712666749954,0.07562495768070221,0.017055071890354156,-1.1809386014938354,1.148355484008789,-0.008205931633710861
11099,-0.034227464348077774,0.0737675130367279,0.01731647178530693,-1.0309759378433228,1.1035842895507812,-0.014511657878756523
11109,-0.034084949642419815,0.07424033433198929,0.017383739352226257,-1.0031535625457764,1.0780208110809326,-0.015946699306368828
11120,-0.03536083549261093,0.07445772737264633,0.017454195767641068,-0.9637975692749023,1.121559739112854,-0.017828285694122314
11129,-0.02778628282248974,0.06532764434814453,0.017897456884384155,-0.47077396512031555,0.7298526763916016,-0.03287966176867485
11140,-0.019203653559088707,0.05655428022146225,0.01760486699640751,-0.026224341243505478,0.311591237783432,-0.04500315338373184
11149,-0.02017359249293804,0.05741463229060173,0.01785508543252945,-0.07118259370326996,0.3814614415168762,-0.04406808316707611
11159,-0.019192516803741455,0.055504873394966125,0.01774035021662712,0.02104707434773445,0.35202527046203613,-0.044789593666791916
11169,-0.02032589726150036,0.05598947033286095,0.016820969060063362,-0.014454318210482597,0.4304770827293396,-0.043830446898937225
11179,-0.01995270885527134,0.05587182566523552,0.016822196543216705,-0.012497213669121265,0.4292509853839874,-0.04470866546034813
11189,-0.019568050280213356,0.05574099346995354,0.016824059188365936,-0.011767692863941193,0.428559809923172,-0.04420339688658714
11199,-0.01917063072323799,0.055597104132175446,0.016825249418616295,-0.010824725963175297,0.42882460355758667,-0.04364326223731041
11209,-0.019672660157084465,0.055677320808172226,0.01690567471086979,-0.022870374843478203,0.4716207981109619,-0.043037787079811096
11219,-0.019300470128655434,0.055522266775369644,0.016950711607933044,-0.021169107407331467,0.4692308306694031,-0.042354144155979156
11229,-0.013100516051054,0.05493811145424843,0.016679316759109497,-0.0046084909699857235,0.195878267288208,-0.051033660769462585
11239,-0.013771338388323784,0.055047471076250076,0.016804536804556847,-0.01985245756804943,0.2591821253299713,-0.05063771456480026
11249,-0.016821904107928276,0.05576838180422783,0.017163101583719254,-0.06242350861430168,0.4287430942058563,-0.04403145983815193
11259,-0.015537489205598831,0.05821511149406433,0.016305649653077126,-0.18230298161506653,0.39122602343559265,-0.04772296920418739
11269,-0.013108349405229092,0.05529013276100159,0.016157004982233047,-0.05174705386161804,0.30379554629325867,-0.049262598156929016
11279,-0.012462703511118889,0.055087171494960785,0.016121424734592438,-0.05182689055800438,0.3024542033672333,-0.049140118062496185
11289,-0.013371691107749939,0.05548490211367607,0.016227945685386658,-0.07950695604085922,0.37300604581832886,-0.04608990624547005
11299,-0.013909658417105675,0.05555935576558113,0.016167163848876953,-0.09156400710344315,0.418978750705719,-0.04333965480327606
11309,-0.013375962153077126,0.05536937713623047,0.016140174120664597,-0.09203989058732986,0.41956812143325806,-0.04384653642773628
11319,-0.014557174406945705,0.05855666846036911,0.01626659370958805,-0.24127870798110962,0.49542978405952454,-0.04343617334961891
11329,-0.014155042357742786,0.05735220015048981,0.016252771019935608,-0.18873949348926544,0.49644502997398376,-0.04192018881440163
11339,-0.013756861910223961,0.05827571451663971,0.016252487897872925,-0.23454299569129944,0.49949565529823303,-0.04331362247467041
11349,-0.01597626507282257,0.05858059972524643,0.016207126900553703,-0.25064510107040405,0.6171755194664001,-0.036927156150341034
11359,-0.01524093933403492,0.057453349232673645,0.01618427038192749,-0.20369844138622284,0.5971205234527588,-0.038081347942352295
11369,-0.014876543544232845,0.05734077841043472,0.016168834641575813,-0.20511461794376373,0.5972152352333069,-0.037739649415016174
11379,-0.016503997147083282,0.05945335701107979,0.016243837773799896,-0.30259016156196594,0.6843115091323853,-0.03555251285433769
11389,-0.013740023598074913,0.05626891553401947,0.015238321386277676,-0.16253520548343658,0.5716450810432434,-0.03895178809762001
11399,-0.014732985757291317,0.05745843052864075,0.015241051092743874,-0.22154399752616882,0.632419228553772,-0.03695438802242279
11409,-0.016523130238056183,0.05805667117238045,0.015241087414324284,-0.254423052072525,0.7255011796951294,-0.03276157006621361
11419,-0.01439417153596878,0.05863060802221298,0.015169738791882992,-0.2841179370880127,0.6415745615959167,-0.03818769380450249
11429,-0.014025851152837276,0.05855370685458183,0.015504628419876099,-0.28580722212791443,0.6422680020332336,-0.03736553341150284
11439,-0.018445592373609543,0.0645754337310791,0.015605555847287178,-0.5543011426925659,0.8541370630264282,-0.032369133085012436
11449,-0.018347198143601418,0.06483838707208633,0.015581386163830757,-0.5552161335945129,0.8523484468460083,-0.03193194791674614
11459,-0.01824282668530941,0.06509748846292496,0.01555775385349989,-0.5542266368865967,0.8525887131690979,-0.031664445996284485
11469,-0.018132120370864868,0.06535297632217407,0.015534660778939724,-0.5533497929573059,0.8529956340789795,-0.032465625554323196
11479,-0.0231714379042387,0.06717756390571594,0.015669088810682297,-0.6210837960243225,1.0773590803146362,-0.021040916442871094
11489,-0.021454045549035072,0.06569989025592804,0.015790332108736038,-0.5423046350479126,0.9927991032600403,-0.025348952040076256
11499,-0.021113675087690353,0.06463303416967392,0.015836060047149658,-0.48515722155570984,0.9750906825065613,-0.026346717029809952
11509,-0.02262657694518566,0.06824183464050293,0.01573503389954567,-0.6360868215560913,1.0374923944473267,-0.02537728101015091
11519,-0.02408125251531601,0.06838610023260117,0.0162661150097847,-0.6251034736633301,1.0967987775802612,-0.022752409800887108
11529,-0.02136426791548729,0.06502680480480194,0.016495518386363983,-0.46289101243019104,0.9699090123176575,-0.027356253936886787
11539,-0.02192695625126362,0.06526915729045868,0.016526753082871437,-0.46876952052116394,0.9916631579399109,-0.027254527434706688
11549,-0.019916024059057236,0.06436912715435028,0.01660103350877762,-0.4240989089012146,0.9001585841178894,-0.031243544071912766
11559,-0.01877310685813427,0.06461730599403381,0.016358422115445137,-0.43190810084342957,0.8504595756530762,-0.03312908858060837
11569,-0.024254191666841507,0.0703011006116867,0.01642902009189129,-0.6799333691596985,1.0969396829605103,-0.02279413305222988
11579,-0.018856877461075783,0.0667298212647438,0.016764646396040916,-0.5037314295768738,0.8470550179481506,-0.03421860560774803
11589,-0.018351973965764046,0.0664219930768013,0.016808416694402695,-0.48213866353034973,0.828365683555603,-0.03598399832844734
11599,-0.017867570742964745,0.06638522446155548,0.016846129670739174,-0.47451162338256836,0.8133185505867004,-0.03736554831266403
11609,-0.019970087334513664,0.06789298355579376,0.016124101355671883,-0.5367135405540466,0.9159682393074036,-0.032958582043647766
11619,-0.01869439333677292,0.06530002504587173,0.016169216483831406,-0.4080240726470947,0.8578974604606628,-0.035850200802087784
11629,-0.018578847870230675,0.06533132493495941,0.016177060082554817,-0.40851280093193054,0.8582431077957153,-0.035636935383081436
11639,-0.01966881938278675,0.06532032042741776,0.01620468869805336,-0.4059523344039917,0.9132171869277954,-0.03352335840463638
11649,-0.018883248791098595,0.06504371017217636,0.015701528638601303,-0.3946775496006012,0.8791463375091553,-0.035022277384996414
11659,-0.01969742402434349,0.05958884209394455,0.015657896175980568,-0.1398746818304062,0.9213595986366272,-0.03226903825998306
11669,-0.019637510180473328,0.05928662791848183,0.01564200222492218,-0.13943085074424744,0.9191319942474365,-0.03369880095124245
11679,-0.019573185592889786,0.05897285416722298,0.01562613435089588,-0.13846464455127716,0.9178401231765747,-0.03255460783839226
11689,-0.01959948055446148,0.06025131046772003,0.01570161059498787,-0.2142457515001297,0.9209892749786377,-0.03258760645985603
11699,-0.017427172511816025,0.05619790405035019,0.016539545729756355,-0.03760956600308418,0.8211237788200378,-0.03807928040623665
11709,-0.01724587008357048,0.055734679102897644,0.016573457047343254,-0.0379251092672348,0.8218754529953003,-0.03803294524550438
11719,-0.017059024423360825,0.05525791272521019,0.016608407720923424,-0.03975565731525421,0.8206012845039368,-0.038283854722976685
11729,-0.018370507284998894,0.054262783378362656,0.01664343848824501,-0.01746765524148941,0.8873430490493774,-0.03522723913192749
11739,-0.017234327271580696,0.05537644773721695,0.01770269311964512,-0.09123464673757553,0.839818000793457,-0.03907843306660652
11749,-0.017305389046669006,0.053506169468164444,0.01774197816848755,-0.025185709819197655,0.8495209217071533,-0.03874039649963379
11759,-0.015931012108922005,0.05313500016927719,0.017826391384005547,-0.033212605863809586,0.7950935959815979,-0.04239930957555771
11769,-0.016016174107789993,0.053607650101184845,0.017987623810768127,-0.07913994044065475,0.8092862963676453,-0.04155431687831879
11779,-0.01609136164188385,0.05432095751166344,0.01816340908408165,-0.13426175713539124,0.8235209584236145,-0.04089713096618652
11789,-0.013429976999759674,0.05065661668777466,0.018052874132990837,0.010372203774750233,0.7139999866485596,-0.04695506393909454
11799,-0.013075323775410652,0.050016555935144424,0.018141277134418488,0.010472677648067474,0.714379608631134,-0.0459846630692482
11809,-0.014344763942062855,0.05024334788322449,0.018353981897234917,-0.029222041368484497,0.7869523167610168,-0.04138755798339844
11819,-0.013328615576028824,0.05043964087963104,0.018486233428120613,-0.06564333289861679,0.7528112530708313,-0.04347087815403938
11829,-0.013153726235032082,0.04956906661391258,0.01754121109843254,-0.04977744072675705,0.7563714385032654,-0.04475264251232147
11839,-0.019138680770993233,0.05319796875119209,0.0179734006524086,-0.23817554116249084,1.0364792346954346,-0.030023621395230293
11849,-0.015434923581779003,0.04934385046362877,0.018036525696516037,-0.08176901936531067,0.8685920238494873,-0.03918690234422684
11859,-0.016519838944077492,0.04948196932673454,0.018168354406952858,-0.11329661309719086,0.923236608505249,-0.036149557679891586
11869,-0.014495226554572582,0.049442797899246216,0.016440793871879578,-0.13223159313201904,0.8362107872962952,-0.04068934917449951
11879,-0.016571953892707825,0.049550920724868774,0.016462339088320732,-0.1614300161600113,0.9391072988510132,-0.03565627336502075
11889,-0.01433494035154581,0.04965200275182724,0.01645016297698021,-0.18953825533390045,0.840915322303772,-0.04127923399209976
11899,-0.015117460861802101,0.049739111214876175,0.01646445505321026,-0.21713757514953613,0.8847901821136475,-0.03919677436351776
11909,-0.01660563237965107,0.04980788379907608,0.016485003754496574,-0.24043963849544525,0.9584557414054871,-0.03472619131207466
11919,-0.020476212725043297,0.054980676621198654,0.015497980639338493,-0.4929615259170532,1.1356440782546997,-0.02517988160252571
11929,-0.020640388131141663,0.054872527718544006,0.015419497154653072,-0.4922769367694855,1.1326889991760254,-0.025985540822148323
11939,-0.02080583944916725,0.054760660976171494,0.015341401100158691,-0.49177464842796326,1.1313509941101074,-0.025091156363487244
11949,-0.01967885158956051,0.054519642144441605,0.015318832360208035,-0.48633676767349243,1.069752812385559,-0.027259711176156998
11959,-0.022022096440196037,0.061394233256578445,0.015469038859009743,-0.8063377737998962,1.1709200143814087,-0.018463946878910065
11969,-0.022246168926358223,0.06168520823121071,0.015409698709845543,-0.8070803880691528,1.1698501110076904,-0.01821477711200714
11979,-0.022175239399075508,0.0613076314330101,0.015406643971800804,-0.7732093334197998,1.1557554006576538,-0.0187500212341547
11989,-0.0231940820813179,0.062046680599451065,0.015290696173906326,-0.7956504821777344,1.1947333812713623,-0.017353856936097145
11999,-0.022361310198903084,0.06116181239485741,0.016538100317120552,-0.7413444519042969,1.1430203914642334,-0.019637666642665863
12009,-0.024135088548064232,0.06084123253822327,0.016545047983527184,-0.7171829342842102,1.2123819589614868,-0.018455294892191887
12019,-0.020993588492274284,0.06105247512459755,0.01670117862522602,-0.7183536291122437,1.0550355911254883,-0.02087630331516266
12029,-0.02173893339931965,0.06101125851273537,0.016734983772039413,-0.7064682245254517,1.084580659866333,-0.020306913182139397
12039,-0.021961446851491928,0.06097448617219925,0.016770923510193825,-0.6953765749931335,1.0872169733047485,-0.020762257277965546
12049,-0.02587294392287731,0.0661337673664093,0.01586974412202835,-0.9285314083099365,1.2636717557907104,-0.013177156448364258
12059,-0.026216592639684677,0.06657227873802185,0.01584469899535179,-0.9270415902137756,1.2610502243041992,-0.013908899389207363
12069,-0.025877756997942924,0.06647016853094101,0.015890413895249367,-0.9008066058158875,1.2271307706832886,-0.014815506525337696
12079,-0.026062382385134697,0.0668855831027031,0.015875643119215965,-0.8994157910346985,1.2186414003372192,-0.015820380300283432
12089,-0.031292300671339035,0.06781414151191711,0.016196541488170624,-0.921572208404541,1.4517508745193481,-0.013729846104979515
12099,-0.028714817017316818,0.06253139674663544,0.016690652817487717,-0.6455884575843811,1.297154188156128,-0.023244384676218033
12109,-0.023545827716588974,0.06098172068595886,0.016998127102851868,-0.5645832419395447,1.0269677639007568,-0.02608967013657093
12119,-0.0236524511128664,0.061014484614133835,0.017045337706804276,-0.5626018643379211,1.0281378030776978,-0.02755848318338394
12129,-0.023630037903785706,0.06125374510884285,0.01709553599357605,-0.5710484981536865,1.0209457874298096,-0.026292013004422188
12139,-0.02836507372558117,0.06626774370670319,0.015824852511286736,-0.8133341073989868,1.245313048362732,-0.018909171223640442
12149,-0.02779562957584858,0.06520221382379532,0.01587841473519802,-0.7441813945770264,1.1996713876724243,-0.02177022211253643
12159,-0.027739929035305977,0.06490730494260788,0.015881862491369247,-0.7181532382965088,1.1815814971923828,-0.024444052949547768
12169,-0.028661631047725677,0.06608583778142929,0.015820734202861786,-0.763863205909729,1.211618185043335,-0.022070614621043205
12179,-0.02574620582163334,0.06486080586910248,0.016412395983934402,-0.6880067586898804,1.0501816272735596,-0.022924724966287613
12189,-0.027638236060738564,0.06483437120914459,0.016424082219600677,-0.6777850985527039,1.1362714767456055,-0.023449156433343887
12199,-0.027842454612255096,0.06481527537107468,0.016442546620965004,-0.6704890131950378,1.1341696977615356,-0.025420304387807846
12209,-0.027338627725839615,0.06409167498350143,0.01648717187345028,-0.6257359385490417,1.095860242843628,-0.026889175176620483
12219,-0.027551736682653427,0.0645391196012497,0.016507795080542564,-0.6398786306381226,1.0964581966400146,-0.025931283831596375
12229,-0.029831966385245323,0.06613471359014511,0.016277287155389786,-0.7115063071250916,1.1993560791015625,-0.02506094239652157
12240,-0.02755032666027546,0.06385961920022964,0.0164191797375679,-0.5893645286560059,1.0705006122589111,-0.02932089939713478
12250,-0.02753755822777748,0.06452944129705429,0.01644441857933998,-0.6169278621673584,1.061020016670227,-0.02777770906686783
12259,-0.02752089500427246,0.06474490463733673,0.01646830141544342,-0.6216316223144531,1.0507173538208008,-0.027335461229085922
12269,-0.027636921033263206,0.06481099128723145,0.01587933860719204,-0.6200453042984009,1.0489697456359863,-0.027275316417217255
12279,-0.02595391310751438,0.060047078877687454,0.015905505046248436,-0.3767685294151306,0.956738293170929,-0.0336836501955986
12289,-0.026659192517399788,0.06006992980837822,0.015914378687739372,-0.3862026333808899,0.990473747253418,-0.034780215471982956
12299,-0.026416011154651642,0.06008901074528694,0.015918780118227005,-0.3954218029975891,0.974419891834259,-0.03463099151849747
12309,-0.028037847951054573,0.06358712166547775,0.016073791310191154,-0.578700602054596,1.0506856441497803,-0.029614528641104698
12319,-0.027100009843707085,0.06840373575687408,0.016040567308664322,-0.8150988221168518,0.9953879714012146,-0.023806216195225716
12329,-0.02229892835021019,0.07155289500951767,0.01591917872428894,-0.9534421563148499,0.7529879212379456,-0.019726350903511047
12339,-0.022541331127285957,0.07241125404834747,0.015907833352684975,-0.9702882170677185,0.7742220759391785,-0.020019670948386192
12349,-0.021882468834519386,0.07236311584711075,0.015938304364681244,-0.9402408003807068,0.7492795586585999,-0.01887364313006401
12359,-0.026806266978383064,0.07834872603416443,0.015814824029803276,-1.2110270261764526,1.004691243171692,-0.01666007563471794
12369,-0.022363713011145592,0.08006233721971512,0.015758994966745377,-1.2547342777252197,0.7783608436584473,-0.014254940673708916
12379,-0.021500222384929657,0.07892117649316788,0.01600704714655876,-1.1528347730636597,0.7453051805496216,-0.015936540439724922
12389,-0.021514754742383957,0.07909919321537018,0.01610233634710312,-1.119802474975586,0.7579903602600098,-0.016346393153071404
12399,-0.021307019516825676,0.07886780798435211,0.016572512686252594,-1.0678192377090454,0.7557379603385925,-0.017176490277051926
12409,-0.02131710574030876,0.07775632292032242,0.016758901998400688,-0.9751667380332947,0.7664645910263062,-0.019018391147255898
12419,-0.021543053910136223,0.07881323993206024,0.016797281801700592,-0.9976968765258789,0.7894440293312073,-0.020476095378398895
12429,-0.021121639758348465,0.07879281789064407,0.016893809661269188,-0.9635370969772339,0.7798433303833008,-0.02063881978392601
12439,-0.021123751997947693,0.07942238450050354,0.016954783350229263,-0.964952290058136,0.7899039387702942,-0.021338487043976784
12449,-0.024324879050254822,0.07984229922294617,0.017116393893957138,-0.9547684788703918,0.9616784453392029,-0.026374153792858124
12459,-0.021148737519979477,0.07877271622419357,0.0173229668289423,-0.871772825717926,0.8033961653709412,-0.02235814742743969
12469,-0.021785791963338852,0.07877028733491898,0.017445212230086327,-0.8486946821212769,0.8467770218849182,-0.024156397208571434
12479,-0.021364770829677582,0.08086695522069931,0.01743929088115692,-0.9315848350524902,0.8327932953834534,-0.02345811389386654
12489,-0.023047732189297676,0.08001306653022766,0.017415888607501984,-0.8603196144104004,0.9270040988922119,-0.027822982519865036
12499,-0.023043328896164894,0.08522922545671463,0.01728000119328499,-1.1001988649368286,0.9298890233039856,-0.02854963205754757
12509,-0.022980624809861183,0.08600860834121704,0.017327267676591873,-1.1001477241516113,0.9301789999008179,-0.028290335088968277
12519,-0.024095255881547928,0.08640538156032562,0.017424728721380234,-1.0803834199905396,0.9908056259155273,-0.029977748170495033
12529,-0.02321270853281021,0.08702322095632553,0.01751370169222355,-1.0724717378616333,0.9446343183517456,-0.028999140486121178
12539,-0.02736632525920868,0.09675968438386917,0.015630751848220825,-1.5339033603668213,1.1590094566345215,-0.032164350152015686
12549,-0.026269463822245598,0.0958494320511818,0.016067758202552795,-1.4153423309326172,1.089958906173706,-0.030303914099931717
12559,-0.02640599012374878,0.09707339107990265,0.016024082899093628,-1.4139140844345093,1.0888251066207886,-0.0296336580067873
12569,-0.02654380537569523,0.09830839931964874,0.015979977324604988,-1.413712978363037,1.0881001949310303,-0.030095810070633888
12579,-0.030936572700738907,0.09814942628145218,0.016948819160461426,-1.337759017944336,1.304443597793579,-0.038902465254068375
12589,-0.03134545683860779,0.09931729733943939,0.016966061666607857,-1.3394827842712402,1.3032739162445068,-0.039568573236465454
12599,-0.032279688864946365,0.09929928928613663,0.017126265913248062,-1.2775160074234009,1.3288660049438477,-0.04176824539899826
12609,-0.03143579512834549,0.09807078540325165,0.017619352787733078,-1.1579543352127075,1.2619050741195679,-0.041838813573122025
12619,-0.03111933544278145,0.09764649718999863,0.017957277595996857,-1.086384892463684,1.2247835397720337,-0.04140785336494446
12629,-0.031453125178813934,0.09854774177074432,0.018032437190413475,-1.0855128765106201,1.223604679107666,-0.04122550040483475
12639,-0.025881437584757805,0.09753724187612534,0.01851760409772396,-0.9877416491508484,0.92509925365448,-0.02998955175280571
12649,-0.026146069169044495,0.09807467460632324,0.018644509837031364,-0.9736359715461731,0.9370641112327576,-0.031217917799949646
12659,-0.024633143097162247,0.09689275920391083,0.01889946311712265,-0.8758677244186401,0.8587607145309448,-0.03072242997586727
12669,-0.03358613699674606,0.10174372792243958,0.018599864095449448,-1.083878517150879,1.312028408050537,-0.04522378370165825
12679,-0.034011196345090866,0.10265520215034485,0.01868494413793087,-1.0828777551651,1.3111255168914795,-0.044364627450704575
12689,-0.034440599381923676,0.10357044637203217,0.018770506605505943,-1.081966519355774,1.3088065385818481,-0.044951241463422775
12699,-0.034894347190856934,0.10446005314588547,0.018878817558288574,-1.0761016607284546,1.3061524629592896,-0.04469166696071625
12709,-0.03989386558532715,0.10623998194932938,0.017492372542619705,-1.123901128768921,1.5321255922317505,-0.05224895477294922
12719,-0.03703341633081436,0.10490527749061584,0.017967229709029198,-1.008642554283142,1.35566246509552,-0.04839159920811653
12729,-0.037540584802627563,0.10575424879789352,0.0180020984262228,-1.0064902305603027,1.3553658723831177,-0.04979787766933441
12739,-0.03848277032375336,0.10489935427904129,0.018147703260183334,-0.9212003946304321,1.374385118484497,-0.053535208106040955
12749,-0.038320392370224,0.10548685491085052,0.01825561933219433,-0.9127143025398254,1.3378382921218872,-0.05186862125992775
12759,-0.04244319722056389,0.10333940386772156,0.01773734949529171,-0.7730635404586792,1.512282133102417,-0.06212512403726578
12769,-0.04144764691591263,0.1034354642033577,0.017900824546813965,-0.746117889881134,1.4285508394241333,-0.060781631618738174
12779,-0.04130150377750397,0.10301975160837173,0.018017448484897614,-0.6953800916671753,1.3916176557540894,-0.06056348979473114
12789,-0.04167484492063522,0.10419895499944687,0.018047019839286804,-0.7282857298851013,1.379591941833496,-0.05890842527151108
12799,-0.04094177484512329,0.10215581953525543,0.016908565536141396,-0.6087594628334045,1.3187774419784546,-0.06163356080651283
12809,-0.04032322019338608,0.09671792387962341,0.01699819415807724,-0.33068686723709106,1.2629573345184326,-0.0713220164179802
12819,-0.03923347219824791,0.09669627249240875,0.017037922516465187,-0.32536593079566956,1.189630389213562,-0.06920430809259415
12829,-0.03916168585419655,0.09767434746026993,0.01707192324101925,-0.36689862608909607,1.166739821434021,-0.0675433799624443
12839,-0.039506860077381134,0.09778390824794769,0.017067551612854004,-0.364919513463974,1.1669387817382812,-0.0673765316605568
12849,-0.044337525963783264,0.10036184638738632,0.01698450557887554,-0.4787706136703491,1.3779557943344116,-0.06561510264873505
12859,-0.039108581840991974,0.09645766019821167,0.017316561192274094,-0.28385552763938904,1.100743293762207,-0.070787712931633
12869,-0.039379917085170746,0.09644947946071625,0.01733146794140339,-0.2835017144680023,1.0994731187820435,-0.07052638381719589
12879,-0.04009845852851868,0.0967191532254219,0.017351001501083374,-0.29566940665245056,1.119058609008789,-0.07006341964006424
12889,-0.03814035654067993,0.09615679085254669,0.016836730763316154,-0.27015605568885803,1.0164700746536255,-0.0722663551568985
12899,-0.03913628309965134,0.09642160683870316,0.016838837414979935,-0.28201770782470703,1.0541256666183472,-0.0705014020204544
12909,-0.038829077035188675,0.09642459452152252,0.01684253104031086,-0.28395238518714905,1.0287805795669556,-0.06987873464822769
12919,-0.038781844079494476,0.09541668742895126,0.016823075711727142,-0.23904772102832794,1.0165605545043945,-0.07180812954902649
12929,-0.038753267377614975,0.0961800292134285,0.01685551181435585,-0.27714791893959045,1.0075280666351318,-0.07050012052059174
12939,-0.040892552584409714,0.09149584919214249,0.015946069732308388,-0.06541278213262558,1.100606918334961,-0.07589017599821091
12949,-0.03599797189235687,0.0964064672589302,0.016328711062669754,-0.3088395595550537,0.8603070378303528,-0.07424696534872055
12959,-0.03551341965794563,0.09640435874462128,0.016295962035655975,-0.3094983696937561,0.8384029269218445,-0.07468598335981369
12969,-0.03599710017442703,0.09760075062513351,0.016305018216371536,-0.3673325479030609,0.8622865676879883,-0.07411158084869385
12979,-0.035961784422397614,0.1025523990392685,0.01525275968015194,-0.5954654216766357,0.8648704290390015,-0.06928139925003052
12989,-0.03502532094717026,0.10320177674293518,0.01513542141765356,-0.6089900135993958,0.8219234943389893,-0.07079076766967773
12999,-0.03503860905766487,0.1040864959359169,0.015020405873656273,-0.6346502304077148,0.8280404806137085,-0.06946147233247757
13009,-0.03412933647632599,0.10265880823135376,0.015034222044050694,-0.5499699711799622,0.790664553642273,-0.07161736488342285
13019,-0.034617021679878235,0.1040123924612999,0.01580165885388851,-0.6026355624198914,0.8199734687805176,-0.07130761444568634
13029,-0.03756182640790939,0.10624503344297409,0.01575409434735775,-0.6927403807640076,0.9666959643363953,-0.0663910061120987
13039,-0.03754831477999687,0.10665302723646164,0.01572783663868904,-0.6913606524467468,0.9648520946502686,-0.06607651710510254
13049,-0.036874182522296906,0.10639535635709763,0.015761401504278183,-0.6575276255607605,0.9295365214347839,-0.0669485405087471
13059,-0.037760838866233826,0.1072552353143692,0.015704214572906494,-0.6787431836128235,0.9696542620658875,-0.06540248543024063
13069,-0.03710442781448364,0.10678800940513611,0.016342930495738983,-0.6324911713600159,0.9337424039840698,-0.06681811809539795
13079,-0.03732714429497719,0.10676421970129013,0.016378086060285568,-0.6122238636016846,0.9445299506187439,-0.0657542273402214
13089,-0.03732210025191307,0.10696090012788773,0.016405588015913963,-0.6046831607818604,0.9418913722038269,-0.06535620242357254
13099,-0.0377524234354496,0.10716468840837479,0.016431793570518494,-0.5982900261878967,0.9602087736129761,-0.06592579185962677
13109,-0.04033999517560005,0.11298786848783493,0.016080686822533607,-0.8712790012359619,1.088016152381897,-0.061783019453287125
13119,-0.04053732007741928,0.11364242434501648,0.01607614941895008,-0.8694821000099182,1.0878475904464722,-0.0613117516040802
13129,-0.04051826894283295,0.11289434880018234,0.01622338779270649,-0.7983137965202332,1.0754168033599854,-0.06176401674747467
13139,-0.04072338715195656,0.11464591324329376,0.016120005398988724,-0.8557084798812866,1.0762923955917358,-0.06236492469906807
13149,-0.04094630852341652,0.11461810022592545,0.017002219334244728,-0.8163370490074158,1.0764483213424683,-0.06268185377120972
13159,-0.04517897590994835,0.114578478038311,0.017003336921334267,-0.7824329733848572,1.2821077108383179,-0.059765126556158066
13169,-0.04626847803592682,0.1138676106929779,0.01709914207458496,-0.7147536277770996,1.3163379430770874,-0.059106580913066864
13179,-0.04513818025588989,0.11449798941612244,0.01727910339832306,-0.7197255492210388,1.2335927486419678,-0.05958450585603714
13189,-0.045113470405340195,0.11512912809848785,0.017362941056489944,-0.7257431149482727,1.2118959426879883,-0.060966312885284424
13199,-0.046407461166381836,0.11887841671705246,0.01708141714334488,-0.8940069675445557,1.2598862648010254,-0.057825252413749695
13209,-0.046813976019620895,0.1195763498544693,0.017124054953455925,-0.8938455581665039,1.2586616277694702,-0.057212021201848984
13219,-0.047232307493686676,0.11950986832380295,0.01723557338118553,-0.8537284135818481,1.2574045658111572,-0.05669579654932022
13229,-0.04696883261203766,0.12035838514566422,0.017308056354522705,-0.8630267381668091,1.2217395305633545,-0.057255037128925323
13239,-0.04786432534456253,0.1196497455239296,0.016844455152750015,-0.7894073724746704,1.2470483779907227,-0.05925147980451584
13249,-0.04826880991458893,0.12024030834436417,0.01686321385204792,-0.7888750433921814,1.246356725692749,-0.05897095054388046
13259,-0.048675134778022766,0.12083175778388977,0.01688140258193016,-0.7875896692276001,1.2452706098556519,-0.058528680354356766
13269,-0.04984777793288231,0.12070692330598831,0.01690797135233879,-0.7495552897453308,1.2833821773529053,-0.0593959204852581
13280,-0.04900548607110977,0.12159397453069687,0.01698967069387436,-0.7657831311225891,1.2135909795761108,-0.058552395552396774
13290,-0.04720206931233406,0.1177825778722763,0.01686333864927292,-0.5394941568374634,1.099333643913269,-0.0640430599451065
13299,-0.05205526947975159,0.11674667149782181,0.016818350180983543,-0.4679354429244995,1.3340977430343628,-0.0645008236169815
13309,-0.051987968385219574,0.11647287756204605,0.01687636785209179,-0.44241318106651306,1.3026015758514404,-0.06475690007209778
13319,-0.05287428945302963,0.11667653918266296,0.016872724518179893,-0.44118207693099976,1.3216345310211182,-0.06505187600851059
13330,-0.05679677054286003,0.11398434638977051,0.01597486436367035,-0.29538652300834656,1.494204044342041,-0.0676446482539177
13339,-0.057518038898706436,0.11400523036718369,0.015944192185997963,-0.29666921496391296,1.493382453918457,-0.0672212615609169
13349,-0.05787333846092224,0.11398274451494217,0.015913184732198715,-0.2954641878604889,1.5124330520629883,-0.06702140718698502
13359,-0.0577479749917984,0.11473127454519272,0.016030296683311462,-0.33118462562561035,1.4286097288131714,-0.06693337857723236
13369,-0.05841301381587982,0.11476881057024002,0.01601402461528778,-0.32818612456321716,1.427740454673767,-0.06648566573858261
13379,-0.06319653987884521,0.12073219567537308,0.01623147912323475,-0.6206641793251038,1.6290104389190674,-0.051537759602069855
13389,-0.06069058179855347,0.12728145718574524,0.016326285898685455,-0.9241258502006531,1.456760048866272,-0.043803706765174866
13399,-0.06029938906431198,0.12738198041915894,0.01646987348794937,-0.8937339186668396,1.4016085863113403,-0.046852197498083115
13409,-0.05942603573203087,0.12699466943740845,0.01670069806277752,-0.839727520942688,1.3236864805221558,-0.05092225596308708
13419,-0.06519375741481781,0.13202549517154694,0.0159510038793087,-1.0511630773544312,1.5737593173980713,-0.037992775440216064
13429,-0.06721501797437668,0.13405171036720276,0.015693295747041702,-1.1033340692520142,1.6260329484939575,-0.034184399992227554
13439,-0.06755415350198746,0.13390590250492096,0.015849553048610687,-1.0480178594589233,1.5937275886535645,-0.036678530275821686
13449,-0.06814167648553848,0.13402140140533447,0.01595255918800831,-1.0107678174972534,1.5741902589797974,-0.03771274909377098
13459,-0.06709210574626923,0.13391827046871185,0.01630987599492073,-0.962401270866394,1.4760658740997314,-0.04050759971141815
13469,-0.06213914230465889,0.12894056737422943,0.017451226711273193,-0.6816118359565735,1.1963670253753662,-0.05285666137933731
13479,-0.06092396378517151,0.1277238130569458,0.01762045919895172,-0.6010315418243408,1.115820050239563,-0.05622703954577446
13489,-0.06087970733642578,0.12860065698623657,0.01771240308880806,-0.62384033203125,1.0948430299758911,-0.05545750632882118
13499,-0.06084584444761276,0.1283307820558548,0.017827490344643593,-0.5911507606506348,1.077339768409729,-0.0562887005507946
13509,-0.06420296430587769,0.12601390480995178,0.0175780039280653,-0.46598339080810547,1.223827838897705,-0.06146889925003052
13519,-0.06469884514808655,0.1261788159608841,0.017654409632086754,-0.46604278683662415,1.2229605913162231,-0.06075000762939453
13529,-0.06519763171672821,0.1263374239206314,0.017731567844748497,-0.4661870002746582,1.2222626209259033,-0.061116207391023636
13539,-0.06508677452802658,0.1270594447851181,0.01784771867096424,-0.49167123436927795,1.1912825107574463,-0.06048325449228287
13549,-0.06555808335542679,0.12724623084068298,0.017996476963162422,-0.4911031723022461,1.1880418062210083,-0.06007041782140732
13559,-0.06542423367500305,0.1266624629497528,0.018109478056430817,-0.4555889070034027,1.1595134735107422,-0.061492983251810074
13569,-0.06530258059501648,0.12636084854602814,0.018220961093902588,-0.4347257614135742,1.1325548887252808,-0.06247633695602417
13579,-0.06520406156778336,0.12659014761447906,0.01833435520529747,-0.4397077262401581,1.108067274093628,-0.06292882561683655
13589,-0.07100208103656769,0.12478785961866379,0.018202509731054306,-0.35099509358406067,1.3597328662872314,-0.06170835345983505
13599,-0.07180030643939972,0.12601982057094574,0.017251085489988327,-0.4092770516872406,1.3655301332473755,-0.05992923676967621
13609,-0.07251852750778198,0.1260680854320526,0.01726345345377922,-0.40784427523612976,1.3637585639953613,-0.05974861606955528
13619,-0.07251852750778198,0.1260680854320526,0.01726345345377922,-0.40784427523612976,1.3637585639953613,-0.05974861606955528
13629,-0.07298962026834488,0.12553656101226807,0.01738862134516239,-0.3780410885810852,1.3167062997817993,-0.06030585244297981
13639,-0.07656294107437134,0.11958932876586914,0.0174042247235775,-0.08521267026662827,1.4916770458221436,-0.06659238785505295
13649,-0.07333817332983017,0.10929583758115768,0.017363863065838814,0.3544110357761383,1.2583461999893188,-0.08540640026330948
13659,-0.07333817332983017,0.10929583758115768,0.017363863065838814,0.3544110357761383,1.2583461999893188,-0.08540640026330948
13669,-0.07405688613653183,0.10979434847831726,0.01784578710794449,0.23969314992427826,1.2346442937850952,-0.08371789753437042
13679,-0.07381562143564224,0.11010169982910156,0.017532436177134514,0.2249428778886795,1.2241050004959106,-0.08362328261137009
13689,-0.07638262957334518,0.1078929528594017,0.017466647550463676,0.24850867688655853,1.2862887382507324,-0.08094710111618042
13699,-0.07305245846509933,0.10796448588371277,0.017687182873487473,0.2444797307252884,1.1242430210113525,-0.08751295506954193
13709,-0.072713203728199,0.10791267454624176,0.017857417464256287,0.20161202549934387,1.083648681640625,-0.08849184215068817
13719,-0.07165694236755371,0.10807538777589798,0.018087238073349,0.1485166996717453,1.009141206741333,-0.09080763906240463
13729,-0.0715046226978302,0.11084892600774765,0.01705733872950077,-0.025415722280740738,0.9889885187149048,-0.08713702857494354
13739,-0.07193658500909805,0.10763274133205414,0.016911886632442474,0.10393846035003662,0.9941641688346863,-0.08928187191486359
13749,-0.07213734090328217,0.10868165642023087,0.017064698040485382,0.01025239285081625,0.9887179732322693,-0.08816786110401154
13759,-0.07234328985214233,0.10970238596200943,0.017203882336616516,-0.07627633959054947,0.9827316403388977,-0.08837922662496567
13769,-0.07048396021127701,0.10788390785455704,0.01791982725262642,-0.017178256064653397,0.8740361928939819,-0.09532772749662399
13779,-0.07323553413152695,0.10864131897687912,0.01806529611349106,-0.09019949287176132,1.0012139081954956,-0.08785775303840637
13789,-0.07229024171829224,0.10893452167510986,0.01820167899131775,-0.1374763697385788,0.9351646900177002,-0.09213466197252274
13799,-0.07159879803657532,0.10898041725158691,0.018314791843295097,-0.1700972616672516,0.8871713280677795,-0.09518248587846756
13809,-0.07251331955194473,0.10987208783626556,0.018474314361810684,-0.24746470153331757,0.923631489276886,-0.0911378338932991
13819,-0.07690172642469406,0.10913564264774323,0.017010916024446487,-0.22793009877204895,1.1406279802322388,-0.07849273085594177
13829,-0.07357420027256012,0.10959620028734207,0.01721116341650486,-0.2765609323978424,0.944696307182312,-0.09077373892068863
13839,-0.07399491965770721,0.11050083488225937,0.01725330762565136,-0.3474401831626892,0.9540438652038574,-0.08999723941087723
13849,-0.07354623079299927,0.11052137613296509,0.017280692234635353,-0.3681979477405548,0.9163861274719238,-0.09197860956192017
13859,-0.07787135243415833,0.1110830083489418,0.018347665667533875,-0.4201868772506714,1.1284905672073364,-0.07981998473405838
13869,-0.07831266522407532,0.1107606291770935,0.018410824239253998,-0.4210524260997772,1.1270850896835327,-0.07876869291067123
13879,-0.0782799944281578,0.11011805385351181,0.018494071438908577,-0.4031434655189514,1.1011507511138916,-0.08055366575717926
13889,-0.07757555693387985,0.11059588938951492,0.018634513020515442,-0.4475395381450653,1.043769359588623,-0.08230588585138321
13899,-0.07732929289340973,0.11106888949871063,0.018744515255093575,-0.487627774477005,1.0135986804962158,-0.08461050689220428
13909,-0.07762279361486435,0.11082407832145691,0.01848052442073822,-0.48811304569244385,1.0144044160842896,-0.0855894610285759
13919,-0.07851434499025345,0.11202344298362732,0.01853621006011963,-0.5634594559669495,1.0449883937835693,-0.08505181968212128
13929,-0.07755827903747559,0.11112570017576218,0.018639059737324715,-0.5246173143386841,0.9770653247833252,-0.08764202892780304
13939,-0.07775741070508957,0.11183765530586243,0.01871437206864357,-0.573176920413971,0.9736440777778625,-0.08658111840486526
13949,-0.07793620228767395,0.11211119592189789,0.01807476207613945,-0.5938506722450256,0.9701952338218689,-0.08815210312604904
13959,-0.08191445469856262,0.11815237253904343,0.01803063414990902,-0.9136953949928284,1.1652635335922241,-0.08150780200958252
13969,-0.0821029394865036,0.11835206300020218,0.018072184175252914,-0.9103472232818604,1.1491587162017822,-0.08205929398536682
13979,-0.08316399902105331,0.11921413242816925,0.01801675371825695,-0.9407011866569519,1.1783297061920166,-0.08246994018554688
13989,-0.0863405391573906,0.12269823998212814,0.01695081777870655,-1.1039800643920898,1.317992925643921,-0.07884915918111801
13999,-0.08567791432142258,0.12289101630449295,0.01702844351530075,-1.0878454446792603,1.2487412691116333,-0.08038564026355743
14009,-0.08208436518907547,0.1183871477842331,0.01772427186369896,-0.8284758925437927,1.0302437543869019,-0.08279328048229218
14019,-0.08240514248609543,0.11854473501443863,0.01773400418460369,-0.8269466161727905,1.0310832262039185,-0.08236735314130783
14029,-0.08237618207931519,0.11920449137687683,0.017739703878760338,-0.8518455028533936,1.0121182203292847,-0.08197786659002304
14039,-0.08265597373247147,0.11939232796430588,0.017428899183869362,-0.8508618474006653,1.0117619037628174,-0.08230765908956528
14049,-0.07768768817186356,0.11464253813028336,0.017658554017543793,-0.596825361251831,0.7383207678794861,-0.08118235319852829
14059,-0.07762404531240463,0.1145070269703865,0.017668016254901886,-0.5986768007278442,0.7385606169700623,-0.08180718868970871
14069,-0.07739491015672684,0.11453679949045181,0.017676139250397682,-0.6091108918190002,0.7299686670303345,-0.08164699375629425
14079,-0.07841099053621292,0.11457392573356628,0.018263306468725204,-0.6165120601654053,0.7827677130699158,-0.082086481153965
14089,-0.07838956266641617,0.1144513264298439,0.018308620899915695,-0.6159137487411499,0.7803405523300171,-0.08165983110666275
14099,-0.07836131006479263,0.11432549357414246,0.018355054780840874,-0.6169577240943909,0.7804303765296936,-0.08175022155046463
14109,-0.08163147419691086,0.11573540419340134,0.01849009096622467,-0.690991222858429,0.9442761540412903,-0.08236847817897797
14119,-0.07892302423715591,0.11573486775159836,0.018355753272771835,-0.6928766369819641,0.8012186288833618,-0.08229511976242065
14129,-0.07890857756137848,0.11570554971694946,0.018397992476820946,-0.6907169222831726,0.8007021546363831,-0.0822211429476738
14140,-0.0789218619465828,0.11433161050081253,0.01843653991818428,-0.6269922852516174,0.7996085286140442,-0.08122994750738144
14149,-0.07892496138811111,0.11654170602560043,0.018522299826145172,-0.7366851568222046,0.7990371584892273,-0.08291694521903992
14159,-0.07866781949996948,0.11653394252061844,0.01856810972094536,-0.7338079810142517,0.787568211555481,-0.08368220925331116
14169,-0.07969469577074051,0.11885903030633926,0.01789671555161476,-0.8438934087753296,0.8399134874343872,-0.08730030059814453
14180,-0.07459203898906708,0.11778905987739563,0.017932459712028503,-0.7840785980224609,0.5926787853240967,-0.08543390035629272
14189,-0.07428819686174393,0.1178792417049408,0.017937973141670227,-0.783805251121521,0.5915926694869995,-0.08543171733617783
14200,-0.07397483289241791,0.11796946078538895,0.017943549901247025,-0.7835630774497986,0.5900545716285706,-0.0853475034236908
14209,-0.07969417423009872,0.12189488857984543,0.018146278336644173,-0.9669176936149597,0.8790870904922485,-0.09291602671146393
14220,-0.07970783114433289,0.11764942109584808,0.018338344991207123,-0.7489226460456848,0.8752784132957458,-0.08882343024015427
14229,-0.07941888272762299,0.12006756663322449,0.018358539789915085,-0.8606314063072205,0.8588844537734985,-0.09041301906108856
14240,-0.07942981272935867,0.11921648681163788,0.018417533487081528,-0.8103365898132324,0.8562458157539368,-0.0890093594789505
14249,-0.07940100878477097,0.12466409802436829,0.018346205353736877,-1.0632736682891846,0.8554364442825317,-0.09673238545656204
14260,-0.07889756560325623,0.11997313797473907,0.017137574031949043,-0.8174200654029846,0.8285458087921143,-0.09010525792837143
14269,-0.07765696942806244,0.12019003182649612,0.017086628824472427,-0.8202774524688721,0.7699108719825745,-0.0883367657661438
14280,-0.07768090069293976,0.11968035995960236,0.017053034156560898,-0.788443922996521,0.7772808074951172,-0.08873537182807922
14290,-0.07756705582141876,0.11980127543210983,0.017007721588015556,-0.7901144027709961,0.7753798365592957,-0.08839452266693115
14299,-0.07889013737440109,0.11874973773956299,0.017003290355205536,-0.7316810488700867,0.8460332155227661,-0.08852113783359528
14310,-0.0776417925953865,0.1187271773815155,0.016958508640527725,-0.7293767333030701,0.7874745726585388,-0.08849095553159714
14319,-0.0776674821972847,0.11971507966518402,0.016919752582907677,-0.7726938724517822,0.7946435809135437,-0.08959886431694031
14329,-0.07669664174318314,0.11846215277910233,0.016876492649316788,-0.7042930722236633,0.7541195750236511,-0.08723790943622589
14339,-0.07652758061885834,0.11848824471235275,0.016838962212204933,-0.704441487789154,0.7515752911567688,-0.08701641857624054
14349,-0.07772703468799591,0.12017311900854111,0.017332620918750763,-0.7789299488067627,0.814818799495697,-0.08991292864084244
14359,-0.07610148191452026,0.11752934753894806,0.017338203266263008,-0.6422808766365051,0.7385947108268738,-0.08437766134738922
14369,-0.07752597332000732,0.11848131567239761,0.017392773181200027,-0.6920046210289001,0.8200730085372925,-0.0875333920121193
14379,-0.07959993183612823,0.12079466879367828,0.01743045262992382,-0.8051268458366394,0.9293711185455322,-0.09239674359560013
14389,-0.07934269309043884,0.12678685784339905,0.015528596006333828,-1.0989257097244263,0.9158324003219604,-0.10000037401914597
14399,-0.07958033680915833,0.12472403049468994,0.0155802546069026,-0.9716936945915222,0.926878809928894,-0.09734410047531128
14410,-0.07957810163497925,0.1250586211681366,0.015481687150895596,-0.9705703854560852,0.9261941909790039,-0.09771494567394257
14419,-0.08052200078964233,0.12524273991584778,0.015385895036160946,-0.9605292081832886,0.9746577143669128,-0.09836661070585251
14429,-0.07933913171291351,0.1251867115497589,0.015332619659602642,-0.9381953477859497,0.9097177386283875,-0.09614475071430206
14439,-0.08351193368434906,0.12287338078022003,0.016015775501728058,-0.7998926639556885,1.1223045587539673,-0.10030123591423035
14449,-0.0837152972817421,0.12285391241312027,0.015966447070240974,-0.7914891839027405,1.119338035583496,-0.10092125833034515
14459,-0.08459274470806122,0.12397243082523346,0.015875359997153282,-0.8401895761489868,1.1519578695297241,-0.1012965589761734
14469,-0.0834621787071228,0.12193146347999573,0.015953633934259415,-0.7239021062850952,1.0773754119873047,-0.09862726181745529
14479,-0.08193941414356232,0.11437641829252243,0.016802385449409485,-0.33111441135406494,0.9859190583229065,-0.0931774452328682
14489,-0.07952245324850082,0.11660148948431015,0.01702110841870308,-0.46371975541114807,0.8572345972061157,-0.09023422747850418
14499,-0.07952608168125153,0.11683651059865952,0.017071867361664772,-0.48712074756622314,0.8625856637954712,-0.08942192047834396
14509,-0.07953686267137527,0.1159839928150177,0.017071248963475227,-0.4537687599658966,0.8664340376853943,-0.08861291408538818
14519,-0.07953275740146637,0.11770744621753693,0.01673327572643757,-0.556416928768158,0.8711609244346619,-0.08984646201133728
14529,-0.07531744986772537,0.11345425993204117,0.016602246090769768,-0.3445127308368683,0.6575490832328796,-0.08381478488445282
14539,-0.07532387971878052,0.11324828863143921,0.01663697510957718,-0.3545585572719574,0.6761069297790527,-0.08580125868320465
14549,-0.07553611695766449,0.11409484595060349,0.016765480861067772,-0.41715624928474426,0.703529417514801,-0.08784019947052002
14559,-0.07597357779741287,0.11014626920223236,0.016595296561717987,-0.22864192724227905,0.7429037690162659,-0.08573976159095764
14569,-0.07659117132425308,0.10952895879745483,0.01763816736638546,-0.22674602270126343,0.7888361811637878,-0.08666721731424332
14579,-0.07658691704273224,0.10932513326406479,0.017740510404109955,-0.24579739570617676,0.7979604601860046,-0.08606444299221039
14589,-0.07760556787252426,0.10993538796901703,0.017955895513296127,-0.3076580762863159,0.8620126247406006,-0.08623061329126358
14599,-0.07659560441970825,0.10952158272266388,0.018035059794783592,-0.3130964934825897,0.8154036402702332,-0.08607377111911774
14609,-0.08084117621183395,0.1058814749121666,0.018409309908747673,-0.14843441545963287,1.0497668981552124,-0.08052017539739609
14619,-0.0802445262670517,0.10545855760574341,0.018563229590654373,-0.16421601176261902,1.0117148160934448,-0.08096936345100403
14629,-0.08024729788303375,0.10563253611326218,0.018768059089779854,-0.2104160040616989,1.0084110498428345,-0.08167313039302826
14639,-0.08084485679864883,0.10640589892864227,0.019026950001716614,-0.2879088819026947,1.037302017211914,-0.08144306391477585
14649,-0.08004611730575562,0.10974608361721039,0.019324680790305138,-0.49747300148010254,0.9894943833351135,-0.08403535932302475
14659,-0.08102109283208847,0.11485942453145981,0.01954355463385582,-0.7889209389686584,1.0409749746322632,-0.08488399535417557
14669,-0.08111535757780075,0.11492019891738892,0.019688786938786507,-0.7868117094039917,1.041284203529358,-0.08506136387586594
14679,-0.08132556080818176,0.11575794219970703,0.01979013718664646,-0.8280999064445496,1.0471688508987427,-0.0857144370675087
14689,-0.08548209816217422,0.11910796165466309,0.019596077501773834,-1.0022608041763306,1.2663471698760986,-0.08250273019075394
14699,-0.08526922762393951,0.11934756487607956,0.018618827685713768,-0.9949362277984619,1.2332870960235596,-0.08295907080173492
14709,-0.08770044147968292,0.1255180686712265,0.018062233924865723,-1.3114006519317627,1.3485915660858154,-0.0792449489235878
14719,-0.0889333188533783,0.12552814185619354,0.018131280317902565,-1.269805669784546,1.386816143989563,-0.08007822930812836
14729,-0.0881456732749939,0.1249251514673233,0.018544718623161316,-1.1987100839614868,1.312022089958191,-0.07985278218984604
14739,-0.09077466279268265,0.12534447014331818,0.018219728022813797,-1.186585783958435,1.4300007820129395,-0.08090277016162872
14749,-0.08779912441968918,0.12455134838819504,0.01871062070131302,-1.107992172241211,1.2315220832824707,-0.0811161994934082
14759,-0.08781176060438156,0.12496902793645859,0.018796704709529877,-1.1010715961456299,1.2115528583526611,-0.08091186732053757
14769,-0.08783023059368134,0.12478611618280411,0.018943343311548233,-1.0614063739776611,1.192332148551941,-0.08018086105585098
14779,-0.08813559263944626,0.1252613067626953,0.01858355849981308,-1.0603530406951904,1.1907780170440674,-0.08030342310667038
14789,-0.092337965965271,0.131611630320549,0.018173396587371826,-1.3674356937408447,1.3942515850067139,-0.0750075951218605
14799,-0.08814695477485657,0.12950247526168823,0.018909063190221786,-1.2095251083374023,1.1385735273361206,-0.07356501370668411
