timestamp (ms),stateEstimate.x,stateEstimate.y,stateEstimate.z,stabilizer.roll,stabilizer.pitch,stabilizer.yaw
10669,0.0,0.0,0.0,0.0,0.0,0.0
10679,0.0,0.0,0.0,0.0,0.0,0.0
10689,0.0,0.0,0.0,0.0,0.0,0.0
10699,0.0,0.0,0.0,0.0,0.0,0.0
10709,0.0,0.0,0.0,0.0,0.0,0.0
10719,0.0,0.0,0.0,0.0,0.0,0.0
10729,0.0,0.0,0.0,0.0,0.0,0.0
10739,0.0,0.0,0.0,0.0,0.0,0.0
10749,0.0,0.0,0.0,0.0,0.0,0.0
10759,0.0,0.0,0.0,0.0,0.0,0.0
10769,0.0,0.0,0.0,0.0,0.0,0.0
10779,0.0,0.0,0.0,0.0,0.0,0.0
10789,0.0,0.0,0.0,0.0,0.0,0.0
10799,0.0,0.0,0.0,0.0,0.0,0.0
10809,0.0,0.0,0.0,0.0,0.0,0.0
10819,0.0,0.0,0.0,0.0,0.0,0.0
10829,0.0,0.0,0.0,0.0,0.0,0.0
10839,0.0,0.0,0.0,0.0,0.0,0.0
10849,0.0,0.0,0.0,0.0,0.0,0.0
10859,0.0,0.0,0.0,0.0,0.0,0.0
10869,0.0,0.0,0.0,0.0,0.0,0.0
10879,0.0,0.0,0.0,0.0,0.0,0.0
10889,0.0,0.0,0.0,0.0,0.0,0.0
10899,0.0,0.0,0.0,0.0,0.0,0.0
10909,0.0,0.0,0.0,0.0,0.0,0.0
10919,0.0,0.0,0.0,0.0,0.0,0.0
10929,0.0,0.0,0.0,0.0,0.0,0.0
10939,0.0,0.0,0.0,0.0,0.0,0.0
10949,0.0,0.0,0.0,0.0,0.0,0.0
10959,0.0,0.0,0.0,0.0,0.0,0.0
10969,0.0,0.0,0.0,0.0,0.0,0.0
10979,0.0,0.0,0.0,0.0,0.0,0.0
10989,0.0,0.0,0.0,0.0,0.0,0.0
10999,0.0,0.0,0.0,0.0,0.0,0.0
11009,0.0,0.0,0.0,0.0,0.0,0.0
11019,0.0,0.0,0.0,0.0,0.0,0.0
11029,0.0,0.0,0.0,0.0,0.0,0.0
11039,0.0,0.0,0.0,0.0,0.0,0.0
11049,0.0,0.0,0.0,0.0,0.0,0.0
11059,0.0,0.0,0.0,0.0,0.0,0.0
11069,0.0,0.0,0.0,0.0,0.0,0.0
11079,0.0,0.0,0.0,0.0,0.0,0.0
11089,0.0,0.0,0.0,0.0,0.0,0.0
11099,0.0,0.0,0.0,0.0,0.0,0.0
11109,0.0,0.0,0.0,0.0,0.0,0.0
11119,0.0,0.0,0.0,0.0,0.0,0.0
11129,0.0,0.0,0.0,0.0,0.0,0.0
11139,0.0,0.0,0.0,0.0,0.0,0.0
11149,0.0,0.0,0.0,0.0,0.0,0.0
11159,0.0,0.0,0.0,0.0,0.0,0.0
11169,0.0,0.0,0.0,0.0,0.0,0.0
11179,0.0,0.0,0.0,0.0,0.0,0.0
11189,0.0,0.0,0.0,0.0,0.0,0.0
11199,0.0,0.0,0.0,0.0,0.0,0.0
11209,0.0,0.0,0.0,0.0,0.0,0.0
11219,0.0,0.0,0.0,0.0,0.0,0.0
11229,0.0,0.0,0.0,0.0,0.0,0.0
11239,0.0,0.0,0.0,0.0,0.0,0.0
11249,0.0,0.0,0.0,0.0,0.0,0.0
11259,0.0,0.0,0.0,0.0,0.0,0.0
11269,0.0,0.0,0.0,0.0,0.0,0.0
11279,0.0,0.0,0.0,0.0,0.0,0.0
11289,0.0,0.0,0.0,0.0,0.0,0.0
11299,0.0,0.0,0.0,0.0,0.0,0.0
11309,0.0,0.0,0.0,0.0,0.0,0.0
11319,0.0,0.0,0.0,0.0,0.0,0.0
11329,0.0,0.0,0.0,0.0,0.0,0.0
11339,0.0,0.0,0.0,0.0,0.0,0.0
11349,0.0,0.0,0.0,0.0,0.0,0.0
11359,0.0,0.0,0.0,0.0,0.0,0.0
11369,0.0,0.0,0.0,0.0,0.0,0.0
11379,0.0,0.0,0.0,0.0,0.0,0.0
11389,0.0,0.0,0.0,0.0,0.0,0.0
11399,0.0,0.0,0.0,0.0,0.0,0.0
11409,0.0,0.0,0.0,0.0,0.0,0.0
11419,0.0,0.0,0.0,0.0,0.0,0.0
11429,0.0,0.0,0.0,0.0,0.0,0.0
11439,0.0,0.0,0.0,0.0,0.0,0.0
11449,0.0,0.0,0.0,0.0,0.0,0.0
11459,0.0,0.0,0.0,0.0,0.0,0.0
11469,0.0,0.0,0.0,0.0,0.0,0.0
11479,0.0,0.0,0.0,0.0,0.0,0.0
11489,0.0,0.0,0.0,0.0,0.0,0.0
11499,0.0,0.0,0.0,0.0,0.0,0.0
11509,0.0,0.0,0.0,0.0,0.0,0.0
11519,0.0,0.0,0.0,0.0,0.0,0.0
11529,0.0,0.0,0.0,0.0,0.0,0.0
11539,0.0,0.0,0.0,0.0,0.0,0.0
11549,0.0,0.0,0.0,0.0,0.0,0.0
11559,0.0,0.0,0.0,0.0,0.0,0.0
11569,0.0,0.0,0.0,0.0,0.0,0.0
11579,0.0,0.0,0.0,0.0,0.0,0.0
11589,0.0,0.0,0.0,0.0,0.0,0.0
11599,0.0,0.0,0.0,0.0,0.0,0.0
11609,0.0,0.0,0.0,0.0,0.0,0.0
11619,0.0,0.0,0.0,0.0,0.0,0.0
11629,0.0,0.0,0.0,0.0,0.0,0.0
11639,0.0,0.0,0.0,0.0,0.0,0.0
11649,0.0,0.0,0.0,0.0,0.0,0.0
11659,0.0,0.0,0.0,0.0,0.0,0.0
11669,0.0,0.0,0.0,0.0,0.0,0.0
11679,0.0,0.0,0.0,0.0,0.0,0.0
11689,0.0,0.0,0.0,0.0,0.0,0.0
11699,0.0,0.0,0.0,0.0,0.0,0.0
11709,0.0,0.0,0.0,0.0,0.0,0.0
11719,0.0,0.0,0.0,0.0,0.0,0.0
11729,0.0,0.0,0.0,0.0,0.0,0.0
11739,0.0,0.0,0.0,0.0,0.0,0.0
11749,0.0,0.0,0.0,0.0,0.0,0.0
11759,0.0,0.0,0.0,0.0,0.0,0.0
11769,0.0,0.0,0.0,0.0,0.0,0.0
11779,0.0,0.0,0.0,0.0,0.0,0.0
11789,0.0,0.0,0.0,0.0,0.0,0.0
11799,0.0,0.0,0.0,0.0,0.0,0.0
11809,0.0,0.0,0.0,0.0,0.0,0.0
11819,0.0,0.0,0.0,0.0,0.0,0.0
11829,0.0,0.0,0.0,0.0,0.0,0.0
11839,0.0,0.0,0.0,0.0,0.0,0.0
11849,0.0,0.0,0.0,0.0,0.0,0.0
11859,0.0,0.0,0.0,0.0,0.0,0.0
11869,0.0,0.0,0.0,0.0,0.0,0.0
11879,0.0,0.0,0.0,0.0,0.0,0.0
11889,0.0,0.0,0.0,0.0,0.0,0.0
11899,0.0,0.0,0.0,0.0,0.0,0.0
11909,0.0,0.0,0.0,0.0,0.0,0.0
11919,0.0,0.0,0.0,0.0,0.0,0.0
11929,0.0,0.0,0.0,0.0,0.0,0.0
11939,0.0,0.0,0.0,0.0,0.0,0.0
11949,0.0,0.0,0.0,0.0,0.0,0.0
11959,0.0,0.0,0.0,0.0,0.0,0.0
11969,0.0,0.0,0.0,0.0,0.0,0.0
11979,0.0,0.0,0.0,0.0,0.0,0.0
11989,0.0,0.0,0.0,0.0,0.0,0.0
11999,0.0,0.0,0.0,0.0,0.0,0.0
12009,0.0,0.0,0.0,0.0,0.0,0.0
12019,0.0,0.0,0.0,0.0,0.0,0.0
12029,0.0,0.0,0.0,0.0,0.0,0.0
12039,0.0,0.0,0.0,0.0,0.0,0.0
12049,0.0,0.0,0.0,0.0,0.0,0.0
12059,0.0,0.0,0.0,0.0,0.0,0.0
12069,0.0,0.0,0.0,0.0,0.0,0.0
12079,0.0,0.0,0.0,0.0,0.0,0.0
12089,0.0,0.0,0.0,0.0,0.0,0.0
12099,0.0,0.0,0.0,0.0,0.0,0.0
12109,0.0,0.0,0.0,0.0,0.0,0.0
12119,0.0,0.0,0.0,0.0,0.0,0.0
12129,0.0,0.0,0.0,0.0,0.0,0.0
12139,0.0,0.0,0.0,0.0,0.0,0.0
12149,0.0,0.0,0.0,0.0,0.0,0.0
12159,0.0,0.0,0.0,0.0,0.0,0.0
12169,0.0,0.0,0.0,0.0,0.0,0.0
12179,0.0,0.0,0.0,0.0,0.0,0.0
12189,0.0,0.0,0.0,0.0,0.0,0.0
12199,0.0,0.0,0.0,0.0,0.0,0.0
12209,0.0,0.0,0.0,0.0,0.0,0.0
12219,0.0,0.0,0.0,0.0,0.0,0.0
12229,0.0,0.0,0.0,0.0,0.0,0.0
12239,0.0,0.0,0.0,0.0,0.0,0.0
12249,0.0,0.0,0.0,0.0,0.0,0.0
12259,0.0,0.0,0.0,0.0,0.0,0.0
12269,0.0,0.0,0.0,0.0,0.0,0.0
12279,0.0,0.0,0.0,0.0,0.0,0.0
12289,0.0,0.0,0.0,0.0,0.0,0.0
12299,0.0,0.0,0.0,0.0,0.0,0.0
12309,0.0,0.0,0.0,0.0,0.0,0.0
12319,0.0,0.0,0.0,0.0,0.0,0.0
12329,0.0,0.0,0.0,0.0,0.0,0.0
12339,0.0,0.0,0.0,0.0,0.0,0.0
12349,0.0,0.0,0.0,0.0,0.0,0.0
12359,0.0,0.0,0.0,0.0,0.0,0.0
12369,0.0,0.0,0.0,0.0,0.0,0.0
12379,0.0,0.0,0.0,0.0,0.0,0.0
12389,0.0,0.0,0.0,0.0,0.0,0.0
12399,0.0,0.0,0.0,0.0,0.0,0.0
12409,0.0,0.0,0.0,0.0,0.0,0.0
12419,0.0,0.0,0.0,0.0,0.0,0.0
12429,0.0,0.0,0.0,0.0,0.0,0.0
12439,0.0,0.0,0.0,0.0,0.0,0.0
12449,0.0,0.0,0.0,0.0,0.0,0.0
12459,0.0,0.0,0.0,0.0,0.0,0.0
12469,0.0,0.0,0.0,0.0,0.0,0.0
12479,0.0,0.0,0.0,0.0,0.0,0.0
12489,0.0,0.0,0.0,0.0,0.0,0.0
12499,0.0,0.0,0.0,0.0,0.0,0.0
12509,0.0,0.0,0.0,0.0,0.0,0.0
12519,0.0,0.0,0.0,0.0,0.0,0.0
12529,0.0,0.0,0.0,0.0,0.0,0.0
12539,0.0,0.0,0.0,0.0,0.0,0.0
12549,0.0,0.0,0.0,0.0,0.0,0.0
12559,0.0,0.0,0.0,0.0,0.0,0.0
12569,0.0,0.0,0.0,0.0,0.0,0.0
12579,0.0,0.0,0.0,0.0,0.0,0.0
12589,0.0,0.0,0.0,0.0,0.0,0.0
12599,0.0,0.0,0.0,0.0,0.0,0.0
12609,0.0,0.0,0.0,0.0,0.0,0.0
12619,0.0,0.0,0.0,0.0,0.0,0.0
12629,0.0,0.0,0.0,0.0,0.0,0.0
12639,0.0,0.0,0.0,0.0,0.0,0.0
12649,0.0,0.0,0.0,0.0,0.0,0.0
12659,0.0,0.0,0.0,0.0,0.0,0.0
12669,0.0,0.0,0.0,0.0,0.0,0.0
12679,0.0,0.0,0.0,0.0,0.0,0.0
12689,0.0,0.0,0.0,0.0,0.0,0.0
12699,0.0,0.0,0.0,0.0,0.0,0.0
12709,0.0,0.0,0.0,0.0,0.0,0.0
12719,0.0,0.0,0.0,0.0,0.0,0.0
12729,0.0,0.0,0.0,0.0,0.0,0.0
12739,0.0,0.0,0.0,0.0,0.0,0.0
12749,0.0,0.0,0.0,0.0,0.0,0.0
12759,0.0,0.0,0.0,0.0,0.0,0.0
12769,0.0,0.0,0.0,0.0,0.0,0.0
12779,0.0,0.0,0.0,0.0,0.0,0.0
12789,0.0,0.0,0.0,0.0,0.0,0.0
12799,0.0,0.0,0.0,0.0,0.0,0.0
12809,0.0,0.0,0.0,0.0,0.0,0.0
12819,0.0,0.0,0.0,0.0,0.0,0.0
12829,0.0,0.0,0.0,0.0,0.0,0.0
12839,0.0,0.0,0.0,0.0,0.0,0.0
12849,0.0,0.0,0.0,0.0,0.0,0.0
12859,0.0,0.0,0.0,0.0,0.0,0.0
12869,0.0,0.0,0.0,0.0,0.0,0.0
12879,0.0,0.0,0.0,0.0,0.0,0.0
12889,0.0,0.0,0.0,0.0,0.0,0.0
12899,0.0,0.0,0.0,0.0,0.0,0.0
12909,0.0,0.0,0.0,0.0,0.0,0.0
12919,0.0,0.0,0.0,0.0,0.0,0.0
12929,0.0,0.0,0.0,0.0,0.0,0.0
12939,0.0,0.0,0.0,0.0,0.0,0.0
12949,0.0,0.0,0.0,0.0,0.0,0.0
12959,0.0,0.0,0.0,0.0,0.0,0.0
12969,0.0,0.0,0.0,0.0,0.0,0.0
12979,0.0,0.0,0.0,0.0,0.0,0.0
12989,0.0,0.0,0.0,0.0,0.0,0.0
12999,0.0,0.0,0.0,0.0,0.0,0.0
13009,0.0,0.0,0.0,0.0,0.0,0.0
13019,0.0,0.0,0.0,0.0,0.0,0.0
13029,0.0,0.0,0.0,0.0,0.0,0.0
13039,0.0,0.0,0.0,0.0,0.0,0.0
13049,0.0,0.0,0.0,0.0,0.0,0.0
13059,0.0,0.0,0.0,0.0,0.0,0.0
13069,0.0,0.0,0.0,0.0,0.0,0.0
13079,0.0,0.0,0.0,0.0,0.0,0.0
13089,0.0,0.0,0.0,0.0,0.0,0.0
13099,0.0,0.0,0.0,0.0,0.0,0.0
13109,0.0,0.0,0.0,0.0,0.0,0.0
13119,0.0,0.0,0.0,0.0,0.0,0.0
13129,0.0,0.0,0.0,0.0,0.0,0.0
13139,0.0,0.0,0.0,0.0,0.0,0.0
13149,0.0,0.0,0.0,0.0,0.0,0.0
13159,0.0,0.0,0.0,0.0,0.0,0.0
13169,0.0,0.0,0.0,0.0,0.0,0.0
13179,0.0,0.0,0.0,0.0,0.0,0.0
13189,0.0,0.0,0.0,0.0,0.0,0.0
13199,0.0,0.0,0.0,0.0,0.0,0.0
13209,0.0,0.0,0.0,0.0,0.0,0.0
13219,0.0,0.0,0.0,0.0,0.0,0.0
13229,-4.740886652143672e-05,-8.044047717703506e-06,-2.604298060759902e-06,0.0001412444544257596,-0.0007497137412428856,0.0007922914810478687
13239,-3.753740747924894e-05,-3.382115755812265e-05,1.2707043886184692,-0.0013227277668192983,-0.012256065383553505,-7.570938760181889e-05
13249,-3.799149635597132e-05,-7.988727884367108e-05,1.2706862688064575,-0.0029358258470892906,-0.01051332987844944,-0.0004781856550835073
13259,0.00010986790584865957,-9.883803431876004e-05,0.027991050854325294,-0.00927234161645174,-0.03254064545035362,-0.0003888276405632496
13269,0.00017186865443363786,-0.00017279628082178533,0.027955777943134308,-0.009733607992529869,-0.03352925181388855,-0.0010693715885281563
13279,5.0453490985091776e-06,-0.00023670009977649897,0.02793291211128235,-0.022556625306606293,0.0691760927438736,-0.0007599343662150204
13289,0.000196678884094581,-0.00030429376056417823,0.027881907299160957,-0.03847840055823326,0.0038369689136743546,-0.0013307647313922644
13299,0.0002737688191700727,-0.0004225204756949097,0.02791491523385048,-0.036853231489658356,0.005619321018457413,-0.001503920997492969
13309,0.0006554875872097909,-0.0004896627506241202,0.02784593775868416,-0.06572843343019485,-0.10853059589862823,-0.0019898060709238052
13319,0.0005953391082584858,-0.0005564526072703302,0.027785059064626694,-0.09638037532567978,-0.02986404299736023,-0.002004665322601795
13329,0.0005105564487166703,-0.0006183183868415654,0.02771489880979061,-0.12917853891849518,0.049184199422597885,-0.0015779011882841587
13340,0.00011815504694823176,-0.0006690589943900704,0.02764270454645157,-0.1693221479654312,0.22428229451179504,-0.0002613082469906658
13349,-0.0004759594739880413,-0.0007336395210586488,0.028076685965061188,-0.2079589068889618,0.43935298919677734,0.0005795719916932285
13359,-0.0003142233763355762,-0.00028387390193529427,0.028002118691802025,-0.40249568223953247,0.3819738030433655,0.0023138585966080427
13369,0.0007182807312346995,-0.0008234062697738409,0.02790829911828041,-0.27135834097862244,0.07294810563325882,0.0012469844659790397
13379,0.00019948362023569643,4.316447302699089e-05,0.027839835733175278,-0.5664209723472595,0.2621103823184967,0.0018382987473160028
13389,0.000579879735596478,-0.0009005386964417994,0.027416188269853592,-0.3240986764431,0.17728453874588013,0.0009962577605620027
13399,0.00040277227526530623,-0.0013039475306868553,0.027280524373054504,-0.26561522483825684,0.2519500255584717,0.0014451692113652825
13409,0.00021021590509917587,7.460951746907085e-05,0.027176374569535255,-0.6621236205101013,0.32222285866737366,0.0027190614491701126
13419,0.00042138269054703414,-0.0009549090755172074,0.02703091874718666,-0.43097326159477234,0.2873634397983551,0.0022724673617631197
13429,0.0008458831580355763,-0.0009688134305179119,0.027718519791960716,-0.46629059314727783,0.21015991270542145,0.0024874715600162745
13439,0.0008433412294834852,-0.0005409310106188059,0.027627037838101387,-0.5967492461204529,0.23996910452842712,0.003916250541806221
13449,0.0008450642344541848,-0.000975675939116627,0.0275274608284235,-0.5310454964637756,0.26445695757865906,0.0035058727953583
13459,0.0008373243035748601,-0.0007454376900568604,0.027434049174189568,-0.6088550090789795,0.2909611463546753,0.0031084539368748665
13469,-0.0002852406178135425,-0.0005182574968785048,0.027350258082151413,-0.6753178238868713,0.524647057056427,0.004552572034299374
13480,0.0003978424647357315,-0.0016488406108692288,0.027969716116786003,-0.4880695939064026,0.40026259422302246,0.002962651662528515
13490,0.0001660834823269397,-0.0011760812485590577,0.02792980708181858,-0.6056005954742432,0.45160236954689026,0.0032996598165482283
13500,0.00016403455811087042,-0.0002466650912538171,0.02788887917995453,-0.7858371734619141,0.4595276415348053,0.0028116137254983187
13509,0.000627397617790848,-0.0009368587052449584,0.027837924659252167,-0.6863948106765747,0.3930109441280365,0.0011013756738975644
13520,0.0007197061786428094,-0.0010709058260545135,0.030073944479227066,-0.6850847005844116,0.39386311173439026,0.0024774912744760513
13530,0.0006979521713219583,0.001308587146922946,0.030186818912625313,-1.0601686239242554,0.41027405858039856,0.005074086133390665
13540,-8.642887405585498e-05,-0.001011537853628397,0.03034532070159912,-0.7145014405250549,0.5343078970909119,0.001976012485101819
13550,0.0004233352665323764,-0.0007247311878018081,0.030452530831098557,-0.7722408771514893,0.4665367305278778,0.004348980728536844
13560,0.0009170933626592159,-0.0009570319671183825,0.03079705871641636,-0.7561604380607605,0.4090409278869629,0.003962174989283085
13570,0.0008889264427125454,0.0026683048345148563,0.030943775549530983,-1.2418270111083984,0.42465442419052124,0.008608833886682987
13580,-0.00015401619020849466,6.417708209482953e-05,0.031176790595054626,-0.8908766508102417,0.565464973449707,0.00528292590752244
13590,0.00035526001011021435,-0.000946838641539216,0.03130748122930527,-0.7725076675415039,0.5036585927009583,0.0023135601077228785
13600,0.0008472464396618307,-0.0009222921216860414,0.030793633311986923,-0.7904803156852722,0.45165321230888367,0.0041472394950687885
13610,0.000833375146612525,-0.0014005766715854406,0.030877111479640007,-0.750379204750061,0.4616975486278534,0.0031147352419793606
13619,0.0008178394054993987,-0.0011100168339908123,0.030970385298132896,-0.8021355867385864,0.4726203680038452,0.0028767301701009274
13630,0.0008986031170934439,-0.0012419064296409488,0.03105689026415348,-0.8029268980026245,0.4718724489212036,0.0028132472652941942
13639,-0.0002395502815488726,-2.160452277166769e-05,0.031171943992376328,-0.9537160396575928,0.6028621792793274,0.004445117432624102
13649,-0.0002379496581852436,-7.206703594420105e-05,0.02983841672539711,-0.9535861611366272,0.6037825345993042,0.0038908638525754213
13659,0.0003037925052922219,-0.0008650693343952298,0.029849287122488022,-0.877973198890686,0.5479567646980286,0.0018590949475765228
13669,0.0007383975316770375,-0.0004750790249090642,0.029858142137527466,-0.9279757142066956,0.5099568963050842,0.0018979159649461508
13679,0.0008046798757277429,-0.0005525858141481876,0.029862724244594574,-0.9272288680076599,0.5114544630050659,0.0003926398931071162
13689,0.0007815222488716245,-0.0007898291223682463,0.030779266729950905,-0.9126121401786804,0.521680474281311,0.001104325638152659
13699,0.00045990696526132524,5.2151965064695105e-05,0.030889973044395447,-0.9940215945243835,0.5555896759033203,0.0015640362398698926
13709,0.0005058108945377171,9.898456482915208e-06,0.03094506449997425,-0.9930621981620789,0.5544671416282654,0.0011626837076619267
13719,0.0007492931326851249,-0.0007564625702798367,0.031000662595033646,-0.927882730960846,0.5379505753517151,-0.0007372500258497894
13729,0.0008161714067682624,-0.0008619822328910232,0.029784822836518288,-0.9270098805427551,0.5368137955665588,-0.001305336132645607
13739,0.0005090954946354032,1.5898716810625046e-05,0.029779070988297462,-1.0109357833862305,0.5682119727134705,-0.0011043008416891098
13749,0.000498516543302685,0.006016789004206657,0.029756952077150345,-1.5180622339248657,0.5707187056541443,0.0064926291815936565
13759,0.0005367934354580939,0.006352439057081938,0.02974141761660576,-1.5161820650100708,0.569945752620697,0.00643069576472044
13769,-0.0009217814076691866,0.007666887249797583,0.02967044897377491,-1.5930404663085938,0.6895723938941956,0.0067379712127149105
13779,0.0008253517444245517,0.004924839828163385,0.029943469911813736,-1.346150279045105,0.5477914810180664,0.003019910305738449
13789,0.0008830679580569267,0.0051495530642569065,0.029943687841296196,-1.3444385528564453,0.5459378957748413,0.002483427058905363
13799,0.0005574696115218103,0.005054148845374584,0.029954923316836357,-1.320547342300415,0.5750161409378052,0.0026069385930895805
13809,0.0014511789195239544,0.003446057438850403,0.03000418096780777,-1.1845115423202515,0.5104168057441711,0.0012683167587965727
13819,0.0019976943731307983,0.00399025809019804,0.02999960631132126,-1.2146556377410889,0.47771114110946655,0.0020329952239990234
13829,-0.00040734821232035756,0.0004045350942760706,0.03007005713880062,-0.9489113092422485,0.6577312350273132,-0.006671126000583172
13839,-0.0006885380134917796,0.006137330550700426,0.030154716223478317,-1.3528958559036255,0.6749368906021118,-0.0008029009914025664
13849,-0.00181896414142102,0.007469065021723509,0.03011932782828808,-1.425377368927002,0.7498155832290649,-0.0016614599153399467
13859,-0.0017784442752599716,0.0065092965960502625,0.029316287487745285,-1.3403544425964355,0.7397826313972473,-0.00315560563467443
13869,-0.009342540986835957,0.008666577748954296,0.0291486494243145,-1.4662994146347046,1.2336245775222778,-0.009609885513782501
13879,-0.0037832786329090595,0.007767091039568186,0.029543794691562653,-1.3826792240142822,0.8392861485481262,-0.005874081049114466
13889,-0.003723593195900321,0.006571747362613678,0.029574628919363022,-1.2855949401855469,0.8228270411491394,-0.007992577739059925
13900,0.004704396240413189,0.0018807135056704283,0.030776655301451683,-0.9546241164207458,0.25414589047431946,-0.0036921051796525717
13909,0.005037697963416576,0.0017943962011486292,0.030823754146695137,-0.9535253047943115,0.25278037786483765,-0.004680301062762737
13919,0.005412504076957703,0.0016954562161117792,0.030875708907842636,-0.9530808925628662,0.25270307064056396,-0.005015381146222353
13929,0.004395985975861549,0.0020293937996029854,0.03100373037159443,-0.9791384339332581,0.3345896005630493,-0.006413630675524473
13939,0.004598918836563826,0.0025919072795659304,0.031074799597263336,-1.0158240795135498,0.33686915040016174,-0.0058259544894099236
13949,0.004781879484653473,0.00287343910895288,0.030705807730555534,-1.0347106456756592,0.3427344560623169,-0.007032007910311222
13959,-0.000596294121351093,0.010066590271890163,0.03096531331539154,-1.4490702152252197,0.6694586277008057,-0.006972060073167086
13969,0.0021708947606384754,0.007181772496551275,0.03119693696498871,-1.2628812789916992,0.5089038610458374,-0.007166251074522734
13979,0.002663898514583707,0.0029556311201304197,0.031350839883089066,-1.0119208097457886,0.4865577220916748,-0.011430323123931885
13989,0.0050409031100571156,0.0010591213358566165,0.030415428802371025,-0.91252601146698,0.3614748418331146,-0.010666120797395706
13999,0.005239706486463547,0.0008347351686097682,0.030422337353229523,-0.9111093282699585,0.36194297671318054,-0.011473536491394043
14009,0.004091287963092327,0.0016867837402969599,0.030505120754241943,-0.9647169709205627,0.440939337015152,-0.011883086524903774
14019,0.004286498762667179,0.0015717606293037534,0.030519306659698486,-0.9633273482322693,0.44157174229621887,-0.011389444582164288
14029,0.0050437492318451405,0.0007407544180750847,0.029039356857538223,-0.927082896232605,0.41274189949035645,-0.012443211860954762
14039,0.004207141697406769,0.0018346395809203386,0.029003530740737915,-0.9933221340179443,0.4672697186470032,-0.014164927415549755
14049,0.0011477305088192225,-3.274861956015229e-05,0.028950447216629982,-0.9017654657363892,0.6371221542358398,-0.018900377675890923
14059,0.0011489917524158955,-0.0010248729959130287,0.028851140290498734,-0.860531747341156,0.6371737122535706,-0.019951196387410164
14069,-0.0001684230228420347,0.0009038448333740234,0.028840230777859688,-0.9695568084716797,0.702380359172821,-0.020177925005555153
14079,0.0016318627167493105,-0.001116154482588172,0.028415795415639877,-0.8738173842430115,0.6065579056739807,-0.019693873822689056
14089,0.0026543918065726757,-0.0013158777728676796,0.02832876890897751,-0.8744164109230042,0.55675208568573,-0.01928729936480522
14099,0.0026437551714479923,-0.0020164784509688616,0.028225624933838844,-0.851772129535675,0.5594744682312012,-0.020538844168186188
14109,0.001860307645983994,8.260247705038637e-05,0.02822801098227501,-0.9696366786956787,0.602632999420166,-0.020245634019374847
14119,0.001855558017268777,0.0013498900225386024,0.028488928452134132,-1.0387223958969116,0.6041984558105469,-0.018441904336214066
14129,0.0011036345968022943,0.0016097752377390862,0.028421055525541306,-1.053707480430603,0.6435142159461975,-0.019702717661857605
14139,0.0025833898689597845,0.00013571901945397258,0.028376387432217598,-0.9807215332984924,0.5676667094230652,-0.021548869088292122
14149,0.0028149348217993975,0.00039844715502113104,0.02831454761326313,-0.9993454217910767,0.5589346289634705,-0.022934237495064735
14159,0.0018226500833407044,0.0013932815054431558,0.02991332858800888,-1.053727626800537,0.6126313209533691,-0.022274237126111984
14169,-0.0032665706239640713,0.005761787295341492,0.029933087527751923,-1.273745059967041,0.8663380742073059,-0.020240260288119316
14179,0.0015587734524160624,0.000938180775847286,0.03041818179190159,-1.0233678817749023,0.6119571328163147,-0.02332337200641632
14189,0.0015723519027233124,0.0008586672483943403,0.030482320114970207,-1.0211743116378784,0.6103660464286804,-0.02341025322675705
14199,0.0008171158842742443,0.0016318567795678973,0.030553916469216347,-1.0654504299163818,0.648070216178894,-0.02374286949634552
14209,0.0018387899035587907,-0.0001317746500717476,0.0299350768327713,-0.9807571768760681,0.5959851741790771,-0.02611590176820755
14219,0.001865500002168119,-0.0002684326027520001,0.029963407665491104,-0.981560468673706,0.5953549742698669,-0.025637054815888405
14229,0.0015945188933983445,0.0013513778103515506,0.030019991099834442,-1.067789077758789,0.6092278957366943,-0.024331696331501007
14239,0.002111336449161172,-0.00020402041263878345,0.03004542924463749,-0.9923545122146606,0.5834420323371887,-0.026384079828858376
14249,0.0008074177894741297,0.0018965754425153136,0.029230985790491104,-1.100812315940857,0.6496105790138245,-0.024031678214669228
14259,-0.006036629434674978,0.003937447909265757,0.02916521020233631,-1.202191948890686,0.9834481477737427,-0.026156926527619362
14269,-0.006431578192859888,0.004029766656458378,0.029138829559087753,-1.2021290063858032,0.9839067459106445,-0.02665618062019348
14279,-0.005437519866973162,0.0037173526361584663,0.02921200729906559,-1.1816351413726807,0.9154993891716003,-0.026839911937713623
14289,-0.0059021697379648685,0.003202709835022688,0.029529709368944168,-1.1512223482131958,0.9224034547805786,-0.02751455456018448
14299,-0.005505605600774288,-9.124257485382259e-05,0.029581841081380844,-0.9881409406661987,0.8855015635490417,-0.03315671905875206
14309,-0.005705973133444786,-0.0015657719923183322,0.02956681326031685,-0.9225113391876221,0.8775060772895813,-0.034887466579675674
14319,-0.005607303231954575,0.001160236424766481,0.029667088761925697,-1.0633125305175781,0.8580248951911926,-0.031904011964797974
14329,-0.004354286473244429,-0.0025052991695702076,0.029715683311223984,-0.8883435726165771,0.7838768362998962,-0.03712714836001396
14339,-0.006354903802275658,0.0028288813773542643,0.028714515268802643,-1.1571333408355713,0.8707459568977356,-0.029266057536005974
14349,-0.005617352202534676,0.0004367734072729945,0.0287312101572752,-1.0391043424606323,0.8220509886741638,-0.033674683421850204
14359,-0.005803156644105911,-4.752659151563421e-05,0.028691774234175682,-1.0224719047546387,0.820215106010437,-0.033799394965171814
14369,-0.004604073707014322,0.003974502440541983,0.028744420036673546,-1.221806526184082,0.7495229244232178,-0.027351152151823044
14379,-0.00461822934448719,0.004958920180797577,0.029999421909451485,-1.2630375623703003,0.7381068468093872,-0.02568540908396244
14389,-0.00556961540132761,0.002988698659464717,0.030074113979935646,-1.1613681316375732,0.7752507925033569,-0.029503116384148598
14399,-0.0036000264808535576,0.0037129411939531565,0.030146082863211632,-1.1940202713012695,0.6703546047210693,-0.02658928744494915
14409,-0.003342081792652607,0.0034613257739692926,0.03019081801176071,-1.1764353513717651,0.6510440707206726,-0.028032923117280006
14419,-0.0037896051071584225,0.002963649109005928,0.02976870909333229,-1.1485936641693115,0.6685348749160767,-0.029514886438846588
14429,-0.004727824125438929,0.0051094298250973225,0.029771313071250916,-1.2493205070495605,0.7078205347061157,-0.026502002030611038
14439,-0.003999799489974976,0.0032051962334662676,0.029842516407370567,-1.1506757736206055,0.6640012860298157,-0.028880726546049118
14449,-0.003986427094787359,0.002964462386444211,0.029864832758903503,-1.1364004611968994,0.6588634848594666,-0.028352610766887665
14460,-0.003756228368729353,0.0029780662152916193,0.03033163957297802,-1.137140154838562,0.6405821442604065,-0.03043147176504135
14469,-0.0042162248864769936,0.0036764275282621384,0.03037787228822708,-1.1678032875061035,0.6583967804908752,-0.029762377962470055
14480,-0.002807504730299115,0.002972526242956519,0.030442751944065094,-1.1315968036651611,0.5853794813156128,-0.02952072210609913
14489,-0.003504182444885373,0.0029769246466457844,0.030499694868922234,-1.1314177513122559,0.6162332892417908,-0.030567916110157967
14500,-0.003563608042895794,0.0029821256175637245,0.03055415116250515,-1.1299153566360474,0.6163637042045593,-0.030491506680846214
14509,-0.0033147220965474844,0.003229215508326888,0.030792783945798874,-1.1410484313964844,0.6025834679603577,-0.030166929587721825
14520,-0.004277641884982586,0.003710893914103508,0.030860314145684242,-1.1605846881866455,0.644914984703064,-0.030801961198449135
14529,-0.005231373477727175,0.0041894069872796535,0.03091926872730255,-1.180086612701416,0.6858641505241394,-0.031936123967170715
14540,-0.0032950981985777617,0.0034591960720717907,0.031034113839268684,-1.1402329206466675,0.5886080265045166,-0.03307575359940529
14549,-0.0037619154900312424,0.0036829954478889704,0.030684206634759903,-1.148667812347412,0.6106898784637451,-0.03449798747897148
14560,0.0004972432507202029,0.008876747451722622,0.030707823112607002,-1.385500192642212,0.41317346692085266,-0.028261233121156693
14569,0.003998704254627228,0.008825337514281273,0.030645379796624184,-1.3667900562286377,0.26197555661201477,-0.028871221467852592
14580,0.0051166038028895855,0.007622492033988237,0.03071199357509613,-1.2963130474090576,0.23044472932815552,-0.030454734340310097
14590,0.005074650980532169,0.008056956343352795,0.030457399785518646,-1.307068943977356,0.252268522977829,-0.03272455558180809
14600,0.0050242082215845585,0.0094135208055377,0.030470948666334152,-1.3562062978744507,0.275466650724411,-0.03356478735804558
14610,0.0029120859690010548,0.009160910733044147,0.03065413609147072,-1.3286824226379395,0.39189502596855164,-0.03627055138349533
14619,0.004031868651509285,0.00890905037522316,0.03067592717707157,-1.3027219772338867,0.35108113288879395,-0.035764288157224655
14630,0.004355526063591242,0.009161354042589664,0.03070472739636898,-1.3018977642059326,0.35079020261764526,-0.03634310141205788
14639,0.005017492454499006,0.008352382108569145,0.02956259250640869,-1.255107045173645,0.33488401770591736,-0.037442248314619064
14650,0.01167849637567997,0.0121402433142066,0.02919994667172432,-1.4179878234863281,0.048068415373563766,-0.033030394464731216
14659,0.011571982875466347,0.01232439186424017,0.029238024726510048,-1.4063472747802734,0.08696626126766205,-0.034046925604343414
14670,0.01227310299873352,0.012726986780762672,0.029176946729421616,-1.406497597694397,0.08645717799663544,-0.03496929630637169
14679,0.011894671246409416,0.013420281000435352,0.02954331412911415,-1.4182263612747192,0.13558736443519592,-0.03655065968632698
14690,0.014004566706717014,0.012833316810429096,0.029455602169036865,-1.3722692728042603,0.06994597613811493,-0.035069938749074936
14699,0.012148475274443626,0.012527788057923317,0.029700659215450287,-1.3398586511611938,0.18899530172348022,-0.037365030497312546
14710,0.011797362938523293,0.012233567424118519,0.029785869643092155,-1.3110758066177368,0.23286493122577667,-0.03850734606385231
14719,0.01073040533810854,0.012657636776566505,0.029506037011742592,-1.3171706199645996,0.3050607740879059,-0.03883280232548714
14730,0.004197014030069113,0.012625550851225853,0.02976285107433796,-1.300339937210083,0.6239147782325745,-0.04477715492248535
14739,0.0017959119286388159,0.016152476891875267,0.029601745307445526,-1.4478635787963867,0.737591028213501,-0.04923034831881523
14749,0.0018127916846424341,0.015164622105658054,0.02968469448387623,-1.3796718120574951,0.7342802286148071,-0.048557575792074203
14759,0.0017603046726435423,0.015560188330709934,0.02966991998255253,-1.3794302940368652,0.7332717776298523,-0.04872467368841171
14769,0.0017408031271770597,0.016013778746128082,0.03071919083595276,-1.3783286809921265,0.732528567314148,-0.04974015802145004
14779,0.0004361949395388365,0.01147750485688448,0.030939700081944466,-1.1510111093521118,0.7907893657684326,-0.05045998468995094
14789,-5.0755159463733435e-05,0.012478750199079514,0.030979787930846214,-1.1900365352630615,0.8059164881706238,-0.05126408860087395
14799,0.0015161491464823484,0.01115549448877573,0.031133810058236122,-1.1198115348815918,0.7274962663650513,-0.050265196710824966
14809,-0.0005077588139101863,0.01163983903825283,0.03110426850616932,-1.1369346380233765,0.8175497055053711,-0.052224114537239075
14819,-0.007464691996574402,0.015356939285993576,0.03092675842344761,-1.3023269176483154,1.1288121938705444,-0.057582393288612366
14829,-0.00487569160759449,0.012821915559470654,0.0313529372215271,-1.169825792312622,0.9833661913871765,-0.05713400989770889
14839,-0.004312749486416578,0.011812831275165081,0.03149852529168129,-1.116167426109314,0.937646746635437,-0.05708206072449684
14849,-0.004240184556692839,0.012445892207324505,0.029727373272180557,-1.1437536478042603,0.9190660715103149,-0.057311542332172394
14859,-0.005638612434267998,0.015094024129211903,0.029642365872859955,-1.2592045068740845,0.9676803350448608,-0.05793723836541176
14869,-0.0034223946277052164,0.011930478736758232,0.02984745427966118,-1.0994839668273926,0.8481051921844482,-0.059054166078567505
14879,-0.004340728744864464,0.012634656392037868,0.029811333864927292,-1.128199815750122,0.8786237239837646,-0.05844968929886818
14889,-0.004213836509734392,0.01247043814510107,0.02908174879848957,-1.115309476852417,0.8595691919326782,-0.05915126949548721
14899,-0.0044794329442083836,0.012567988596856594,0.029027890413999557,-1.115317940711975,0.8576017022132874,-0.06018028035759926
14909,-0.005376568995416164,0.01349139679223299,0.028951473534107208,-1.1524534225463867,0.8855311274528503,-0.060030657798051834
14919,-0.0032887491397559643,0.012236024253070354,0.029045041650533676,-1.0903056859970093,0.7819687128067017,-0.060574810951948166
14929,-0.0034905998036265373,0.01158206071704626,0.028995748609304428,-1.0540785789489746,0.7832680344581604,-0.061519235372543335
14939,-0.00435355631634593,0.013109307736158371,0.028964806348085403,-1.1263443231582642,0.8149181604385376,-0.06114412844181061
14949,-0.004773861728608608,0.015272285789251328,0.02889562025666237,-1.2258429527282715,0.825504720211029,-0.05813820660114288
14959,-0.0040924749337136745,0.008638203144073486,0.029028071090579033,-0.8892504572868347,0.7675706148147583,-0.06589607149362564
14969,-0.0040924749337136745,0.008638203144073486,0.029028071090579033,-0.8892504572868347,0.7675706148147583,-0.06589607149362564
14979,-0.004978565499186516,0.009561455808579922,0.029015514999628067,-0.9401103854179382,0.8029953241348267,-0.06465714424848557
14989,-0.0036189325619488955,0.010469906963407993,0.029035503044724464,-0.9887988567352295,0.7237627506256104,-0.06291496008634567
14999,-0.00383308925665915,0.008912748657166958,0.028991542756557465,-0.9121310710906982,0.7283077239990234,-0.06389930844306946
15009,-0.004936906509101391,0.009819000028073788,0.028981829062104225,-0.9638188481330872,0.7750495076179504,-0.06311377137899399
15019,-0.004030147101730108,0.00894082710146904,0.02860724925994873,-0.9250313639640808,0.7227976322174072,-0.06431904435157776
15029,-0.004894261714071035,0.008954644203186035,0.0285581536591053,-0.9334073066711426,0.757122814655304,-0.0637034997344017
15039,-0.004680896643549204,0.010484594851732254,0.028544075787067413,-1.0163096189498901,0.7339256405830383,-0.06276063621044159
15049,-0.0048879701644182205,0.01005331240594387,0.028496375307440758,-0.9961972236633301,0.7345292568206787,-0.06300465017557144
15059,-0.003794281277805567,0.008975286968052387,0.02846435271203518,-0.9441553354263306,0.6721546053886414,-0.06382089108228683
15069,-0.0039834692142903805,0.008760998025536537,0.027844103053212166,-0.9398993849754333,0.6773863434791565,-0.06481180340051651
15079,-0.002908715745434165,0.013036957010626793,0.027846921235322952,-1.156508207321167,0.6183478832244873,-0.061146557331085205
15089,-0.001412061508744955,0.012390673160552979,0.027785206213593483,-1.1178874969482422,0.5425724387168884,-0.062257591634988785
15099,-0.003744138404726982,0.014086363837122917,0.027740372344851494,-1.1962450742721558,0.6582769751548767,-0.05969185382127762
15109,-0.0033195584546774626,0.014082887209951878,0.027809804305434227,-1.1875090599060059,0.6346670389175415,-0.05998300388455391
15119,-0.003949820529669523,0.01366384606808424,0.027768079191446304,-1.157470703125,0.6623615622520447,-0.06088590249419212
15129,0.00022877288574818522,0.014074315316975117,0.027735061943531036,-1.1707829236984253,0.4520718455314636,-0.06266839057207108
15139,0.0006432492518797517,0.01344651635736227,0.027692073956131935,-1.130686640739441,0.439289927482605,-0.06401181221008301
15149,0.0006418038974516094,0.014894171617925167,0.02776886150240898,-1.1965737342834473,0.4498034715652466,-0.06277415156364441
15159,-0.0003960839530918747,0.014896693639457226,0.02776440605521202,-1.1866346597671509,0.5092325806617737,-0.06196059659123421
15169,1.3682489225175232e-05,0.015095428563654423,0.027713321149349213,-1.1849589347839355,0.49400433897972107,-0.06298088282346725
15179,0.0002176604320993647,0.014479928649961948,0.027692556381225586,-1.1439820528030396,0.4916224777698517,-0.06318990886211395
15189,0.001240451936610043,0.014481296762824059,0.027628840878605843,-1.135319471359253,0.44824719429016113,-0.0642012432217598
15199,-0.000587505754083395,0.015096914023160934,0.027812695130705833,-1.1580506563186646,0.5471801161766052,-0.06350461393594742
15209,-0.005848953500390053,0.020576491951942444,0.027721259742975235,-1.42167067527771,0.8117275834083557,-0.05921339988708496
15219,0.00019860338943544775,0.014334280043840408,0.028666358441114426,-1.0837143659591675,0.4955010712146759,-0.06526400148868561
15229,0.0012052587699145079,0.013329794630408287,0.028675291687250137,-1.0312663316726685,0.4513393044471741,-0.06533613801002502
15239,0.00040111233829520643,0.015166609548032284,0.029287265613675117,-1.124352216720581,0.5039731860160828,-0.06381653994321823
15249,-0.00039853082853369415,0.01657581329345703,0.029355524107813835,-1.190106987953186,0.5502991080284119,-0.06342527270317078
15259,0.00020022870739921927,0.015180456452071667,0.029457731172442436,-1.10697603225708,0.5224814414978027,-0.06472057849168777
15269,0.0004002165514975786,0.014190801419317722,0.029531562700867653,-1.050361156463623,0.5185723900794983,-0.0649266466498375
15279,0.0006019994034431875,0.014183854684233665,0.029354562982916832,-1.0498770475387573,0.5180860757827759,-0.0662054792046547
15289,0.004391588270664215,0.016570547595620155,0.0293652955442667,-1.1706891059875488,0.33181077241897583,-0.06823214888572693
15299,0.00474958261474967,0.016732117161154747,0.029412563890218735,-1.1681774854660034,0.332227498292923,-0.06948348134756088
15309,0.0051146699115633965,0.016893824562430382,0.029458025470376015,-1.1673870086669922,0.33168917894363403,-0.06844859570264816
15319,0.005299853160977364,0.01687760464847088,0.02952137403190136,-1.1568381786346436,0.3416089117527008,-0.06899746507406235
15329,0.0006319837993942201,0.01818028651177883,0.028671059757471085,-1.2156449556350708,0.5999347567558289,-0.06713932752609253
15339,-0.000462781434180215,0.01817234605550766,0.028673935681581497,-1.202864408493042,0.6576225757598877,-0.0669848695397377
15349,0.0012870514765381813,0.021647730842232704,0.028595494106411934,-1.3716505765914917,0.5674319267272949,-0.06928099691867828
15359,0.0012740165693685412,0.020975271239876747,0.02866305597126484,-1.3143280744552612,0.5741487145423889,-0.07041943818330765
15369,0.0006287018768489361,0.02181290090084076,0.02837797999382019,-1.3399320840835571,0.6115614175796509,-0.07168081402778625
15379,0.0006255123298615217,0.021587610244750977,0.028385864570736885,-1.3088688850402832,0.6142114996910095,-0.0713854655623436
15389,0.0012649580603465438,0.021571850404143333,0.02838488668203354,-1.2898517847061157,0.5827217698097229,-0.07046829909086227
15399,0.0013502805959433317,0.021893996745347977,0.028369080275297165,-1.2879871129989624,0.5839652419090271,-0.07223039120435715
15409,0.0020190379582345486,0.020979126915335655,0.028638655319809914,-1.2229244709014893,0.5542159080505371,-0.0722755566239357
15419,-0.0008870562887750566,0.020519480109214783,0.02868529222905636,-1.1855610609054565,0.7096091508865356,-0.07153839617967606
15429,-0.0008847141871228814,0.021827228367328644,0.02866739220917225,-1.2407729625701904,0.7052884101867676,-0.07162770628929138
15439,-0.0008804476237855852,0.01982847787439823,0.028743309900164604,-1.1239970922470093,0.7025101184844971,-0.07282331585884094
15449,-0.000876832811627537,0.020465368404984474,0.028464384377002716,-1.1507223844528198,0.6975248456001282,-0.07288546860218048
15459,-0.0010934985475614667,0.019808955490589142,0.028461875393986702,-1.107702612876892,0.7058650255203247,-0.07344142347574234
15469,-0.00044535676715895534,0.019153131172060966,0.0284657571464777,-1.066182017326355,0.6694408655166626,-0.07335208356380463
15479,-0.0006566699594259262,0.021737350150942802,0.02845836989581585,-1.194050669670105,0.6793110966682434,-0.07415112107992172
15490,-0.0006585371447727084,0.019914057105779648,0.028506049886345863,-1.0893548727035522,0.6766648292541504,-0.07528714090585709
15499,-0.0006579828332178295,0.02119125798344612,0.02829805575311184,-1.1504567861557007,0.6761940121650696,-0.07322169840335846
15509,-0.0029939895030111074,0.025234036147594452,0.028209855780005455,-1.3468701839447021,0.7959677577018738,-0.07286737114191055
15519,-0.0031558258924633265,0.025625206530094147,0.02818303555250168,-1.345681071281433,0.7949183583259583,-0.07439719885587692
15529,-0.0024760898668318987,0.02492446079850197,0.028247185051441193,-1.2906959056854248,0.7506422400474548,-0.07466115057468414
15539,-0.004246187396347523,0.02578817680478096,0.0280999094247818,-1.3180551528930664,0.8333390951156616,-0.0746152400970459
15549,-0.010168666951358318,0.026863953098654747,0.027879178524017334,-1.352218747138977,1.1207435131072998,-0.0738944336771965
15559,-0.007728200871497393,0.025530483573675156,0.02817605994641781,-1.2642769813537598,0.9699904322624207,-0.07636307179927826
15569,-0.00552671542391181,0.02333439514040947,0.028410354629158974,-1.13615083694458,0.8407766819000244,-0.07884242385625839
15579,-0.00580877810716629,0.023566897958517075,0.029386421665549278,-1.1366100311279297,0.8378787636756897,-0.08067405223846436
15589,-0.004864934831857681,0.023318860679864883,0.02947523631155491,-1.1152132749557495,0.7773520350456238,-0.08234529942274094
15600,-0.005039346870034933,0.023462744429707527,0.029533281922340393,-1.1135257482528687,0.7781420946121216,-0.08222540467977524
15610,-0.0057377940975129604,0.023448023945093155,0.029583215713500977,-1.1054598093032837,0.8032953143119812,-0.08381475508213043
15620,-0.0047512361779809,0.023430244997143745,0.029676923528313637,-1.0975130796432495,0.7423558831214905,-0.0837937742471695
15630,-0.007072889246046543,0.028131622821092606,0.0293965432792902,-1.3179394006729126,0.846336305141449,-0.07887709140777588
15640,-0.006345752626657486,0.028081975877285004,0.029484717175364494,-1.2958459854125977,0.7974463105201721,-0.07997647672891617
15650,-0.002405678853392601,0.02340846136212349,0.02986113913357258,-1.0530000925064087,0.5996946096420288,-0.08609319478273392
15660,-0.0024126332718878984,0.024095721542835236,0.029933996498584747,-1.0809909105300903,0.5999548435211182,-0.0858888030052185
15670,-0.00308008911088109,0.023831212893128395,0.029221465811133385,-1.0638391971588135,0.6361212730407715,-0.08758196234703064
15680,-0.004215064458549023,0.021797316148877144,0.02925044856965542,-0.9628462791442871,0.6895028352737427,-0.0900074914097786
15689,-0.002424734178930521,0.023142755031585693,0.029309533536434174,-1.029535174369812,0.6009692549705505,-0.08955514430999756
15700,-0.0023862344678491354,0.0231773778796196,0.029332051053643227,-1.0304001569747925,0.6004657745361328,-0.08874963223934174
15710,-0.0023932033218443394,0.024126578122377396,0.02961159497499466,-1.0727043151855469,0.60191810131073,-0.08764682710170746
15720,-0.0033299874048680067,0.024121234193444252,0.02965829148888588,-1.067674994468689,0.6465926170349121,-0.08681024610996246
15729,-0.014143899083137512,0.028049368411302567,0.029672017320990562,-1.2463475465774536,1.1519767045974731,-0.07951778173446655
15740,-0.014839083887636662,0.02837032452225685,0.029694493860006332,-1.24468994140625,1.1509363651275635,-0.07945910841226578
15750,-0.019628826528787613,0.02706216648221016,0.028864270076155663,-1.1597697734832764,1.2988327741622925,-0.08134077489376068
15759,-0.019628826528787613,0.02706216648221016,0.028864270076155663,-1.1597697734832764,1.2988327741622925,-0.08134077489376068
15770,-0.020556960254907608,0.027266850695014,0.028828859329223633,-1.1581059694290161,1.2972090244293213,-0.0830768346786499
15780,-0.02060830034315586,0.02798764407634735,0.028909873217344284,-1.1820660829544067,1.254273772239685,-0.08319102972745895
15789,-0.019215242937207222,0.026710225269198418,0.02928187884390354,-1.1114966869354248,1.147940993309021,-0.08645227551460266
15800,-0.019926685839891434,0.026819031685590744,0.028297724202275276,-1.1097193956375122,1.1484769582748413,-0.08736984431743622
15810,-0.026167387142777443,0.03247851878404617,0.02770225517451763,-1.3609405755996704,1.399518370628357,-0.0747123584151268
15820,-0.0339498296380043,0.040491826832294464,0.02611507661640644,-1.705047845840454,1.7050732374191284,-0.05523306876420975
15830,-0.03267751261591911,0.039310574531555176,0.02687758579850197,-1.6067551374435425,1.5754622220993042,-0.06181202083826065
15840,-0.03253510594367981,0.0404692068696022,0.028273513540625572,-1.617178201675415,1.4989336729049683,-0.062127236276865005
15850,-0.038378775119781494,0.03762509673833847,0.027948403730988503,-1.4495285749435425,1.7056405544281006,-0.07090476900339127
15859,-0.033513639122247696,0.029911966994404793,0.02972031757235527,-1.0628899335861206,1.4039405584335327,-0.09604230523109436
15869,-0.032866861671209335,0.028951050713658333,0.030045580118894577,-1.0123302936553955,1.3163083791732788,-0.09805112332105637
15879,-0.0327967032790184,0.028873000293970108,0.028951821848750114,-1.0081837177276611,1.2685199975967407,-0.09958430379629135
15889,-0.032425910234451294,0.02886969782412052,0.029088489711284637,-1.0052275657653809,1.2021819353103638,-0.09884905815124512
15899,-0.03231173753738403,0.029331255704164505,0.02921079285442829,-1.0212593078613281,1.147959589958191,-0.09883332997560501
15909,-0.033260565251111984,0.02942311018705368,0.02923736535012722,-1.019844651222229,1.1474460363388062,-0.09924497455358505
15919,-0.033103179186582565,0.028929591178894043,0.02937629446387291,-0.9911736249923706,1.092718482017517,-0.10078500211238861
15929,-0.032375697046518326,0.028598392382264137,0.028496073558926582,-0.975294291973114,1.0197482109069824,-0.10259946435689926
15939,-0.03319555148482323,0.028631100431084633,0.028485028073191643,-0.9741957783699036,1.0188978910446167,-0.10272939503192902
15949,-0.032611552625894547,0.02861725352704525,0.028557188808918,-0.9705975651741028,0.9544693827629089,-0.10487984865903854
15959,-0.033365484327077866,0.02864076755940914,0.028555668890476227,-0.9704437851905823,0.9525250196456909,-0.10420779883861542
15969,-0.03419364616274834,0.028682956472039223,0.029126858338713646,-0.9688223600387573,0.9522111415863037,-0.10397013276815414
15979,-0.03298364579677582,0.02867790497839451,0.029247796162962914,-0.9676269888877869,0.8613129258155823,-0.10642118752002716
15989,-0.03308766707777977,0.029191549867391586,0.029311776161193848,-0.9904608130455017,0.8344423174858093,-0.1055082306265831
15999,-0.033196527510881424,0.028928052634000778,0.029373012483119965,-0.9778968095779419,0.8083937764167786,-0.10678840428590775
16009,-0.03374573960900307,0.02892761491239071,0.02887517586350441,-0.9759055972099304,0.806219220161438,-0.10849469155073166
16019,-0.03437428176403046,0.028925174847245216,0.02888612076640129,-0.9766237139701843,0.8060213923454285,-0.10885845869779587
16029,-0.03577682003378868,0.02451992779970169,0.028856296092271805,-0.775844395160675,0.8421036601066589,-0.11828319728374481
16039,-0.03589178994297981,0.024560486897826195,0.028904426842927933,-0.7862575650215149,0.8162447810173035,-0.11826478689908981
16049,-0.036777302622795105,0.025619499385356903,0.028953993692994118,-0.842828094959259,0.825593113899231,-0.11608440428972244
16059,-0.036066461354494095,0.02563564106822014,0.028235409408807755,-0.8518863320350647,0.767759382724762,-0.1166478618979454
16069,-0.03570675477385521,0.025656532496213913,0.028247885406017303,-0.8586441874504089,0.7248722910881042,-0.11670463532209396
16079,-0.036237940192222595,0.02550888992846012,0.028228994458913803,-0.8599344491958618,0.7235942482948303,-0.11742731183767319
16089,-0.03558768332004547,0.0234801284968853,0.028216173872351646,-0.7752018570899963,0.669750988483429,-0.12116222828626633
16099,-0.03544571250677109,0.02454226091504097,0.02778167650103569,-0.8359163999557495,0.6441844701766968,-0.1196412667632103
16109,-0.03761756047606468,0.02559058554470539,0.027724888175725937,-0.8910046219825745,0.7188022136688232,-0.11617545783519745
16119,-0.03579385578632355,0.02559729665517807,0.027762001380324364,-0.8976402878761292,0.6110310554504395,-0.11914309114217758
16129,-0.036194827407598495,0.025467438623309135,0.02772331051528454,-0.8985198736190796,0.6098284125328064,-0.12075692415237427
16139,-0.034773390740156174,0.02394040860235691,0.02744414284825325,-0.837012529373169,0.5296668410301208,-0.12441734224557877
16149,-0.03676828369498253,0.025539763271808624,0.02741064690053463,-0.9178949594497681,0.6063453555107117,-0.11960406601428986
16159,-0.03566858917474747,0.024545617401599884,0.027387835085392,-0.879216194152832,0.5417376756668091,-0.12262755632400513
16169,-0.0353577621281147,0.023585213348269463,0.027336739003658295,-0.8443190455436707,0.5130888223648071,-0.12426283955574036
16180,-0.036542315036058426,0.024863269180059433,0.027313344180583954,-0.9108943343162537,0.5544305443763733,-0.12175250053405762
16189,-0.03254913538694382,0.029542101547122,0.027643827721476555,-1.1241289377212524,0.36617791652679443,-0.12749241292476654
16199,-0.029878290370106697,0.030234985053539276,0.027564993128180504,-1.1490089893341064,0.24583357572555542,-0.13156826794147491
16209,-0.029782475903630257,0.030406583100557327,0.027539154514670372,-1.149378776550293,0.24748758971691132,-0.13278530538082123
16219,-0.02904460020363331,0.02960173971951008,0.02752509154379368,-1.1049381494522095,0.21970246732234955,-0.13219431042671204
16229,-0.03031950257718563,0.03157626837491989,0.027715062722563744,-1.1863325834274292,0.2816210687160492,-0.1318289339542389
16239,-0.03024863824248314,0.03180103749036789,0.027701361104846,-1.1868338584899902,0.2806274890899658,-0.1318015605211258
16249,-0.029218871146440506,0.02965284138917923,0.027749257162213326,-1.081868290901184,0.23795852065086365,-0.13142834603786469
16259,-0.029766639694571495,0.030405696481466293,0.027750683948397636,-1.1094934940338135,0.2689328193664551,-0.13188518583774567
16269,-0.02876657247543335,0.02987091615796089,0.027433201670646667,-1.082866907119751,0.22966445982456207,-0.13308051228523254
16279,-0.02854556031525135,0.03010033443570137,0.02740209922194481,-1.0879387855529785,0.22642870247364044,-0.13373082876205444
16289,-0.030819468200206757,0.03082946315407753,0.027432678267359734,-1.1139824390411377,0.3335953652858734,-0.13232922554016113
16299,-0.029850922524929047,0.02934890240430832,0.0274342093616724,-1.0415723323822021,0.2929237186908722,-0.1307276338338852
16310,-0.030636820942163467,0.0304576326161623,0.028069568797945976,-1.087074875831604,0.33395907282829285,-0.13241927325725555
16319,-0.030587323009967804,0.030546627938747406,0.028089536353945732,-1.0835511684417725,0.3342492878437042,-0.1326795518398285
16329,-0.030532656237483025,0.030635632574558258,0.028109069913625717,-1.0847481489181519,0.33493760228157043,-0.13358411192893982
16339,-0.030290378257632256,0.030863294377923012,0.0281252209097147,-1.0897570848464966,0.32712629437446594,-0.1344635784626007
16349,-0.031047359108924866,0.03183818608522415,0.02813754230737686,-1.1273560523986816,0.36601611971855164,-0.13562317192554474
16359,-0.031783245503902435,0.031821705400943756,0.02808852680027485,-1.121164083480835,0.4012325406074524,-0.13520237803459167
16371,-0.03057696856558323,0.030590418726205826,0.02814246527850628,-1.061808466911316,0.3481296896934509,-0.13387291133403778
16379,-0.03057696856558323,0.030590418726205826,0.02814246527850628,-1.061808466911316,0.3481296896934509,-0.13387291133403778
16389,-0.03050817921757698,0.03064076229929924,0.028152575716376305,-1.062572956085205,0.3500707745552063,-0.13419298827648163
16399,-0.029788445681333542,0.030596064403653145,0.026823751628398895,-1.0596985816955566,0.32080766558647156,-0.13536220788955688
16409,-0.0332891009747982,0.03009886108338833,0.026796316727995872,-1.0329047441482544,0.48579350113868713,-0.13253682851791382
16419,-0.030580922961235046,0.03082076832652092,0.02677706815302372,-1.064824104309082,0.3591108024120331,-0.13573238253593445
16429,-0.030504649505019188,0.03086705505847931,0.026711231097579002,-1.0666166543960571,0.3584449589252472,-0.135315403342247
16439,-0.030269354581832886,0.029831187799572945,0.02664892189204693,-1.0168707370758057,0.3513750433921814,-0.13276128470897675
16449,-0.030781010165810585,0.03157850354909897,0.026311669498682022,-1.0956134796142578,0.37858739495277405,-0.1361909657716751
16459,-0.030713042244315147,0.031657468527555466,0.026229128241539,-1.0958597660064697,0.37801289558410645,-0.13643532991409302
16469,-0.030466221272945404,0.030840657651424408,0.026155740022659302,-1.0535337924957275,0.36990252137184143,-0.13524691760540009
16479,-0.029967930167913437,0.031347885727882385,0.02606930397450924,-1.074186086654663,0.3513707220554352,-0.13589999079704285
16489,-0.030240187421441078,0.0308370403945446,0.026421403512358665,-1.047239065170288,0.36778590083122253,-0.13528814911842346
16499,-0.03201615810394287,0.032105255872011185,0.026378020644187927,-1.106109619140625,0.45368674397468567,-0.1356038749217987
16509,-0.030518414452672005,0.03208385780453682,0.02633155696094036,-1.1008291244506836,0.38300466537475586,-0.1366683840751648
16519,-0.03077758476138115,0.03181947022676468,0.026284361258149147,-1.083564043045044,0.3991931974887848,-0.13532334566116333
16529,-0.030300123617053032,0.030849628150463104,0.026938622817397118,-1.034639835357666,0.3817439675331116,-0.13505923748016357
16539,-0.029579201713204384,0.03422309458255768,0.026924844831228256,-1.1903750896453857,0.35329633951187134,-0.14074955880641937
16549,-0.03032594919204712,0.03203842043876648,0.02698180265724659,-1.0790969133377075,0.3940645754337311,-0.13714487850666046
16559,-0.03033091314136982,0.030900662764906883,0.026983361691236496,-1.0223233699798584,0.3974985182285309,-0.13564631342887878
16569,-0.030235419049859047,0.030886203050613403,0.026978418231010437,-1.0203710794448853,0.39647620916366577,-0.13533179461956024
16579,-0.031245101243257523,0.03139020502567291,0.02699209190905094,-1.0440069437026978,0.44818466901779175,-0.13590778410434723
16589,-0.03124096244573593,0.03532992675900459,0.026990212500095367,-1.2283107042312622,0.45221760869026184,-0.14228132367134094
16599,-0.030527373775839806,0.03211556747555733,0.027091071009635925,-1.0649620294570923,0.421286940574646,-0.1360575407743454
16609,-0.030048346146941185,0.03308066725730896,0.027089260518550873,-1.1085991859436035,0.4020731449127197,-0.13855275511741638
16619,-0.029933791607618332,0.03315950930118561,0.02705506607890129,-1.1087234020233154,0.40102699398994446,-0.1388372778892517
16629,-0.02970702387392521,0.03239559754729271,0.027060456573963165,-1.0707710981369019,0.3962877094745636,-0.13819801807403564
16639,-0.029726209118962288,0.034390583634376526,0.02705867402255535,-1.1637892723083496,0.40267863869667053,-0.14116334915161133
16649,-0.030240533873438835,0.0343647338449955,0.02707088366150856,-1.1557140350341797,0.4318605065345764,-0.1404217779636383
16659,-0.030007952824234962,0.0333867184817791,0.0278229508548975,-1.1028354167938232,0.4242071807384491,-0.13898587226867676
16669,-0.03004484623670578,0.028305118903517723,0.027894863858819008,-0.8623842000961304,0.43165287375450134,-0.13194872438907623
16679,-0.030291004106402397,0.03073178417980671,0.028027988970279694,-0.9850397109985352,0.44798702001571655,-0.134847030043602
16689,-0.030297350138425827,0.031693536788225174,0.02808975987136364,-1.0332531929016113,0.4520426094532013,-0.1366061121225357
16699,-0.030774787068367004,0.031696103513240814,0.028089826926589012,-1.033359169960022,0.47653260827064514,-0.13685427606105804
16709,-0.030553897842764854,0.028182022273540497,0.028122343122959137,-0.8698704242706299,0.46610286831855774,-0.1322861611843109
16719,-0.02916407585144043,0.030764810740947723,0.028242427855730057,-1.001072645187378,0.4070521891117096,-0.1359931379556656
16729,-0.028482932597398758,0.031231651082634926,0.0282810740172863,-1.0261561870574951,0.3820496201515198,-0.13803017139434814
16740,-0.029638392850756645,0.0319247730076313,0.028357738628983498,-1.0583404302597046,0.4442601501941681,-0.13817572593688965
16750,-0.029873980209231377,0.03282999247312546,0.028258755803108215,-1.1002744436264038,0.46109089255332947,-0.13792578876018524
16760,-0.028302805498242378,0.033050987869501114,0.028285004198551178,-1.1078811883926392,0.39190346002578735,-0.13994356989860535
16769,-0.030335290357470512,0.03238038346171379,0.028382370248436928,-1.072730302810669,0.49629244208335876,-0.13865570724010468
16780,-0.030274249613285065,0.03240295127034187,0.028423819690942764,-1.0729186534881592,0.4965936839580536,-0.13858872652053833
16790,-0.02958081103861332,0.031916242092847824,0.027863718569278717,-1.049464464187622,0.4684486985206604,-0.13974276185035706
16800,-0.030293304473161697,0.03262576088309288,0.027873603627085686,-1.0824294090270996,0.506287693977356,-0.14040574431419373
16810,-0.029386943206191063,0.031002506613731384,0.02788965404033661,-1.0038583278656006,0.4676026701927185,-0.14020809531211853
16820,-0.03031776286661625,0.031702712178230286,0.027915818616747856,-1.0388885736465454,0.5163912773132324,-0.14179939031600952
16830,-0.030091408640146255,0.03261049836874008,0.027549846097826958,-1.0809165239334106,0.508937656879425,-0.1441681683063507
16840,-0.030103299766778946,0.031023023650050163,0.027545316144824028,-1.00577974319458,0.5129149556159973,-0.1431073546409607
16850,-0.029207028448581696,0.03102838806807995,0.027529876679182053,-1.0090150833129883,0.47369083762168884,-0.14298532903194427
16860,-0.030322380363941193,0.03215509280562401,0.027542777359485626,-1.0635805130004883,0.5296239256858826,-0.14515937864780426
16870,-0.029220309108495712,0.03103887476027012,0.027535852044820786,-1.010408878326416,0.4807799756526947,-0.14377737045288086
16880,-0.030330412089824677,0.03192692995071411,0.027311120182275772,-1.0551376342773438,0.5370048880577087,-0.14468304812908173
16890,-0.029673270881175995,0.03214390575885773,0.027286851778626442,-1.0655312538146973,0.5064137578010559,-0.1442151665687561
16900,-0.02924133650958538,0.031054260209202766,0.02726556733250618,-1.0153874158859253,0.4893464148044586,-0.14408566057682037
16910,-0.030333740636706352,0.03170911222696304,0.02726510725915432,-1.047842264175415,0.5455154180526733,-0.14267584681510925
16920,-0.029682591557502747,0.03170725330710411,0.026703333482146263,-1.0502203702926636,0.5152500867843628,-0.14170362055301666
16930,-0.025166675448417664,0.02738139033317566,0.026621051132678986,-0.8504294753074646,0.3035132586956024,-0.14074760675430298
16939,-0.025170983746647835,0.028244884684681892,0.026635941118001938,-0.9038223624229431,0.31922677159309387,-0.14180080592632294
16949,-0.025824250653386116,0.02739885076880455,0.026615357026457787,-0.874086856842041,0.3681302070617676,-0.1413143277168274
16959,-0.025408798828721046,0.027180589735507965,0.025913888588547707,-0.8749346137046814,0.36226728558540344,-0.14191924035549164
16969,-0.024353748187422752,0.026332417502999306,0.025785105302929878,-0.8451452851295471,0.32426658272743225,-0.1421920657157898
16979,-0.024150965735316277,0.02633390575647354,0.025715194642543793,-0.8597276210784912,0.3327087461948395,-0.14459343254566193
16989,-0.025839131325483322,0.027396181598305702,0.025781327858567238,-0.9256980419158936,0.4330081343650818,-0.1432725191116333
16999,-0.025842716917395592,0.02824089676141739,0.025742406025528908,-0.9768609404563904,0.44701942801475525,-0.1442136913537979
17009,-0.026040785014629364,0.028243528679013252,0.02705889195203781,-0.9840855002403259,0.46900105476379395,-0.14449208974838257
17019,-0.02604200690984726,0.026993459090590477,0.027052223682403564,-0.9308366179466248,0.478290855884552,-0.1437811404466629
17029,-0.025206079706549644,0.026571718975901604,0.02703966572880745,-0.9189277291297913,0.4447239339351654,-0.14415360987186432
17039,-0.02582206018269062,0.02698621340095997,0.027086853981018066,-0.9516068696975708,0.487350732088089,-0.14502955973148346
17049,-0.024160215631127357,0.02635611966252327,0.02702973410487175,-0.930536687374115,0.41290611028671265,-0.1446768194437027
17059,-0.01857287809252739,0.02093498781323433,0.02676977775990963,-0.6661133766174316,0.14292745292186737,-0.1477232277393341
17069,-0.01939258724451065,0.02176826074719429,0.02697460912168026,-0.7379704713821411,0.21380546689033508,-0.14659720659255981
17079,-0.019391292706131935,0.02093609794974327,0.026983335614204407,-0.7191169261932373,0.2406335324048996,-0.14662930369377136
17089,-0.019360564649105072,0.021323418244719505,0.02784034237265587,-0.7635819315910339,0.26610052585601807,-0.146860271692276
17099,-0.02263994887471199,0.02503698691725731,0.028261838480830193,-0.9758402705192566,0.4586896598339081,-0.14543548226356506
17109,-0.018509693443775177,0.026063360273838043,0.02827412262558937,-1.0408000946044922,0.26024726033210754,-0.151829794049263
17119,-0.01849750056862831,0.026267189532518387,0.02836943231523037,-1.0575110912322998,0.28509002923965454,-0.15137916803359985
17129,-0.01848646253347397,0.026878444477915764,0.028464563190937042,-1.0945452451705933,0.307940274477005,-0.15136922895908356
17139,-0.018875297158956528,0.026669982820749283,0.02877960540354252,-1.086737871170044,0.3516446650028229,-0.15120893716812134
17149,-0.018866805359721184,0.026881018653512,0.028873136267066002,-1.104965090751648,0.3716316223144531,-0.15082232654094696
17159,-0.01848170906305313,0.02679726853966713,0.02895231917500496,-1.1035531759262085,0.3725639283657074,-0.15024377405643463
17169,-0.01720454916357994,0.025721929967403412,0.02899429015815258,-1.0530771017074585,0.3272145390510559,-0.15139465034008026
17179,-0.018317030742764473,0.02681436389684677,0.0283555518835783,-1.11484956741333,0.4061148166656494,-0.15213418006896973
17189,-0.018543224781751633,0.026814350858330727,0.02841261588037014,-1.1163221597671509,0.4357623755931854,-0.1530276983976364
17199,-0.018770746886730194,0.02660619653761387,0.02846939116716385,-1.1091997623443604,0.465553343296051,-0.15205338597297668
17209,-0.01898769848048687,0.02639567293226719,0.02852451428771019,-1.102108120918274,0.48939263820648193,-0.1505281776189804
17219,-0.01730620488524437,0.025755370035767555,0.02792639471590519,-1.0737909078598022,0.4165232181549072,-0.15187807381153107
17229,-0.01774129830300808,0.026404140517115593,0.027960654348134995,-1.1141012907028198,0.4576883316040039,-0.1514754593372345
17239,-0.01816471852362156,0.025982368737459183,0.027988335117697716,-1.0950253009796143,0.4938187003135681,-0.15154147148132324
