timestamp (ms),stateEstimate.x,stateEstimate.y,stateEstimate.z,stabilizer.roll,stabilizer.pitch,stabilizer.yaw
10658,-1.151352989836596e-06,-1.21386292448733e-05,-3.7060235626995564e-06,-0.0006931183743290603,0.0010428791865706444,-1.65619246672577e-06
10670,9.540321480017155e-05,-8.543362491764128e-05,-0.8330393433570862,0.014190029352903366,-0.01870735175907612,0.0008525798330083489
10678,0.0002115644747391343,0.0003913772525265813,0.032039325684309006,-0.18529826402664185,-0.02877666987478733,0.0012543743941932917
10690,0.0005216673598624766,0.0013962710509076715,0.03176594898104668,-0.5444092154502869,-0.10796675831079483,0.0009981311159208417
10698,0.0007789008086547256,0.0017914928030222654,0.03170629218220711,-0.5483577847480774,-0.1332908570766449,0.0013357119169086218
10708,0.00107456068508327,0.002000181470066309,0.03172406926751137,-0.4658314287662506,-0.1585424840450287,0.0015380928525701165
10718,0.0013297400437295437,0.0020819513592869043,0.03134356811642647,-0.34467756748199463,-0.150750532746315,0.0029744531493633986
10728,0.0012558336602523923,0.002686891006305814,0.031285274773836136,-0.47258374094963074,0.010649506002664566,0.003449570620432496
10738,0.0008336970349773765,0.002789280377328396,0.031302087008953094,-0.3613898456096649,0.29765576124191284,0.0034002005122601986
10748,0.0018679744098335505,0.002529348246753216,0.03124867007136345,-0.12311194092035294,-0.05696957930922508,0.0023890493903309107
10758,0.002018959727138281,0.002983764046803117,0.031491246074438095,-0.20739933848381042,0.009824969805777073,0.0023971369955688715
10768,0.0021542322356253862,0.00033875019289553165,0.03153865039348602,0.8981009721755981,0.07892506569623947,0.001892680418677628
10778,0.001730441814288497,0.0029920567758381367,0.031638238579034805,-0.11373484879732132,0.34846845269203186,0.0037065367214381695
10788,0.001807564403861761,0.0033464226871728897,0.031553611159324646,-0.161945179104805,0.4046128988265991,0.0041913618333637714
10798,0.0023350236006081104,0.003101854817941785,0.0314674936234951,-0.006039910018444061,0.3092564344406128,0.004519742447882891
10808,0.004350495059043169,0.001508667366579175,0.03116084821522236,0.5489888191223145,-0.23506391048431396,0.005135960411280394
10820,0.004622321575880051,0.0013286499306559563,0.031050274148583412,0.5877277255058289,-0.16302995383739471,0.005428837612271309
10830,0.0025945394299924374,0.0002566062903497368,0.031073251739144325,0.870847225189209,0.5606245398521423,0.0007125475094653666
10838,0.0020722828339785337,-0.0006984808715060353,0.03091832995414734,1.075190544128418,0.769066572189331,-0.001987011171877384
10850,0.0026568432804197073,-0.00015678719501011074,0.030514851212501526,0.8574709296226501,0.6643316149711609,1.1498020285216626e-05
10858,0.002472725696861744,-0.003937661647796631,0.03021525777876377,1.725575566291809,0.7658156752586365,-0.007988193072378635
10868,0.0028931894339621067,-0.0021365860011428595,0.03028755448758602,1.1596468687057495,0.7144232392311096,-0.0020440854132175446
10878,0.0031047286465764046,-0.0027705233078449965,0.030114199966192245,1.2106225490570068,0.7183748483657837,-0.0027440444100648165
10888,0.003113600192591548,-0.002139260061085224,0.03004729002714157,0.9792096018791199,0.7656194567680359,0.0005136835970915854
10900,0.003112731035798788,-0.0027857825625687838,0.03027809038758278,1.0313011407852173,0.8129465579986572,0.0005956772365607321
10908,0.0035413585137575865,-0.002767435507848859,0.030167564749717712,0.9425548315048218,0.7732518911361694,0.0009888705099001527
10918,0.003077141474932432,-0.002298773266375065,0.030092665925621986,0.7800447940826416,0.9048071503639221,0.003267710329964757
10928,0.0035165802109986544,-0.002726823789998889,0.0299611184746027,0.7955054640769958,0.8598760962486267,0.0036197586450725794
10938,0.0037323518190532923,-0.0030961104203015566,0.02990262396633625,0.7933928966522217,0.8589614033699036,0.002254410646855831
10948,0.00419441657140851,-0.0035274229012429714,0.0297735333442688,0.8009873032569885,0.819340705871582,0.0018443077569827437
10958,0.0033868062309920788,-0.0024395340587943792,0.029720325022935867,0.5683479905128479,0.9826442003250122,0.007134830113500357
10968,0.004113023169338703,-0.0023830165155231953,0.02960907109081745,0.5158944129943848,0.8984982371330261,0.007523801643401384
10978,0.004070514813065529,-0.002075107069686055,0.029509976506233215,0.43017399311065674,0.9350525140762329,0.009961070492863655
10988,0.0035220447462052107,-0.00204737251624465,0.03003874607384205,0.3873118460178375,1.0385478734970093,0.012126942165195942
10998,0.003495398908853531,-0.0027577995788306,0.029954133555293083,0.4472322463989258,1.0598130226135254,0.011695746332406998
11008,0.003975896164774895,-0.002447971375659108,0.029884986579418182,0.37145015597343445,1.015533685684204,0.014397569000720978
11018,0.0041495999321341515,-0.0027079686988145113,0.029805028811097145,0.3716742992401123,1.0147323608398438,0.014133141376078129
11028,0.0016181180253624916,-0.00212670024484396,0.03108326904475689,0.26587846875190735,1.3310571908950806,0.01937197893857956
11038,0.0019065230153501034,-0.00508296862244606,0.03106589987874031,0.5749791264533997,1.2939727306365967,0.011684581637382507
11048,0.001909638405777514,-0.0005949944024905562,0.031247470527887344,0.0379122719168663,1.2901551723480225,0.02601480856537819
11058,0.00190732441842556,-0.0006740283570252359,0.031253162771463394,0.038489118218421936,1.2883174419403076,0.026647815480828285
11068,0.003084781812503934,-0.0006720690871588886,0.032006554305553436,0.026835648342967033,1.1661494970321655,0.02590504102408886
11078,0.0030553066171705723,-0.0023753640707582235,0.03206748515367508,0.18303240835666656,1.1753320693969727,0.021933667361736298
11090,0.001596376416273415,-0.0008775936439633369,0.03212980926036835,0.023259516805410385,1.3189609050750732,0.027210650965571404
11098,0.0018885880708694458,-0.0008557314286008477,0.03218282386660576,0.01415038201957941,1.2893482446670532,0.027957065030932426
11108,0.003004281083121896,-0.0008247464429587126,0.03224342688918114,0.0027433941140770912,1.190910816192627,0.027636006474494934
11118,0.0021585540380328894,-0.0015900633297860622,0.030867991968989372,0.06507226824760437,1.2708485126495361,0.02606874331831932
11128,0.0021724102552980185,-0.0017256740247830749,0.03083270601928234,0.06583818048238754,1.269331455230713,0.025625081732869148
11138,0.0015717123169451952,0.0045411717146635056,0.03083029016852379,-0.46004918217658997,1.31830894947052,0.04323245957493782
11148,0.0009960702154785395,0.0044209593906998634,0.03081510402262211,-0.42748016119003296,1.3614434003829956,0.04196979105472565
11158,0.0021922143641859293,0.004330358933657408,0.030019909143447876,-0.39956411719322205,1.2606810331344604,0.041202839463949203
11168,0.0021857137326151133,0.001115286722779274,0.030048104003071785,-0.1363380402326584,1.2616482973098755,0.031992338597774506
11178,0.002203104319050908,0.0011323005892336369,0.029973365366458893,-0.13377311825752258,1.2609474658966064,0.03249341994524002
11188,0.0021983361802995205,0.0008229668601416051,0.02989949658513069,-0.11024181544780731,1.2610608339309692,0.033222444355487823
11198,0.0033753637690097094,0.0005266930093057454,0.02982744760811329,-0.08975633978843689,1.1787083148956299,0.03251482546329498
11208,-0.000771263032220304,0.0008273889543488622,0.030312461778521538,-0.11214246600866318,1.4741792678833008,0.031273748725652695
11218,0.0007409508689306676,0.0014028976438567042,0.030316928401589394,-0.15111292898654938,1.3551585674285889,0.03499682620167732
11228,0.0006694930489175022,0.0014243844198063016,0.03027983382344246,-0.1519991159439087,1.3545281887054443,0.03512450307607651
11238,0.0007047669496387243,0.001113815582357347,0.030244095250964165,-0.13205169141292572,1.3469372987747192,0.034274160861968994
11248,0.0019198376685380936,0.0005139096174389124,0.030993260443210602,-0.0934661477804184,1.2602202892303467,0.03349722549319267
11258,0.0031027456279844046,-0.00360087095759809,0.0309805478900671,0.1680319458246231,1.1833494901657104,0.024294326081871986
11268,0.0010275974636897445,0.00059075141325593,0.03118601068854332,-0.1150381863117218,1.3162468671798706,0.035378068685531616
11278,0.0016142026288434863,0.0008827877463772893,0.031211260706186295,-0.1341596394777298,1.2763338088989258,0.03610731661319733
11288,0.003030806314200163,0.0006057294085621834,0.0315723642706871,-0.1181882694363594,1.184393286705017,0.03746693208813667
11298,0.0007648001774214208,0.0020176651887595654,0.03163681924343109,-0.20669101178646088,1.3249664306640625,0.0394519567489624
11308,0.0016103911912068725,0.0011706206714734435,0.03169582411646843,-0.15190862119197845,1.2704534530639648,0.038687270134687424
11318,0.0018855412490665913,0.000624601321760565,0.0317414253950119,-0.11975593864917755,1.2525159120559692,0.037536561489105225
11329,0.0019037210149690509,0.0005885855061933398,0.03178605064749718,-0.11774928122758865,1.2512967586517334,0.03734378516674042
11339,0.003663080744445324,0.002342836931347847,0.030603254213929176,-0.2244897037744522,1.1495106220245361,0.04291754961013794
11349,0.00048676226288080215,0.002318062586709857,0.0306233037263155,-0.21996381878852844,1.3426003456115723,0.04023156315088272
11358,0.0019218113739043474,0.0011663740733638406,0.030629431828856468,-0.14807693660259247,1.252126693725586,0.03723863139748573
11368,0.0010527692502364516,0.0005998744745738804,0.030608758330345154,-0.11692184209823608,1.3007733821868896,0.035405319184064865
11378,0.0018851461354643106,0.0008919985848478973,0.03076830320060253,-0.13656316697597504,1.2493171691894531,0.037829361855983734
11388,0.002427635481581092,-0.0015542495530098677,0.03075183555483818,0.004124150611460209,1.218519926071167,0.0322686992585659
11398,0.0008102802094072104,0.00036809578887186944,0.03079148568212986,-0.11511005461215973,1.310189962387085,0.03495455160737038
11408,0.0018932566745206714,0.000921286700759083,0.030796000733971596,-0.15033026039600372,1.2443535327911377,0.03890109807252884
11418,0.0029518979135900736,0.0009283784893341362,0.030787616968154907,-0.1522601991891861,1.1836631298065186,0.04114590585231781
11428,0.0029237011913210154,-0.005914070177823305,0.03128592297434807,0.22974586486816406,1.188485860824585,0.025865444913506508
11438,0.0023750977125018835,-0.0034709677565842867,0.03144543990492821,0.07195670157670975,1.2233731746673584,0.0322127528488636
11448,0.0023687679786235094,-0.002124330261722207,0.03151891380548477,-0.017448510974645615,1.2233840227127075,0.036701884120702744
11458,0.004179852083325386,-0.0015897424891591072,0.03155345469713211,-0.05414712056517601,1.1236544847488403,0.041866790503263474
11468,0.012388207018375397,-0.006435520946979523,0.031188568100333214,0.20426411926746368,0.6807865500450134,0.040049247443675995
11479,0.01226778607815504,-0.007877752184867859,0.03119026869535446,0.2615460753440857,0.7183024287223816,0.036274492740631104
11491,0.012819834984838963,-0.008332500234246254,0.031188612803816795,0.26249438524246216,0.7166087627410889,0.03717377781867981
11498,0.012398971244692802,-0.008483914658427238,0.031278833746910095,0.2468959242105484,0.769771933555603,0.035833101719617844
11508,0.011466079391539097,-0.008101632818579674,0.03144039213657379,0.20164871215820312,0.8470035195350647,0.036508314311504364
11518,0.006856865715235472,-0.010381987318396568,0.03223275765776634,0.29840633273124695,1.1149702072143555,0.02987801469862461
11528,0.006019823253154755,-0.01130000315606594,0.0322747677564621,0.31973719596862793,1.1690095663070679,0.028059938922524452
11538,0.006767165381461382,-0.011162668466567993,0.03237099573016167,0.28189489245414734,1.136121153831482,0.03140062838792801
11548,0.004927182570099831,-0.012324608862400055,0.032408252358436584,0.31339532136917114,1.2393989562988281,0.030603624880313873
11558,0.006952648051083088,-0.010932520031929016,0.032811980694532394,0.211417555809021,1.1367294788360596,0.03464227914810181
11568,0.007680373732000589,-0.011592019349336624,0.03287798538804054,0.22225096821784973,1.105223536491394,0.033860500901937485
11578,0.007892574183642864,-0.01149027980864048,0.032982610166072845,0.19276826083660126,1.1028170585632324,0.03522001579403877
11588,0.0081046586856246,-0.011952419765293598,0.033061303198337555,0.1923127919435501,1.103310465812683,0.03426608815789223
11598,0.009100419469177723,-0.01182911079376936,0.033153682947158813,0.1643802672624588,1.0650620460510254,0.03679224103689194
11608,0.008510810323059559,-0.015363378450274467,0.03264085575938225,0.3202742338180542,1.1057707071304321,0.03215501829981804
11618,0.006644147913902998,-0.01650998555123806,0.032683245837688446,0.3460667133331299,1.2078816890716553,0.02971702441573143
11628,0.007386076729744673,-0.017378736287355423,0.032708555459976196,0.3546614348888397,1.176733136177063,0.03037574328482151
11638,0.007605983410030603,-0.017482103779911995,0.03279978409409523,0.3261348307132721,1.1718449592590332,0.03101031854748726
11648,0.0053004673682153225,-0.016610901802778244,0.03346783667802811,0.24861818552017212,1.2903014421463013,0.03357725590467453
11658,0.002804181072860956,-0.016756052151322365,0.033544667065143585,0.22962172329425812,1.4108136892318726,0.03460786119103432
11668,0.002583383582532406,-0.016653189435601234,0.03366278111934662,0.19845640659332275,1.4118534326553345,0.03410368785262108
11678,0.0016201852122321725,-0.01631232723593712,0.03376627713441849,0.15762224793434143,1.4514893293380737,0.03677041083574295
11688,0.0036202154587954283,-0.01642545871436596,0.033168163150548935,0.14088031649589539,1.3440191745758057,0.03768240660429001
11698,0.0019206819124519825,-0.016347592696547508,0.03321264311671257,0.1142820492386818,1.423205018043518,0.038297150284051895
11708,0.0017043673433363438,-0.016280420124530792,0.03328116983175278,0.09026335179805756,1.4245386123657227,0.03909677639603615
11718,0.0024483276065438986,-0.015969712287187576,0.033397041261196136,0.05197985842823982,1.3780970573425293,0.04052462801337242
11728,0.003658429253846407,-0.01615261659026146,0.03349950537085533,0.04196244105696678,1.3116474151611328,0.04168209433555603
11738,0.0038979481905698776,-0.019918037578463554,0.033716339617967606,0.20651444792747498,1.2963260412216187,0.03615371510386467
11748,0.0034219243098050356,-0.014894896186888218,0.034130293875932693,-0.06400194019079208,1.3145390748977661,0.04569922015070915
11758,0.0033709590788930655,-0.015151986852288246,0.03422300145030022,-0.06208230182528496,1.3151720762252808,0.04631457477807999
11768,0.0036281144712120295,-0.015851259231567383,0.03431312367320061,-0.039689768105745316,1.2999053001403809,0.04620968550443649
11778,0.0036739795468747616,-0.014489979483187199,0.03292880952358246,-0.11447640508413315,1.2963206768035889,0.04990335553884506
11788,0.002453665714710951,-0.014456227421760559,0.032934412360191345,-0.12540258467197418,1.3525497913360596,0.04952339828014374
11798,0.0036932004150003195,-0.014915010891854763,0.03296324238181114,-0.11161230504512787,1.2853208780288696,0.048703037202358246
11808,0.0024809963069856167,-0.015371391549706459,0.03296775743365288,-0.09820152074098587,1.343400001525879,0.04865133389830589
11818,0.0032065853010863066,-0.014853687025606632,0.03300653025507927,-0.13483266532421112,1.304502248764038,0.052033681422472
11828,0.0008231848478317261,-0.01387703511863947,0.03301307186484337,-0.18955130875110626,1.4160239696502686,0.05275373533368111
11838,0.005585347767919302,-0.009110686369240284,0.03315403312444687,-0.4256286323070526,1.174035668373108,0.06368453800678253
11848,0.006749216932803392,-0.009369267150759697,0.03317034989595413,-0.40319013595581055,1.121453046798706,0.062069106847047806
11858,0.006918651517480612,-0.009217816404998302,0.03318830579519272,-0.4020088315010071,1.1209783554077148,0.06237008795142174
11868,0.005925470497459173,-0.00772918900474906,0.031709522008895874,-0.46788227558135986,1.1797237396240234,0.06476420164108276
11878,0.006035966333001852,-0.007498861290514469,0.03164297342300415,-0.46677055954933167,1.1788755655288696,0.06497692316770554
11888,0.006007695104926825,-0.008863545954227448,0.031653448939323425,-0.386629194021225,1.1849312782287598,0.06149553135037422
11898,0.006757848896086216,-0.00889846682548523,0.03158502280712128,-0.37709516286849976,1.153477430343628,0.06155296787619591
11908,0.005979360081255436,-0.008937771432101727,0.030864929780364037,-0.36611440777778625,1.1981934309005737,0.06038874015212059
11918,0.0060776351019740105,-0.008805842138826847,0.030762912705540657,-0.3646151125431061,1.1981678009033203,0.06069115549325943
11928,0.0049777161329984665,-0.0048287357203662395,0.030594106763601303,-0.5515321493148804,1.2552955150604248,0.06590406596660614
11938,0.006024286616593599,-0.00492252828553319,0.030509503558278084,-0.5293281674385071,1.2041938304901123,0.06652452796697617
11948,0.005493946839123964,-0.00448351027444005,0.030404789373278618,-0.5344144105911255,1.2322971820831299,0.06602092832326889
11958,0.0039199586026370525,-0.004824708215892315,0.030586376786231995,-0.5005595684051514,1.311559796333313,0.06342149525880814
11968,0.004951197188347578,-0.004126939456909895,0.030491149052977562,-0.5191816687583923,1.25848388671875,0.06552398204803467
11978,0.005957501009106636,-0.005465973634272814,0.030469713732600212,-0.43640485405921936,1.2110515832901,0.0656544417142868
11988,0.005938676185905933,-0.00526318559423089,0.030386855825781822,-0.43604642152786255,1.2121493816375732,0.0653769001364708
11998,0.002440933370962739,-0.0065066213719546795,0.031056039035320282,-0.3615972399711609,1.3833260536193848,0.05954425036907196
12008,0.005686541553586721,-0.00627964548766613,0.031069764867424965,-0.36617693305015564,1.2177151441574097,0.06558291614055634
12018,0.005922744050621986,-0.005327780731022358,0.031017493456602097,-0.4037235379219055,1.2073285579681396,0.06721306592226028
12028,0.00468863919377327,-0.0043903072364628315,0.030972592532634735,-0.4383598566055298,1.2698699235916138,0.06771845370531082
12038,0.00517323799431324,-0.004188650753349066,0.030933717265725136,-0.4344770908355713,1.2447761297225952,0.06783504784107208
12048,0.005171827040612698,-0.007803980261087418,0.030998101457953453,-0.24320685863494873,1.2448844909667969,0.06273052841424942
12058,0.005647573620080948,-0.009001621045172215,0.03095121867954731,-0.18291445076465607,1.2217930555343628,0.06195691600441933
12068,-0.0003016277914866805,-0.010903366841375828,0.030912721529603004,-0.0922878086566925,1.5144834518432617,0.04963609576225281
12078,-0.00027181580662727356,-0.010652576573193073,0.030899329110980034,-0.11009965091943741,1.5000056028366089,0.051204197108745575
12088,0.001616765046492219,-0.010863079689443111,0.03137064352631569,-0.10126934200525284,1.3958492279052734,0.05364587530493736
12098,0.002113677328452468,-0.019500834867358208,0.031175188720226288,0.31461435556411743,1.3642116785049438,0.04134387895464897
12108,0.0014319620095193386,-0.019436979666352272,0.031207475811243057,0.28395718336105347,1.3901177644729614,0.04182664677500725
12118,0.002366456435993314,-0.019603418186306953,0.031252045184373856,0.26526162028312683,1.3388713598251343,0.04318144917488098
12128,0.00237391609698534,-0.020239699631929398,0.03122771345078945,0.26644378900527954,1.337633490562439,0.04444118216633797
12138,0.0028242827393114567,-0.017202740535140038,0.03179497644305229,0.09064129739999771,1.3085016012191772,0.05160782113671303
12148,0.002607001457363367,-0.020356930792331696,0.03169052675366402,0.22677350044250488,1.3155004978179932,0.04637965187430382
12158,0.00260795745998621,-0.019184935837984085,0.031829383224248886,0.14569859206676483,1.3109582662582397,0.0493171326816082
12168,0.0026127095334231853,-0.020049873739480972,0.03181760385632515,0.16620489954948425,1.30731999874115,0.04909687489271164
12178,0.0032997033558785915,-0.019786207005381584,0.03152192384004593,0.13214203715324402,1.270632028579712,0.051032695919275284
12188,0.0030681113712489605,-0.018861763179302216,0.03158247098326683,0.06538573652505875,1.2829110622406006,0.05184904485940933
12198,0.0024014562368392944,-0.018391571938991547,0.03161728009581566,0.024577707052230835,1.3135058879852295,0.05404992029070854
12208,0.001302223769016564,-0.019259946420788765,0.031596045941114426,0.051946453750133514,1.3610244989395142,0.05216140300035477
12218,0.0026128480676561594,-0.01926177553832531,0.03223409503698349,0.03580096364021301,1.2900493144989014,0.053107645362615585
12228,0.0028368295170366764,-0.01924361288547516,0.03228897228837013,0.018674328923225403,1.2757360935211182,0.05415328964591026
12238,0.0021738815121352673,-0.019008656963706017,0.03234950453042984,-0.007610401138663292,1.3081799745559692,0.05283920839428902
12248,0.0021222124341875315,-0.01929449290037155,0.03239550068974495,-0.006570253521203995,1.3059184551239014,0.05259456858038902
12258,0.0018903736490756273,-0.018338603898882866,0.032480791211128235,-0.06698751449584961,1.313506841659546,0.055023130029439926
12268,0.002850295277312398,-0.01898164302110672,0.031424395740032196,-0.043132904917001724,1.2649985551834106,0.05398757755756378
12278,0.0028497108723968267,-0.01922737993299961,0.03140707314014435,-0.041149694472551346,1.2648863792419434,0.053849007934331894
12288,0.0028478489257395267,-0.01942923478782177,0.031390249729156494,-0.04039725661277771,1.2650246620178223,0.053520943969488144
12298,0.003815992968156934,-0.019389599561691284,0.031380102038383484,-0.05290199816226959,1.2181637287139893,0.054619189351797104
12308,0.006452230270951986,-0.018384624272584915,0.031195180490612984,-0.11205786466598511,1.094223141670227,0.05644562095403671
12318,0.005476045422255993,-0.017892660573124886,0.031213635578751564,-0.1435665339231491,1.1492249965667725,0.057441726326942444
12328,0.0030955488327890635,-0.021666523069143295,0.031238971278071404,0.0329289510846138,1.2699520587921143,0.05358442664146423
12338,0.0016848567174747586,-0.02068932354450226,0.03127681463956833,-0.03165316581726074,1.336252212524414,0.055118266493082047
12348,0.00192753947339952,-0.021119847893714905,0.031138617545366287,-0.024632873013615608,1.3206590414047241,0.05598717927932739
12358,0.0018630665726959705,-0.021403638646006584,0.03111228533089161,-0.02578161470592022,1.320512294769287,0.05516691133379936
12368,0.004818232264369726,-0.02404581569135189,0.031053584069013596,0.08587060123682022,1.1766586303710938,0.05436083674430847
12378,0.004939288832247257,-0.024480264633893967,0.031022895127534866,0.08594849705696106,1.1755403280258179,0.055096764117479324
12388,0.005063503514975309,-0.024920929223299026,0.0309919361025095,0.08678053319454193,1.1727651357650757,0.05634618178009987
12398,-0.0034038240555673838,-0.026419851928949356,0.03009163588285446,0.1387263685464859,1.5797241926193237,0.05530548840761185
12408,-0.003774791955947876,-0.026937289163470268,0.030003605410456657,0.1402837485074997,1.5757936239242554,0.05485444515943527
12418,-0.0041500902734696865,-0.02746194787323475,0.029915213584899902,0.14088022708892822,1.5732377767562866,0.05640566721558571
12428,-0.004530700389295816,-0.02799370139837265,0.02982739359140396,0.1412011682987213,1.572421908378601,0.05658741295337677
12438,0.00045256249723024666,-0.028990818187594414,0.030461054295301437,0.16314446926116943,1.3209782838821411,0.054125674068927765
12448,0.002359321340918541,-0.028092728927731514,0.030518095940351486,0.09517351537942886,1.2277766466140747,0.05599454045295715
12458,-0.002216549124568701,-0.0224150437861681,0.030796270817518234,-0.18840137124061584,1.4376158714294434,0.06498588621616364
12468,-0.0035982313565909863,-0.021153751760721207,0.030742498114705086,-0.252750962972641,1.4873096942901611,0.06789443641901016
12478,-0.0034685833379626274,-0.02232358418405056,0.031283315271139145,-0.20413173735141754,1.4660978317260742,0.0668025016784668
12488,-0.0030856835655868053,-0.02368713915348053,0.03130357712507248,-0.14969752728939056,1.4363534450531006,0.06488144397735596
12498,-0.003286203136667609,-0.02167547307908535,0.03134166821837425,-0.2505050301551819,1.432395339012146,0.06787760555744171
12508,-0.003530226182192564,-0.021781785413622856,0.03135208413004875,-0.2505052387714386,1.430673599243164,0.06790298223495483
12518,-0.0037760664708912373,-0.021887829527258873,0.03136276453733444,-0.24996286630630493,1.4306905269622803,0.06736715883016586
12528,-0.0008871124009601772,-0.028595758602023125,0.03128083050251007,0.049066949635744095,1.2896631956100464,0.05732596293091774
12538,-0.00236302986741066,-0.02244916558265686,0.03153848275542259,-0.24645134806632996,1.3515490293502808,0.06562028080224991
12548,-0.0028826205525547266,-0.0212309081107378,0.03155241906642914,-0.30516448616981506,1.364646077156067,0.06662946194410324
12558,-0.0033840537071228027,-0.021793227642774582,0.03156936913728714,-0.2807631194591522,1.3756341934204102,0.06659519672393799
12568,-0.0033363820984959602,-0.02092686854302883,0.03217026963829994,-0.32293036580085754,1.3620818853378296,0.06850224733352661
12578,-0.002160441130399704,-0.02513568475842476,0.03227772191166878,-0.1357017606496811,1.2977944612503052,0.06373466551303864
12589,-0.0021305156406015158,-0.022313421592116356,0.03239285200834274,-0.27226561307907104,1.2903538942337036,0.06840544193983078
12599,-0.0022414589766412973,-0.022395439445972443,0.032450560480356216,-0.2723003923892975,1.2904554605484009,0.06922013312578201
12608,-0.0021993916016072035,-0.02322513237595558,0.03250786289572716,-0.23797884583473206,1.283236026763916,0.0685492530465126
12618,-0.000739167386200279,-0.019526910036802292,0.031960878521203995,-0.40591734647750854,1.2135629653930664,0.07351448386907578
12628,-0.002112320391461253,-0.0220404751598835,0.03203519806265831,-0.2908061444759369,1.2726695537567139,0.07021192461252213
12638,-0.0020864345133304596,-0.02230372093617916,0.03206007182598114,-0.27918708324432373,1.266897439956665,0.07126598060131073
12648,-0.00341036356985569,-0.022020487114787102,0.03207920864224434,-0.29328009486198425,1.3215304613113403,0.07161678373813629
12658,-0.006049839314073324,-0.027659649029374123,0.03204495087265968,-0.04579326510429382,1.4314093589782715,0.06414718925952911
12668,-0.004456510301679373,-0.0252787247300148,0.032221850007772446,-0.16695474088191986,1.347225308418274,0.06838058680295944
12678,-0.004670850932598114,-0.026518967002630234,0.032228708267211914,-0.1210392564535141,1.3476722240447998,0.06691091507673264
12688,-0.00485555874183774,-0.02678360603749752,0.03225500509142876,-0.12288586050271988,1.3448880910873413,0.06786941736936569
12698,-0.00564662367105484,-0.026457108557224274,0.03224819153547287,-0.13824179768562317,1.3819372653961182,0.06785646826028824
12708,-0.005844687577337027,-0.025309475138783455,0.033087294548749924,-0.2139342874288559,1.3663939237594604,0.06983829289674759
12718,-0.005008250009268522,-0.02683490514755249,0.033166494220495224,-0.15253812074661255,1.3193907737731934,0.06899668276309967
12728,-0.0047128996811807156,-0.026780573651194572,0.033251356333494186,-0.16304101049900055,1.2975046634674072,0.06948957592248917
12738,-0.005698071792721748,-0.026988845318555832,0.03331125155091286,-0.16209760308265686,1.3329815864562988,0.06870918720960617
12748,-0.007154510356485844,-0.021158838644623756,0.032900240272283554,-0.4290979206562042,1.3864511251449585,0.07454729825258255
12758,-0.009088131599128246,-0.019952572882175446,0.03286132588982582,-0.4741485118865967,1.4591315984725952,0.07538731396198273
12768,-0.008781038224697113,-0.01999065652489662,0.03293919190764427,-0.4616529941558838,1.4285719394683838,0.07482074201107025
12778,-0.008488455787301064,-0.022204412147402763,0.033109765499830246,-0.354576975107193,1.399945855140686,0.07279996573925018
12788,-0.006260826718062162,-0.026287294924259186,0.03278537094593048,-0.17047575116157532,1.2876008749008179,0.07084514945745468
12798,-0.005543058272451162,-0.01625988818705082,0.03307482227683067,-0.6281883716583252,1.2464090585708618,0.08163359016180038
12808,-0.004348284099251032,-0.01655070297420025,0.03316844254732132,-0.593892514705658,1.186362385749817,0.08221112936735153
12818,-0.004346737638115883,-0.016361378133296967,0.03322480991482735,-0.5844777226448059,1.1844409704208374,0.08135382831096649
12828,-0.00457849120721221,-0.01617410033941269,0.033284954726696014,-0.5739945769309998,1.1929140090942383,0.08144362270832062
12838,-0.0006374076474457979,-0.018518242985010147,0.03283693641424179,-0.4484042823314667,1.011841893196106,0.08285999298095703
12848,-0.0015805612783879042,-0.017393996939063072,0.03288104757666588,-0.4901621341705322,1.0652868747711182,0.08218652755022049
12858,-0.004089579917490482,-0.015604863874614239,0.03293100371956825,-0.5604405999183655,1.1872996091842651,0.07956664264202118
12868,-0.004086475353688002,-0.01523546688258648,0.03294951096177101,-0.5578407049179077,1.1869155168533325,0.08074907213449478
12878,-0.005513572134077549,-0.015778720378875732,0.03257926553487778,-0.5154666900634766,1.2542184591293335,0.07845677435398102
12888,-0.006692720111459494,-0.013462565839290619,0.032482489943504333,-0.6074934601783752,1.3061186075210571,0.0778416246175766
12898,-0.0043211220763623714,-0.01539057306945324,0.03268768638372421,-0.4940287172794342,1.1845238208770752,0.08022870123386383
12908,-0.00548710348084569,-0.014033724553883076,0.03264790028333664,-0.5436175465583801,1.237550139427185,0.07933515310287476
12918,-0.005031667649745941,-0.014047943986952305,0.03326672315597534,-0.5238891839981079,1.210787057876587,0.07978032529354095
12928,-0.004570424556732178,-0.015224131755530834,0.033365409821271896,-0.45052096247673035,1.1873079538345337,0.08047100901603699
12938,-0.004359318874776363,-0.015497023239731789,0.0333721861243248,-0.43652644753456116,1.176534652709961,0.08064150810241699
12948,-0.004341340158134699,-0.015247317962348461,0.03341635689139366,-0.4355052411556244,1.1747504472732544,0.0799093246459961
12958,-0.004342337604612112,-0.015494895167648792,0.033477507531642914,-0.4095344841480255,1.1764107942581177,0.07900188863277435
12968,-0.0016244555590674281,-0.019795527681708336,0.032032083719968796,-0.17795418202877045,1.0369164943695068,0.08232478052377701
12978,-0.0027605833020061255,-0.015141996555030346,0.032151397317647934,-0.4235290586948395,1.1025322675704956,0.08202968537807465
12988,-0.003651703242212534,-0.014722989872097969,0.03213095664978027,-0.4329177737236023,1.1543190479278564,0.08158548921346664
12998,-0.003657145192846656,-0.015178325586020947,0.03211931511759758,-0.39471274614334106,1.1573630571365356,0.08188792318105698
13008,-0.0019074846059083939,-0.019756892696022987,0.03169972449541092,-0.14028069376945496,1.067797303199768,0.08364468812942505
13018,-0.005040696356445551,-0.01841336488723755,0.031752437353134155,-0.2150879055261612,1.2409694194793701,0.077393539249897
13028,-0.006108188070356846,-0.013980073854327202,0.031745634973049164,-0.45222678780555725,1.2952156066894531,0.07732296735048294
13038,-0.005679870955646038,-0.013985298573970795,0.03171778842806816,-0.4357445538043976,1.2669161558151245,0.07775247097015381
13048,-0.006098865065723658,-0.013780549168586731,0.031662896275520325,-0.43272218108177185,1.2830872535705566,0.07796631008386612
13058,-0.006914212368428707,-0.011732129380106926,0.030866185203194618,-0.530504047870636,1.3216125965118408,0.07729752361774445
13068,-0.008165813982486725,-0.007173621561378241,0.0305485799908638,-0.7581809759140015,1.3786002397537231,0.07807263731956482
13078,-0.008164172992110252,-0.006972683593630791,0.030491003766655922,-0.7321709394454956,1.3664216995239258,0.07785949856042862
13088,-0.00918445736169815,-0.006765265949070454,0.030399110168218613,-0.7078889012336731,1.4107534885406494,0.07723161578178406
13098,-0.005497665144503117,-0.008183212950825691,0.030433807522058487,-0.5965039730072021,1.191762924194336,0.08212019503116608
13108,-0.005700200330466032,-0.007163340225815773,0.030318554490804672,-0.6263921856880188,1.2017773389816284,0.08224982023239136
13118,-0.006714234594255686,-0.0019130428554490209,0.02992483600974083,-0.887503981590271,1.2563658952713013,0.08287245035171509
13128,-0.006918476894497871,-0.0008931984193623066,0.029783468693494797,-0.8993462324142456,1.2647901773452759,0.08225858211517334
13138,-0.007521248422563076,-0.0012626522220671177,0.02983923628926277,-0.8309296369552612,1.2932534217834473,0.0816238597035408
13148,-0.005546070169657469,-0.003702994668856263,0.031391143798828125,-0.6417397856712341,1.172572374343872,0.08308473974466324
13158,-0.0067594656720757484,-0.0016822159523144364,0.031308095902204514,-0.720119297504425,1.2400307655334473,0.08178529888391495
13168,-0.0067619141191244125,-0.0014480979880318046,0.03133140131831169,-0.695084273815155,1.2379688024520874,0.0814327672123909
13178,-0.006967515219002962,-0.001424216665327549,0.03137444704771042,-0.657916784286499,1.2454347610473633,0.0810871422290802
13188,-0.007554513867944479,-0.0014451021561399102,0.03086232952773571,-0.6228553652763367,1.275900959968567,0.07936367392539978
13198,-0.00498777674511075,-0.00555409025400877,0.03111717663705349,-0.3576638102531433,1.1260017156600952,0.08267781883478165
13208,-0.005771757569164038,-0.00553675414994359,0.03112684190273285,-0.3403798043727875,1.1741724014282227,0.08162996172904968
13218,-0.005377709399908781,-0.005720142740756273,0.03112003579735756,-0.31576740741729736,1.1518714427947998,0.08390392363071442
13228,-0.005769628565758467,-0.005707624834030867,0.031120745465159416,-0.3030076026916504,1.176507592201233,0.08415405452251434
13238,-0.010088751092553139,-0.008815081790089607,0.03151211887598038,-0.11783452332019806,1.4174731969833374,0.0741238072514534
13248,-0.010347302071750164,-0.008803507313132286,0.031530946493148804,-0.11831776052713394,1.4186135530471802,0.07475221157073975
13258,-0.010345078073441982,-0.009010021574795246,0.03155673295259476,-0.1074005663394928,1.4028319120407104,0.07435203343629837
13268,-0.00972350500524044,-0.009003585204482079,0.031622517853975296,-0.10822786390781403,1.3529424667358398,0.07566414028406143
13278,-0.01050840225070715,-0.013161583803594112,0.03048703819513321,0.11579963564872742,1.3848984241485596,0.07091952115297318
13288,-0.010480260476469994,-0.019719388335943222,0.03003677912056446,0.4544450044631958,1.3703930377960205,0.06612099707126617
13298,-0.010921210050582886,-0.01564074121415615,0.030681315809488297,0.19618366658687592,1.3782397508621216,0.06967002153396606
13308,-0.011942708864808083,-0.015034444630146027,0.030725201591849327,0.13994240760803223,1.4200419187545776,0.07042980939149857
13318,-0.011496583931148052,-0.014849559403955936,0.029280943796038628,0.10864520817995071,1.3812808990478516,0.07146933674812317
13328,-0.011733166873455048,-0.015173475258052349,0.029172705486416817,0.10870639979839325,1.3804359436035156,0.07144049555063248
13338,-0.01150655560195446,-0.015798235312104225,0.029064243659377098,0.12504132091999054,1.3529316186904907,0.07156263291835785
13348,-0.01150576863437891,-0.015359558165073395,0.02901192381978035,0.08130263537168503,1.3395447731018066,0.07242286950349808
13358,-0.011699274182319641,-0.015666332095861435,0.028906237334012985,0.08108396083116531,1.339689016342163,0.0739297866821289
13368,-0.01058212574571371,-0.018794355913996696,0.0296841561794281,0.2293659895658493,1.2696123123168945,0.07156313955783844
13378,-0.015029245987534523,-0.017416633665561676,0.029731204733252525,0.1304813176393509,1.4975028038024902,0.07588609308004379
13388,-0.015885738655924797,-0.01651063561439514,0.02972603030502796,0.0625351220369339,1.5190529823303223,0.07638253271579742
13398,-0.015863170847296715,-0.01714879460632801,0.0297040157020092,0.08145375549793243,1.493881344795227,0.07464531064033508
13408,-0.016141898930072784,-0.016527751460671425,0.0315362848341465,0.029262172058224678,1.4821192026138306,0.07583408802747726
13418,-0.013116922229528427,-0.01952994614839554,0.03171653673052788,0.1711253821849823,1.3012951612472534,0.07003720104694366
13428,-0.01611516997218132,-0.01780468039214611,0.03191022202372551,0.05948025733232498,1.4455223083496094,0.07482561469078064
13438,-0.01611211523413658,-0.01737050712108612,0.03205617144703865,0.02010909467935562,1.424421787261963,0.07578343898057938
13448,-0.01608145982027054,-0.017137737944722176,0.03169650584459305,-0.0051132082007825375,1.405590295791626,0.07735498249530792
13458,-0.01639924943447113,-0.017387958243489265,0.031769298017024994,-0.004321261774748564,1.403848648071289,0.07793679088354111
13468,-0.01637544110417366,-0.016699086874723434,0.031876303255558014,-0.053812261670827866,1.3852986097335815,0.07707536220550537
13478,-0.016356276348233223,-0.01734936609864235,0.03195760399103165,-0.02806805446743965,1.3668842315673828,0.0780697613954544
13488,-0.015458549372851849,-0.01755572110414505,0.032078731805086136,-0.02889847569167614,1.3041495084762573,0.07635587453842163
13498,-0.010911562480032444,-0.019090687856078148,0.03301682323217392,0.039812397211790085,1.0510141849517822,0.06718100607395172
13508,-0.010811598971486092,-0.01940668560564518,0.033150628209114075,0.03965706378221512,1.051020860671997,0.06805582344532013
13518,-0.01070768479257822,-0.019728083163499832,0.03328367695212364,0.03804974630475044,1.0500990152359009,0.06792721152305603
13528,-0.01146494410932064,-0.019665995612740517,0.03346649557352066,0.017851587384939194,1.0939404964447021,0.0704990029335022
13538,-0.011661507189273834,-0.019081508740782738,0.03211463615298271,-0.02683575451374054,1.108683466911316,0.07259561866521835
13548,-0.018060659989714622,-0.024496402591466904,0.032152507454156876,0.2426561713218689,1.4421050548553467,0.07587742060422897
13559,-0.018952269107103348,-0.024415742605924606,0.03221525624394417,0.20737887918949127,1.4690083265304565,0.0773303210735321
13569,-0.018912089988589287,-0.023650256916880608,0.032381609082221985,0.1386776566505432,1.4451113939285278,0.07822694629430771
13579,-0.018878048285841942,-0.023826247081160545,0.03247469663619995,0.12318860739469528,1.4240490198135376,0.077963687479496
13589,-0.016006838530302048,-0.03011029027402401,0.03302333131432533,0.426927775144577,1.2558039426803589,0.06788893789052963
13599,-0.01614644005894661,-0.030927307903766632,0.033098384737968445,0.4262012541294098,1.2536636590957642,0.06856226921081543
13609,-0.01589842326939106,-0.03081418201327324,0.03328054025769234,0.37673190236091614,1.23131263256073,0.06834802776575089
13619,-0.01682639867067337,-0.030702626332640648,0.03345533832907677,0.32846447825431824,1.271850824356079,0.07146935909986496
13629,-0.016997579485177994,-0.033342812210321426,0.03238392993807793,0.42777538299560547,1.271180272102356,0.07104359567165375
13639,-0.01607254333794117,-0.030959777534008026,0.03270856663584709,0.25767970085144043,1.2149035930633545,0.07158162444829941
13649,-0.016064753755927086,-0.03157573938369751,0.03275242820382118,0.2579241096973419,1.2135961055755615,0.07226268202066422
13659,-0.01606474071741104,-0.03083219565451145,0.032904695719480515,0.1835031360387802,1.207601547241211,0.07317543774843216
13669,-0.01673346571624279,-0.03078564628958702,0.03299511969089508,0.1495325118303299,1.2379860877990723,0.07442095130681992
13679,-0.013570761308073997,-0.029536213725805283,0.031884048134088516,0.05759561434388161,1.0682587623596191,0.06822201609611511
13689,-0.016450311988592148,-0.029509127140045166,0.0319463387131691,0.029351098462939262,1.223518967628479,0.07491075247526169
13698,-0.016009749844670296,-0.030136726796627045,0.03193438798189163,0.03648526221513748,1.1949760913848877,0.07417666912078857
13708,-0.016440443694591522,-0.030380072072148323,0.03193286433815956,0.021377718076109886,1.2134084701538086,0.07471248507499695
13718,-0.016616633161902428,-0.03028208576142788,0.03078402951359749,-0.004676118493080139,1.215619444847107,0.07618449628353119
13728,-0.01467326283454895,-0.028099076822400093,0.030796846374869347,-0.14076152443885803,1.107177495956421,0.07347137480974197
13738,-0.01488580647855997,-0.028948253020644188,0.030733030289411545,-0.11044482886791229,1.1197152137756348,0.07332092523574829
13748,-0.014247104525566101,-0.02935859002172947,0.030661923810839653,-0.10522820055484772,1.0860470533370972,0.0715121179819107
13758,-0.015946440398693085,-0.02914661169052124,0.030645757913589478,-0.1343778669834137,1.1776877641677856,0.07564437389373779
13768,-0.015119830146431923,-0.027904760092496872,0.031184867024421692,-0.21485908329486847,1.13141930103302,0.07460252940654755
13778,-0.014284483157098293,-0.02999328449368477,0.031157582998275757,-0.11478850990533829,1.0876027345657349,0.07429672032594681
13788,-0.015123159624636173,-0.028322022408246994,0.031194040551781654,-0.220327690243721,1.1344647407531738,0.07585018873214722
13798,-0.01594937965273857,-0.02832488901913166,0.031180618330836296,-0.23071110248565674,1.177203893661499,0.07653013616800308
13808,-0.01301243994385004,-0.022413333877921104,0.031115038320422173,-0.5509771108627319,1.0191423892974854,0.07365480065345764
13818,-0.01300567016005516,-0.024416452273726463,0.031235825270414352,-0.4349445104598999,1.0266778469085693,0.07346409559249878
13828,-0.013001256622374058,-0.024626480415463448,0.0312452744692564,-0.4182710349559784,1.0345195531845093,0.07289201021194458
13838,-0.01319960132241249,-0.025443650782108307,0.031280193477869034,-0.370337575674057,1.0516178607940674,0.07271633297204971
13848,-0.01319675799459219,-0.024840237572789192,0.03126769885420799,-0.4011969268321991,1.0565054416656494,0.07352045178413391
13858,-0.013600724749267101,-0.024037454277276993,0.03156528249382973,-0.4395727813243866,1.082962155342102,0.07453659176826477
13868,-0.013601116836071014,-0.024241790175437927,0.031591009348630905,-0.423992782831192,1.0862120389938354,0.07599380612373352
13878,-0.013002051040530205,-0.024639425799250603,0.0316140316426754,-0.39813172817230225,1.058763861656189,0.07582100480794907
13888,-0.01286284439265728,-0.024588996544480324,0.03163083270192146,-0.3982051610946655,1.0580990314483643,0.0756150558590889
13898,-0.01308920793235302,-0.0264991894364357,0.03268636763095856,-0.2934702932834625,1.0769481658935547,0.07720751315355301
13908,-0.013518799096345901,-0.02438986301422119,0.03279244899749756,-0.40826839208602905,1.1049233675003052,0.07582787424325943
13918,-0.013525431975722313,-0.023972896859049797,0.03286823630332947,-0.42576804757118225,1.1084628105163574,0.0749218538403511
13928,-0.01290297880768776,-0.025434615090489388,0.03298429027199745,-0.34253352880477905,1.079994797706604,0.07454682886600494
13938,-0.01394104678183794,-0.025638090446591377,0.03347126021981239,-0.330819696187973,1.1396453380584717,0.07373012602329254
13948,-0.011896893382072449,-0.022343890741467476,0.033585939556360245,-0.5033045411109924,1.0329418182373047,0.07263819128274918
13958,-0.01251458190381527,-0.024599989876151085,0.03382038325071335,-0.37316906452178955,1.0756359100341797,0.07413551956415176
13968,-0.01374243013560772,-0.02459982968866825,0.033966485410928726,-0.3698180317878723,1.145753026008606,0.07289444655179977
13978,-0.012930626980960369,-0.0245975349098444,0.03408967703580856,-0.36673083901405334,1.104515790939331,0.07391387224197388
13988,-0.014347893185913563,-0.020364122465252876,0.03239529952406883,-0.5891443490982056,1.1853446960449219,0.07199995219707489
13998,-0.015359250828623772,-0.019956348463892937,0.03239003196358681,-0.5919867157936096,1.238664150238037,0.07019076496362686
14008,-0.014762857928872108,-0.019954314455389977,0.03243791684508324,-0.5723341703414917,1.2039506435394287,0.07135967165231705
14018,-0.014160512946546078,-0.020948680117726326,0.03255090117454529,-0.4992983341217041,1.1721497774124146,0.07272152602672577
14028,-0.013356942683458328,-0.02334880270063877,0.03239408880472183,-0.3574698865413666,1.1298201084136963,0.07497851550579071
14038,-0.013276128098368645,-0.023281188681721687,0.03240043669939041,-0.35712745785713196,1.129863977432251,0.07385677099227905
14048,-0.013192769140005112,-0.023212751373648643,0.032405611127614975,-0.3567180335521698,1.1273382902145386,0.07353149354457855
14058,-0.013106443919241428,-0.02314337156713009,0.032410357147455215,-0.3571135401725769,1.1262085437774658,0.0755380317568779
14068,-0.01301455870270729,-0.023076718673110008,0.0322394073009491,-0.3580813705921173,1.1254059076309204,0.07428374141454697
14078,-0.011772416532039642,-0.02233150601387024,0.03222179412841797,-0.39192914962768555,1.0614901781082153,0.07541089504957199
14088,-0.005066351033747196,-0.01785801351070404,0.03202518820762634,-0.6204513907432556,0.717617392539978,0.08142166584730148
14098,-0.006171566899865866,-0.017197202891111374,0.03214527666568756,-0.6346968412399292,0.8054937124252319,0.08070223778486252
14108,-0.00568803958594799,-0.016781967133283615,0.032129693776369095,-0.6337029933929443,0.8044096827507019,0.07945721596479416
14118,-0.005813433788716793,-0.01739717833697796,0.0325782336294651,-0.5787171125411987,0.8348501920700073,0.08019129186868668
14128,-0.0051607959903776646,-0.01773701049387455,0.03260890394449234,-0.5400702357292175,0.8239755630493164,0.08198155462741852
14138,-0.004679093603044748,-0.017408248037099838,0.03262561932206154,-0.5391557216644287,0.8233859539031982,0.08209335058927536
14148,-0.005616491660475731,-0.017234008759260178,0.032745711505413055,-0.529153048992157,0.894511342048645,0.08140702545642853
14158,0.0007350548403337598,-0.0227776151150465,0.03118283487856388,-0.23182743787765503,0.5937982201576233,0.09592391550540924
14168,-0.00020852051966357976,-0.030995436012744904,0.031144585460424423,0.18361611664295197,0.6811949014663696,0.10093501210212708
14178,-0.0013563584070652723,-0.02988123893737793,0.03134487569332123,0.10333304852247238,0.7726132869720459,0.09768221527338028
14188,0.0002630847739055753,-0.031044797971844673,0.031168531626462936,0.1435304582118988,0.7185482382774353,0.09909331798553467
14198,-0.0003538759774528444,-0.03169010579586029,0.03119989112019539,0.15375252068042755,0.7809947729110718,0.0996071919798851
14208,-0.005801402032375336,-0.034531425684690475,0.030814994126558304,0.2717316150665283,1.084610104560852,0.09709896892309189
14218,-0.0070262779481709,-0.034443449229002,0.03080887719988823,0.236977219581604,1.1562373638153076,0.09638505429029465
14228,-0.006331261247396469,-0.03435223177075386,0.030803946778178215,0.20457561314105988,1.1289938688278198,0.09658895432949066
14238,-0.006826861295849085,-0.034042760729789734,0.030816851183772087,0.1612457036972046,1.1617392301559448,0.09631986916065216
14248,-0.007061807904392481,-0.035185717046260834,0.030428163707256317,0.19095568358898163,1.1822938919067383,0.09731055051088333
14258,-0.01328695472329855,-0.037203285843133926,0.030240105465054512,0.26533469557762146,1.4994544982910156,0.09787793457508087
14268,-0.014179009944200516,-0.03689480945467949,0.03019563853740692,0.2175733894109726,1.5306832790374756,0.09779743105173111
14278,-0.013489198870956898,-0.03708053380250931,0.03021877631545067,0.19493480026721954,1.481379508972168,0.098239004611969
14288,-0.014367753639817238,-0.03613428398966789,0.0302300862967968,0.11781898140907288,1.5139521360397339,0.09846243262290955
14298,-0.013903403654694557,-0.03630676120519638,0.029732856899499893,0.10182025283575058,1.4762059450149536,0.09792938083410263
14308,-0.013444882817566395,-0.03671838343143463,0.029676202684640884,0.0995190218091011,1.4405550956726074,0.0985303521156311
14318,-0.014094115234911442,-0.0366886705160141,0.029598886147141457,0.07561784237623215,1.4641703367233276,0.09819870442152023
14328,-0.013432037085294724,-0.036882270127534866,0.029568741098046303,0.06329073011875153,1.4199376106262207,0.0973198264837265
14338,-0.01428577397018671,-0.041419677436351776,0.029933437705039978,0.27135366201400757,1.4552068710327148,0.0954253152012825
14348,-0.01342499628663063,-0.04182318598031998,0.029931584373116493,0.254716157913208,1.4009467363357544,0.09511645883321762
14358,-0.016369743272662163,-0.047930758446455,0.029366863891482353,0.5314254760742188,1.5445356369018555,0.09385772794485092
14368,-0.017418503761291504,-0.04749741032719612,0.029466412961483,0.4522840082645416,1.5827440023422241,0.0966542586684227
14378,-0.01678849570453167,-0.04790569841861725,0.029549820348620415,0.4232899248600006,1.5293340682983398,0.09600891917943954
14388,-0.017430175095796585,-0.047730956226587296,0.03018760308623314,0.3634822964668274,1.5450172424316406,0.09833850711584091
14398,-0.017759650945663452,-0.048615336418151855,0.030164934694767,0.36227521300315857,1.5422289371490479,0.09877996891736984
14408,-0.017087820917367935,-0.04878528416156769,0.030281750485301018,0.3255999684333801,1.4870991706848145,0.09841258078813553
14418,-0.017511267215013504,-0.048748452216386795,0.03037373162806034,0.28102511167526245,1.492924690246582,0.10090107470750809
14428,-0.01594379171729088,-0.05340629816055298,0.029571501538157463,0.48158469796180725,1.3982099294662476,0.09069857001304626
14438,-0.016108231619000435,-0.054480936378240585,0.029512770473957062,0.48107731342315674,1.3968541622161865,0.0913313627243042
14448,-0.0167767982929945,-0.05437786132097244,0.029612978920340538,0.4207509160041809,1.4198287725448608,0.09314881265163422
14458,-0.0151900639757514,-0.054291967302560806,0.029774734750390053,0.3629523515701294,1.3263404369354248,0.09338267892599106
14468,-0.015217278152704239,-0.05562141537666321,0.030656391754746437,0.37900903820991516,1.3190031051635742,0.09246230870485306
14478,-0.01302666962146759,-0.05337038263678551,0.03101729042828083,0.2132110595703125,1.1996763944625854,0.09241992235183716
14488,-0.012815856374800205,-0.053319912403821945,0.031135180965065956,0.1721091866493225,1.1899511814117432,0.09467201679944992
14498,-0.013908191584050655,-0.053289007395505905,0.03128663823008537,0.13100415468215942,1.2490226030349731,0.09826932847499847
14508,-0.013905484229326248,-0.05398189276456833,0.031354084610939026,0.13197015225887299,1.2477248907089233,0.09931030124425888
14518,-0.011811555363237858,-0.05843912810087204,0.030607817694544792,0.32537010312080383,1.1409518718719482,0.08925538510084152
14528,-0.012509114108979702,-0.05880625545978546,0.03070555441081524,0.2961232662200928,1.1827341318130493,0.09236598759889603
14538,-0.011847897432744503,-0.05873171612620354,0.030828462913632393,0.2457420527935028,1.1525659561157227,0.09212784469127655
14548,-0.01252805907279253,-0.05844894424080849,0.03101719357073307,0.18857485055923462,1.1914814710617065,0.0957973375916481
14558,-0.012531532905995846,-0.058169443160295486,0.031102852895855904,0.13314209878444672,1.19412362575531,0.09675177931785583
14568,-0.013640670105814934,-0.053550995886325836,0.03150448203086853,-0.14024390280246735,1.251462459564209,0.10623753815889359
14578,-0.013643345795571804,-0.053310081362724304,0.031585242599248886,-0.17196990549564362,1.2498024702072144,0.10675863921642303
14588,-0.013644748367369175,-0.0536687895655632,0.03166241571307182,-0.17193405330181122,1.248513102531433,0.10788866877555847
14598,-0.01344967633485794,-0.05855449661612511,0.03309549018740654,0.05424799770116806,1.2357412576675415,0.10199937224388123
14608,-0.011651413515210152,-0.0598459430038929,0.033217303454875946,0.08768808841705322,1.1433920860290527,0.09745506197214127
14618,-0.01438069436699152,-0.05148514732718468,0.03408273681998253,-0.3798307180404663,1.2890026569366455,0.11262909322977066
14628,-0.015718156471848488,-0.05035730078816414,0.03423850238323212,-0.44416511058807373,1.3531708717346191,0.1163819208741188
14638,-0.013727933168411255,-0.05146322771906853,0.03456435352563858,-0.38908326625823975,1.2430663108825684,0.11418163776397705
14648,-0.01567564532160759,-0.05404563620686531,0.03358932584524155,-0.2573910355567932,1.3442896604537964,0.11251936852931976
14658,-0.015458432957530022,-0.051150187849998474,0.03378492593765259,-0.4232417345046997,1.3250199556350708,0.11657990515232086
14668,-0.014563350938260555,-0.05136346444487572,0.03395244851708412,-0.4144214391708374,1.2707557678222656,0.11648759990930557
14678,-0.014566915109753609,-0.051572658121585846,0.034101780503988266,-0.4065578877925873,1.267132043838501,0.11637841165065765
14688,-0.014520864002406597,-0.055586159229278564,0.03251437470316887,-0.19896693527698517,1.2635270357131958,0.11274924874305725
14698,-0.014952759258449078,-0.052600834518671036,0.03265340253710747,-0.37623733282089233,1.2827699184417725,0.11599817872047424
14708,-0.0157866682857275,-0.052809808403253555,0.03270025551319122,-0.37050849199295044,1.324464201927185,0.11573640257120132
14718,-0.014309770427644253,-0.052591875195503235,0.03278385102748871,-0.38964441418647766,1.236208200454712,0.11488233506679535
14728,-0.015977289527654648,-0.05176372081041336,0.032837603241205215,-0.4401538074016571,1.3251514434814453,0.11753784865140915
14738,-0.014913876540958881,-0.05467432737350464,0.032134342938661575,-0.2838740348815918,1.263654351234436,0.113805390894413
14748,-0.015542683191597462,-0.05177353695034981,0.032201699912548065,-0.4529076814651489,1.2948027849197388,0.11676838994026184
14758,-0.01533566415309906,-0.05239268019795418,0.03222963586449623,-0.419695109128952,1.2796870470046997,0.11580442637205124
14768,-0.015745609998703003,-0.05239700525999069,0.03224505856633186,-0.4228031039237976,1.2977858781814575,0.1158316507935524
14778,-0.015755129978060722,-0.05178358405828476,0.03255581110715866,-0.4580041170120239,1.2931749820709229,0.11692026257514954
14788,-0.015350251458585262,-0.05219214782118797,0.03259852156043053,-0.43635016679763794,1.265053629875183,0.11722147464752197
14798,-0.015356007032096386,-0.05239646136760712,0.032634228467941284,-0.4266974925994873,1.2613005638122559,0.11726626008749008
14809,-0.015759313479065895,-0.05240046977996826,0.032666489481925964,-0.42825084924697876,1.2814749479293823,0.11686234176158905
14818,-0.015160540118813515,-0.05359898507595062,0.03271256014704704,-0.36243516206741333,1.2430282831192017,0.11615365743637085
14829,-0.014158830977976322,-0.05881466716527939,0.03322167694568634,-0.07790640741586685,1.1837979555130005,0.11204370111227036
14838,-0.014110635966062546,-0.05923783406615257,0.03327997028827667,-0.07790154963731766,1.180923342704773,0.11375312507152557
14848,-0.014116519130766392,-0.05943595990538597,0.03335568308830261,-0.09208881109952927,1.1813169717788696,0.1139330342411995
14858,-0.014754710718989372,-0.0592169426381588,0.033469147980213165,-0.1278727650642395,1.217684030532837,0.11407862603664398
14868,-0.01473394688218832,-0.06256367266178131,0.03281131386756897,0.034715138375759125,1.2163666486740112,0.1110442653298378
14878,-0.014117482118308544,-0.06027282774448395,0.033041488379240036,-0.12263921648263931,1.1817677021026611,0.11539214104413986
14888,-0.014121763408184052,-0.059647660702466965,0.03312959894537926,-0.17935101687908173,1.1815903186798096,0.11672654002904892
14898,-0.0151516143232584,-0.05882563069462776,0.03322923928499222,-0.24203264713287354,1.2391831874847412,0.11655056476593018
14908,-0.013513080775737762,-0.05964834988117218,0.03326880559325218,-0.2107241451740265,1.1459052562713623,0.1181703507900238
14918,-0.014313696883618832,-0.06373017281293869,0.032712243497371674,-0.003489445662125945,1.1944782733917236,0.1146770790219307
14928,-0.015330802649259567,-0.06373955309391022,0.03276634216308594,-0.03175705298781395,1.251051902770996,0.11443814635276794
14938,-0.01371432188898325,-0.06394913792610168,0.03281792253255844,-0.04687345772981644,1.1608628034591675,0.11431102454662323
14948,-0.013911904767155647,-0.06456636637449265,0.032829977571964264,-0.03971260040998459,1.1758791208267212,0.1145399957895279
14958,-0.015095949172973633,-0.063775934278965,0.03215068206191063,-0.10850749909877777,1.2426904439926147,0.1149730235338211
14968,-0.014497049152851105,-0.06419142335653305,0.03213007375597954,-0.10653520375490189,1.2065479755401611,0.11533913016319275
14978,-0.014472580514848232,-0.0646132379770279,0.03210671991109848,-0.1043940857052803,1.2064485549926758,0.11599694937467575
14988,-0.014479577541351318,-0.06439270824193954,0.03211938217282295,-0.13752129673957825,1.208330512046814,0.11724208295345306
14998,-0.017435453832149506,-0.06333205103874207,0.03210368752479553,-0.2133270502090454,1.368214726448059,0.11596418917179108
15008,-0.016823945567011833,-0.058937929570674896,0.03219740092754364,-0.46278220415115356,1.3244810104370117,0.11958932131528854
15018,-0.01661202684044838,-0.0589376725256443,0.032199643552303314,-0.46197640895843506,1.307569980621338,0.11927945911884308
15028,-0.015991469845175743,-0.057902880012989044,0.032172977924346924,-0.5149922966957092,1.2668085098266602,0.1207980141043663
15038,-0.01640181802213192,-0.05852208659052849,0.032201822847127914,-0.4746805727481842,1.283903956413269,0.11868849396705627
15048,-0.016377825289964676,-0.05892813205718994,0.03124826028943062,-0.4488913118839264,1.2776416540145874,0.1180247813463211
15058,-0.017804007977247238,-0.05913729593157768,0.031169669702649117,-0.4325370192527771,1.3473323583602905,0.11720389127731323
15068,-0.016784293577075005,-0.05914079770445824,0.03113972209393978,-0.4304981231689453,1.2820159196853638,0.11973075568675995
15078,-0.016868332400918007,-0.0591130368411541,0.031070789322257042,-0.42853009700775146,1.2803293466567993,0.11947190016508102
15088,-0.017737897112965584,-0.0591181255877018,0.03143457695841789,-0.4255172908306122,1.3194646835327148,0.11889727413654327
15098,-0.01709085889160633,-0.05911526083946228,0.03140883147716522,-0.4239002466201782,1.2765257358551025,0.11872120946645737
15108,-0.01687774993479252,-0.058909088373184204,0.03137078136205673,-0.43369951844215393,1.2606348991394043,0.12019001692533493
15118,-0.016023369506001472,-0.05890895798802376,0.031342361122369766,-0.42902040481567383,1.2113347053527832,0.1198442131280899
15128,-0.015804274007678032,-0.0631292387843132,0.031377069652080536,-0.20244373381137848,1.1960097551345825,0.11861700564622879
15138,-0.014946038834750652,-0.06542626768350601,0.030639929696917534,-0.09173469990491867,1.1504974365234375,0.11973851919174194
15148,-0.014110741205513477,-0.06562912464141846,0.030566569417715073,-0.09990836679935455,1.1096795797348022,0.12079350650310516
15158,-0.015574037097394466,-0.06417760998010635,0.030673647299408913,-0.19688472151756287,1.1930350065231323,0.12046082317829132
15168,-0.014951200224459171,-0.06541573256254196,0.030563728883862495,-0.1434076726436615,1.1589285135269165,0.12159892916679382
15178,-0.01295290794223547,-0.06439290940761566,0.032987285405397415,-0.21460436284542084,1.051425576210022,0.12502317130565643
15188,-0.01376680564135313,-0.06624211370944977,0.03306831791996956,-0.12531453371047974,1.1052242517471313,0.12467378377914429
15198,-0.014790832996368408,-0.06563921272754669,0.0332416296005249,-0.1752050817012787,1.165651559829712,0.12491532415151596
15208,-0.014725536108016968,-0.0659223198890686,0.03334467113018036,-0.1734718233346939,1.163496494293213,0.1263776570558548
15218,-0.014757991768419743,-0.06583146750926971,0.031600821763277054,-0.19350194931030273,1.1711289882659912,0.12570729851722717
15228,-0.014696677215397358,-0.06609589606523514,0.0315990224480629,-0.1920473724603653,1.1681177616119385,0.12562620639801025
15238,-0.01642126590013504,-0.06459435075521469,0.03165752440690994,-0.28443771600723267,1.261810302734375,0.12542524933815002
15248,-0.015566334128379822,-0.06330502778291702,0.031689438968896866,-0.35888341069221497,1.212876796722412,0.12646706402301788
15258,-0.0144655117765069,-0.06307735294103622,0.03169471397995949,-0.37288209795951843,1.1548435688018799,0.12758184969425201
15268,-0.015103267505764961,-0.06223283335566521,0.03182801604270935,-0.420087069272995,1.1920663118362427,0.12758581340312958
15278,-0.015143048949539661,-0.06224265694618225,0.031875304877758026,-0.4250684082508087,1.1959670782089233,0.1272297501564026
15288,-0.014549791812896729,-0.06263969838619232,0.031893517822027206,-0.3995372951030731,1.1640112400054932,0.12794707715511322
