timestamp (ms),stateEstimate.x,stateEstimate.y,stateEstimate.z,stabilizer.roll,stabilizer.pitch,stabilizer.yaw
9589,9.356063515042479e-07,3.8454254536191e-05,-2.629123628139496e-06,-0.00021390743495430797,-0.0006589774275198579,0.00025415749405510724
9599,6.694904641335597e-06,4.375565913505852e-05,1.0291012525558472,0.012937871739268303,-0.0003105690120719373,-0.001129473326727748
9609,2.1485302568180487e-06,5.284364306135103e-05,1.0293761491775513,0.012198003008961678,-0.0004426020896062255,-0.0023199692368507385
9619,2.540093191782944e-05,-4.438088944880292e-05,0.02001384273171425,0.027312301099300385,-0.00798533484339714,-0.001987393479794264
9629,-7.581782847410068e-05,-0.00017590259085409343,0.0199795663356781,0.07167661935091019,0.0416681207716465,-0.0022999863140285015
9641,-0.00027153079281561077,0.00018275606271345168,0.019960051402449608,-0.1376984715461731,0.14106087386608124,-0.0026314647402614355
9649,-0.00032269893563352525,0.00021156306320335716,0.019910205155611038,-0.13826294243335724,0.14295655488967896,-0.0024245213717222214
9659,-0.0003502994659356773,0.000583387678489089,0.01984449289739132,-0.2824974060058594,0.13356217741966248,-0.002972922520712018
9669,-0.0003755616780836135,0.0004292268422432244,0.019868653267621994,-0.18633507192134857,0.12567061185836792,-0.0034994049929082394
9679,-0.0004175740177743137,0.0004759709117934108,0.019797533750534058,-0.186478391289711,0.12601204216480255,-0.004597079008817673
9689,-4.024386726086959e-05,-0.0002935847151093185,0.019734572619199753,0.1143476590514183,-0.02834128774702549,-0.004311616066843271
9699,-3.347993333591148e-05,0.0008067602175287902,0.019674239680171013,-0.30129414796829224,-0.020712975412607193,-0.005422838497906923
9709,0.00012337708903942257,0.0008282248163595796,0.0208940077573061,-0.28255167603492737,-0.06358551234006882,-0.005259478464722633
9719,0.00016984425019472837,0.0008975196396932006,0.020836306735873222,-0.2812458276748657,-0.06300685554742813,-0.005841749720275402
9729,0.00021932458912488073,0.000966012361459434,0.020770732313394547,-0.278350293636322,-0.06238294765353203,-0.0063540334813296795
9739,0.0010698455153033137,0.0007535987533628941,0.020692797377705574,-0.19841966032981873,-0.28880661725997925,-0.007017381023615599
9749,0.001280966796912253,0.0009664878016337752,0.02060871198773384,-0.24588961899280548,-0.30530646443367004,-0.006577762309461832
9759,-0.0007209879113361239,0.00185173109639436,0.021134262904524803,-0.4547174572944641,0.24234852194786072,-0.007054888177663088
9769,0.00041067719575949013,0.000708439270965755,0.021119961515069008,-0.14250211417675018,-0.0464303158223629,-0.008467157371342182
9779,0.0004647054593078792,0.0007174402708187699,0.021057406440377235,-0.14091677963733673,-0.04597748443484306,-0.009931668639183044
9789,0.0014787311665713787,0.000715916627086699,0.02098269574344158,-0.14046643674373627,-0.25286564230918884,-0.008722436614334583
9799,0.0006681632366962731,0.002258248394355178,0.02050664648413658,-0.4581238627433777,-0.052799925208091736,-0.00926648173481226
9809,-0.0006311513134278357,0.001190825249068439,0.02043962851166725,-0.2169816642999649,0.2167520374059677,-0.008696218952536583
9819,-9.852306538959965e-05,-0.0001065383548848331,0.020355340093374252,0.03338297829031944,0.10474254935979843,-0.009998499415814877
9829,0.0006802555872127414,-8.582654845668003e-05,0.020264947786927223,0.012792172841727734,-0.03780725970864296,-0.010443701408803463
9839,0.000672521535307169,0.0009720120579004288,0.02190678007900715,-0.18552915751934052,-0.02323872596025467,-0.01053729560226202
9849,0.0006600344786420465,-0.0005687621887773275,0.0219329372048378,0.07182932645082474,-0.010849668644368649,-0.011444039642810822
9859,0.0006458676070906222,0.0020267104264348745,0.02200895920395851,-0.3654930889606476,0.001297167968004942,-0.012533161789178848
9869,0.00012082572357030585,0.0020055982749909163,0.022043367847800255,-0.34573084115982056,0.09285179525613785,-0.012508482672274113
9879,0.00037236150819808245,0.0019817291758954525,0.022076519206166267,-0.3277421295642853,0.058006398379802704,-0.012675386853516102
9889,0.000366494816262275,-8.899898239178583e-05,0.022562026977539062,-0.013219858519732952,0.06416769325733185,-0.012695090845227242
9899,0.0016359117580577731,0.000950559857301414,0.02263696864247322,-0.1726704239845276,-0.10984628647565842,-0.012134150601923466
9909,0.002623043255880475,-0.0015964389313012362,0.022675897926092148,0.17308366298675537,-0.22298158705234528,-0.012111175805330276
9919,0.0015610982663929462,0.0007420502370223403,0.02288569137454033,-0.165254145860672,-0.05431884154677391,-0.013732826337218285
9929,0.002052944153547287,0.000495267566293478,0.023458633571863174,-0.13572874665260315,-0.1019037589430809,-0.014462582767009735
9939,0.005068126134574413,0.0048210653476417065,0.023524681106209755,-0.6814045310020447,-0.4608757793903351,-0.016690239310264587
9949,0.005445042159408331,0.005120226182043552,0.02361460216343403,-0.6805558800697327,-0.4604604244232178,-0.016753874719142914
9959,0.008075633086264133,0.0009018458076752722,0.02381952293217182,-0.14588434994220734,-0.7240299582481384,-0.013678206130862236
9969,0.008991539478302002,0.0009056885028257966,0.02387845516204834,-0.14806637167930603,-0.7621262073516846,-0.014613432809710503
9979,0.008530237711966038,0.0019921818748116493,0.023140693083405495,-0.27294495701789856,-0.6429456472396851,-0.01578482799232006
9989,0.007841598242521286,0.000635201227851212,0.023265810683369637,-0.11847448348999023,-0.5068405866622925,-0.015251784585416317
9999,0.007976390421390533,-0.00015294676995836198,0.023324962705373764,-0.03815814480185509,-0.4696634113788605,-0.015003032051026821
10010,0.007594018243253231,0.0006721492391079664,0.02343924157321453,-0.13573558628559113,-0.3803211748600006,-0.016983432695269585
10020,0.008290529251098633,0.00041838304605334997,0.023734642192721367,-0.11377126723527908,-0.4087468087673187,-0.016956526786088943
10030,0.008182727731764317,0.006187304388731718,0.023862190544605255,-0.6986199021339417,-0.3531866669654846,-0.0234062597155571
10040,0.00782396923750639,0.0074077509343624115,0.023905031383037567,-0.7855753898620605,-0.2763981223106384,-0.02440713904798031
10050,0.0069627342745661736,0.006281549111008644,0.024105995893478394,-0.6364157795906067,-0.15686604380607605,-0.022982783615589142
10062,0.008644310757517815,0.006193733308464289,0.022799385711550713,-0.6011117100715637,-0.2943599820137024,-0.023622656241059303
10069,0.010102691128849983,0.007426812779158354,0.02273651584982872,-0.6880679130554199,-0.3915729820728302,-0.025004344061017036
10079,0.007505703251808882,0.0063651129603385925,0.022906968370079994,-0.5593425631523132,-0.1093752384185791,-0.025600356981158257
10089,0.006423549726605415,0.006560260895639658,0.022928254678845406,-0.5518227815628052,0.015222761780023575,-0.02559971995651722
10099,0.007641196716576815,0.006010053213685751,0.022958051413297653,-0.4799612760543823,-0.07455792278051376,-0.025608882308006287
10109,0.0062572648748755455,0.007194211706519127,0.02169664390385151,-0.5656476616859436,0.06573877483606339,-0.02770538441836834
10119,0.007473719771951437,0.005901434924453497,0.021676426753401756,-0.43141549825668335,-0.02451283484697342,-0.025456061586737633
10129,0.007712655700743198,0.00609016977250576,0.021614285185933113,-0.4310401976108551,-0.025554044172167778,-0.025585299357771873
10139,0.007387548219412565,0.006836452521383762,0.021548476070165634,-0.4773709177970886,0.02075832523405552,-0.025479983538389206
10149,0.006533729378134012,0.0059797377325594425,0.021517982706427574,-0.38886791467666626,0.10765204578638077,-0.02736322022974491
10159,0.0077833556570112705,0.005136061925441027,0.020799368619918823,-0.31053027510643005,0.019667459651827812,-0.026562081649899483
10170,0.008773296140134335,0.005637461319565773,0.020695161074399948,-0.34416234493255615,-0.041336771100759506,-0.026690149679780006
10181,0.00896997470408678,0.005472272634506226,0.020609844475984573,-0.32268890738487244,0.008060387335717678,-0.026612086221575737
10189,0.008658080361783504,0.00557677261531353,0.020512184128165245,-0.319919228553772,0.007592488545924425,-0.026958579197525978
10199,0.008366120047867298,0.004800210241228342,0.021040165796875954,-0.25348085165023804,0.04863222315907478,-0.027871379628777504
10209,0.007586004678159952,0.006825905293226242,0.020982718095183372,-0.3982788920402527,0.12107221782207489,-0.028317973017692566
10219,0.007550748996436596,0.006280511151999235,0.020925454795360565,-0.3461489975452423,0.13324499130249023,-0.02973152883350849
10229,0.008531664498150349,0.005748618394136429,0.020864026620984077,-0.3001392185688019,0.07253551483154297,-0.030199512839317322
10239,0.0087466761469841,0.005733870435506105,0.020797764882445335,-0.29510730504989624,0.06942377984523773,-0.029779102653265
10249,0.007709127850830555,0.00048059478285722435,0.02083463780581951,0.07112132012844086,0.15340405702590942,-0.03199062496423721
10259,0.007820185273885727,0.0002299229963682592,0.02077256329357624,0.07007549703121185,0.15365275740623474,-0.032485172152519226
10269,0.00778665766119957,3.8580503314733505e-05,0.020712338387966156,0.06418577581644058,0.16371119022369385,-0.03140035644173622
10279,0.008804279379546642,0.00010168574226554483,0.020664284005761147,0.04352111369371414,0.10564734041690826,-0.03117462247610092
10289,0.008006539195775986,0.0004398106539156288,0.02160513959825039,0.0043048677034676075,0.16672535240650177,-0.031979866325855255
10299,0.005924678407609463,0.00048585061449557543,0.021605977788567543,-0.0116801168769598,0.30717816948890686,-0.033352434635162354
10309,0.007208103779703379,0.0015601161867380142,0.021657278761267662,-0.09335882216691971,0.22657521069049835,-0.0337822362780571
10319,0.008719616569578648,0.00032005528919398785,0.021638421341776848,-0.02676801010966301,0.13749589025974274,-0.034767862409353256
10329,0.007448296062648296,0.0006157971220090985,0.022639716044068336,-0.05853717774152756,0.22268958389759064,-0.03455163165926933
10339,0.008690491318702698,0.0033956572879105806,0.02274932712316513,-0.23446708917617798,0.15107859671115875,-0.032841458916664124
10349,0.008665235713124275,0.0006624383386224508,0.02282727137207985,-0.07264633476734161,0.1602490395307541,-0.03427043929696083
10359,0.008640320971608162,0.00044182525016367435,0.022882528603076935,-0.06919355690479279,0.1688271462917328,-0.03543868288397789
10369,0.008740373887121677,0.0002670327667146921,0.02293727733194828,-0.06798281520605087,0.1690882444381714,-0.0362214632332325
10379,0.007651420310139656,-0.004907707683742046,0.022029129788279533,0.21700246632099152,0.23675958812236786,-0.04079093411564827
10389,0.0076735969632864,-0.005405837204307318,0.02202104963362217,0.21714869141578674,0.23657852411270142,-0.04123132303357124
10399,0.008773835375905037,-0.005517873913049698,0.02204432711005211,0.19422057271003723,0.17496950924396515,-0.04076215252280235
10409,0.008476962335407734,-0.006456517148762941,0.0220063254237175,0.21914750337600708,0.19439785182476044,-0.04049745202064514
10419,0.006306914146989584,-0.0038754392880946398,0.022156313061714172,0.05043623596429825,0.31373798847198486,-0.03649378567934036
10429,0.01003207080066204,-0.0077550639398396015,0.022104524075984955,0.240065336227417,0.10841397196054459,-0.04135887324810028
10439,0.007889265194535255,-0.006299099884927273,0.022282354533672333,0.13178807497024536,0.23120877146720886,-0.03957568109035492
10449,0.007365030236542225,-0.005923913326114416,0.02233186550438404,0.08671529591083527,0.259395033121109,-0.03953523188829422
10459,0.008653885684907436,-0.005006825085729361,0.020916299894452095,0.019788002595305443,0.19117633998394012,-0.039514489471912384
10469,0.005837123841047287,-0.011541971936821938,0.02069941908121109,0.34431859850883484,0.34099507331848145,-0.04421302676200867
10479,0.007376303430646658,-0.009132713079452515,0.02092786878347397,0.18085764348506927,0.2545640170574188,-0.04195293039083481
10489,0.006878722924739122,-0.009017997421324253,0.020897435024380684,0.1448320895433426,0.27951139211654663,-0.041250064969062805
10499,0.007384131662547588,-0.014618316665291786,0.020495878532528877,0.4088638424873352,0.2495792657136917,-0.04676534980535507
10509,0.006651296745985746,-0.018156753852963448,0.02040247805416584,0.5482944250106812,0.2842627465724945,-0.049239594489336014
10519,0.006583839189261198,-0.019152535125613213,0.020300863310694695,0.5472546815872192,0.28431057929992676,-0.05018638074398041
10529,0.006592326331883669,-0.018649330362677574,0.020406773313879967,0.46853604912757874,0.281412810087204,-0.050302788615226746
10539,0.00762955704703927,-0.018699374049901962,0.020453909412026405,0.42137303948402405,0.2254706621170044,-0.0507826954126358
10549,0.006869965698570013,-0.019473588094115257,0.01972663216292858,0.4163452386856079,0.26555201411247253,-0.050469450652599335
10559,0.0023394939489662647,-0.01701655425131321,0.01988300122320652,0.24433226883411407,0.4950130879878998,-0.040988463908433914
10569,0.002027628244832158,-0.017737098038196564,0.019786309450864792,0.24281494319438934,0.4911577105522156,-0.041423894464969635
10579,0.002027628244832158,-0.017737098038196564,0.019786309450864792,0.24281494319438934,0.4911577105522156,-0.041423894464969635
10589,0.002118741860613227,-0.018317244946956635,0.019727442413568497,0.2322617918252945,0.4679606854915619,-0.042606648057699203
10599,0.0011643461184576154,-0.017582369968295097,0.01941193826496601,0.15345528721809387,0.5038142800331116,-0.039702560752630234
10609,0.002273744437843561,-0.01690613105893135,0.01943175122141838,0.08303256332874298,0.42480847239494324,-0.040012672543525696
10619,0.0020813995506614447,-0.016771599650382996,0.019365254789590836,0.04277344420552254,0.4225696921348572,-0.040130600333213806
10629,0.0011322293430566788,-0.015889717265963554,0.019304828718304634,-0.03288128972053528,0.45912763476371765,-0.03704434260725975
10639,0.0017571598291397095,-0.01645737886428833,0.018317189067602158,-0.0259791761636734,0.40943512320518494,-0.0383758619427681
10649,0.0013170751044526696,-0.0158603023737669,0.01819106936454773,-0.08406800776720047,0.4167120158672333,-0.036903686821460724
10659,0.0035203767474740744,-0.016279278323054314,0.018114710226655006,-0.08529295772314072,0.28448885679244995,-0.04082174599170685
10669,0.0016109495190903544,-0.016198353841900826,0.017973508685827255,-0.11285347491502762,0.37817010283470154,-0.03748437762260437
10679,0.002359772799536586,-0.01614425703883171,0.017875710502266884,-0.1379147469997406,0.3261866569519043,-0.03826454281806946
10689,0.0035756463184952736,-0.0160883329808712,0.017872415482997894,-0.1615150421857834,0.2503077983856201,-0.03954632952809334
10699,0.0028930041007697582,-0.016043780371546745,0.017746655270457268,-0.18386846780776978,0.28133025765419006,-0.03893978148698807
10709,0.002682712394744158,-0.015989400446414948,0.017621111124753952,-0.20505769550800323,0.28475862741470337,-0.03816232085227966
10719,0.002694788621738553,-0.015269619412720203,0.017508409917354584,-0.26224836707115173,0.2748764157295227,-0.03800570219755173
10729,0.003380200359970331,-0.01598908193409443,0.01842202991247177,-0.2424258142709732,0.22976888716220856,-0.04051460698246956
10739,0.0009029667126014829,-0.02094002440571785,0.018291525542736053,0.005904132500290871,0.3556341230869293,-0.046948645263910294
10749,0.0007064146338962018,-0.02065345086157322,0.018256260082125664,-0.0379420630633831,0.35251563787460327,-0.046050697565078735
10759,0.0009509534575045109,-0.02083749882876873,0.018208499997854233,-0.05721675977110863,0.3257271349430084,-0.047061506658792496
10769,0.0018549551023170352,-0.021915536373853683,0.018126675859093666,-0.026123568415641785,0.2653374671936035,-0.04878432676196098
10779,0.001857031020335853,-0.01856587640941143,0.01860746368765831,-0.23587720096111298,0.25607171654701233,-0.043432921171188354
10789,0.0011882932158187032,-0.020577190443873405,0.01852617971599102,-0.14835496246814728,0.2824040651321411,-0.04666823148727417
10799,0.0009816363453865051,-0.020767536014318466,0.018483569845557213,-0.15956149995326996,0.28367459774017334,-0.04608447104692459
10809,0.0009924927726387978,-0.021622367203235626,0.018419958651065826,-0.1359831690788269,0.2724851667881012,-0.04663291573524475
10819,0.0016473334981128573,-0.021607743576169014,0.018640777096152306,-0.16030354797840118,0.22803953289985657,-0.04663560912013054
10829,0.0020854014437645674,-0.026137588545680046,0.018485307693481445,0.05734102800488472,0.19802269339561462,-0.05394785478711128
10839,0.002305787056684494,-0.02632731758058071,0.018473520874977112,0.03310168907046318,0.17941683530807495,-0.05364257097244263
10849,0.002522940980270505,-0.02715977653861046,0.018412886187434196,0.04413481801748276,0.16279751062393188,-0.05522729828953743
10859,0.0024578573647886515,-0.02782728336751461,0.018610235303640366,0.043534357100725174,0.16128607094287872,-0.05481470748782158
10869,0.0033721013460308313,-0.03138493001461029,0.018391909077763557,0.1947425752878189,0.10961160063743591,-0.05893174186348915
10879,0.0018007501494139433,-0.02773279696702957,0.018807247281074524,-0.04183237999677658,0.19118604063987732,-0.05310354009270668
10889,0.0015909731155261397,-0.027233202010393143,0.01885313354432583,-0.09797728061676025,0.1964423656463623,-0.05202196538448334
10899,0.001482421881519258,-0.0277410801500082,0.01883966475725174,-0.10020629316568375,0.195133239030838,-0.052692364901304245
10909,0.0017182991141453385,-0.029333220794796944,0.019279005005955696,-0.04528674855828285,0.1763262152671814,-0.05348554626107216
10919,0.0017278544837608933,-0.028097525238990784,0.01938651315867901,-0.1394357681274414,0.17248567938804626,-0.05316712334752083
10929,0.0005863408441655338,-0.027811434119939804,0.019429568201303482,-0.17750893533229828,0.22757676243782043,-0.052095819264650345
10939,0.0015164361102506518,-0.02776402235031128,0.019487671554088593,-0.20024636387825012,0.17212329804897308,-0.051853008568286896
10949,0.0006228932179510593,-0.02703968435525894,0.019320858642458916,-0.2571244239807129,0.214008167386055,-0.052122727036476135
10959,0.0026446576230227947,-0.029932234436273575,0.01931501179933548,-0.12452203780412674,0.1055598109960556,-0.05413629114627838
10969,0.001530694542452693,-0.027889447286725044,0.01945308968424797,-0.2521326243877411,0.16150684654712677,-0.05243775621056557
10979,0.0008754549198783934,-0.027200711891055107,0.01948925293982029,-0.3049236834049225,0.19297198951244354,-0.051911674439907074
10989,0.0015340576646849513,-0.027647221460938454,0.0201224647462368,-0.2958665192127228,0.15428276360034943,-0.05208267644047737
10999,0.0037286218721419573,-0.019770685583353043,0.02029639296233654,-0.7066826820373535,0.040749598294496536,-0.04849255830049515
11009,0.004153931513428688,-0.019782809540629387,0.020378010347485542,-0.692001223564148,0.024890678003430367,-0.04755554720759392
11019,0.004272332414984703,-0.01953585259616375,0.02044777385890484,-0.6927622556686401,0.02551410347223282,-0.050054989755153656
11029,0.0028827476780861616,-0.019575057551264763,0.020587392151355743,-0.6766408085823059,0.10142002999782562,-0.04994050785899162
11039,0.004242710303515196,-0.018463723361492157,0.020761778578162193,-0.7190426588058472,0.0339011512696743,-0.04883849620819092
11049,0.004678790457546711,-0.019841711968183517,0.020929234102368355,-0.634466826915741,0.018095681443810463,-0.04928762838244438
11059,0.004667476285248995,-0.019639115780591965,0.021011976525187492,-0.6341579556465149,0.025171101093292236,-0.0494629330933094
11069,0.0039964825846254826,-0.020319409668445587,0.021152833476662636,-0.588593065738678,0.06506647169589996,-0.05009052902460098
11079,0.004650036338716745,-0.019452711567282677,0.020686866715550423,-0.6261249780654907,0.03406684473156929,-0.04971565306186676
11089,0.0046388390474021435,-0.02012540027499199,0.020761333405971527,-0.5798273086547852,0.04114217311143875,-0.05089733749628067
11099,0.004626177717000246,-0.0205680001527071,0.020824452862143517,-0.5473568439483643,0.047924403101205826,-0.051336176693439484
11109,0.004616899415850639,-0.019713975489139557,0.02085871994495392,-0.5854007005691528,0.0564507357776165,-0.05286664143204689
11120,0.004183315671980381,-0.02057616226375103,0.020948851481080055,-0.5306352376937866,0.08554477989673615,-0.053871773183345795
11129,0.0031019579619169235,-0.018901998177170753,0.01964341290295124,-0.6125504374504089,0.14627566933631897,-0.055862907320261
11139,0.002464914694428444,-0.01763155683875084,0.01956830732524395,-0.6656969785690308,0.17930424213409424,-0.05832841992378235
11149,0.0024244878441095352,-0.01734158769249916,0.019525103271007538,-0.6656873822212219,0.1799161285161972,-0.059404101222753525
11159,0.0013113451423123479,-0.017365796491503716,0.019482184201478958,-0.6486839652061462,0.23592181503772736,-0.06158881261944771
11169,0.00021317912614904344,-0.013815214857459068,0.01955658197402954,-0.8214321732521057,0.2870243787765503,-0.06177192181348801
11179,0.0006610335549339652,-0.017152654007077217,0.01978450082242489,-0.6168692708015442,0.25269362330436707,-0.06151444837450981
11189,0.0005267529049888253,-0.016886986792087555,0.019762467592954636,-0.6156714558601379,0.25258156657218933,-0.06144791468977928
11200,0.0007763075991533697,-0.017157157883048058,0.019769515842199326,-0.5846114754676819,0.23364360630512238,-0.06057945266366005
11210,0.0008050341857597232,-0.01697200909256935,0.01975562982261181,-0.5799494385719299,0.22616617381572723,-0.061233650892972946
11220,0.0014977178070694208,-0.012495282106101513,0.019340289756655693,-0.803584098815918,0.1821545958518982,-0.058732327073812485
11230,0.003548181615769863,-0.012098653241991997,0.01932017132639885,-0.7994369268417358,0.07008971273899078,-0.05444533750414848
11240,0.0035436416510492563,-0.011245115660130978,0.019254270941019058,-0.817768394947052,0.0738903060555458,-0.05473374202847481
11250,0.002864453475922346,-0.011069117113947868,0.019246678799390793,-0.7991039752960205,0.1128450557589531,-0.05698804557323456
11260,0.003307949984446168,-0.010432173497974873,0.019517363980412483,-0.803379476070404,0.09096785634756088,-0.05592688173055649
11270,0.0033498250413686037,-0.009896001778542995,0.01948893442749977,-0.8011151552200317,0.08870997279882431,-0.05604114010930061
11280,0.0028864990454167128,-0.009035872295498848,0.019443780183792114,-0.8164169192314148,0.11588568240404129,-0.05717635154724121
11290,0.0031159764621406794,-0.009797791950404644,0.019512441009283066,-0.7441298365592957,0.10390016436576843,-0.05631691589951515
11300,0.0026649038773030043,-0.011181852780282497,0.01961847022175789,-0.6430562734603882,0.12849418818950653,-0.058167796581983566
11310,0.003350302577018738,-0.007758284918963909,0.0205051489174366,-0.8010993599891663,0.09110294282436371,-0.05792670324444771
11320,0.002676414093002677,-0.009801178239285946,0.02069752663373947,-0.6610710620880127,0.12892983853816986,-0.05953551456332207
11330,0.0026734042912721634,-0.00936383567750454,0.020737607032060623,-0.6611675024032593,0.12814117968082428,-0.05840758606791496
11339,0.002670038491487503,-0.008920414373278618,0.02077597565948963,-0.6609523892402649,0.12905313074588776,-0.059633489698171616
11349,0.002666955580934882,-0.008537890389561653,0.019709493964910507,-0.6619384288787842,0.13022466003894806,-0.05966885760426521
11359,0.006352478638291359,-0.014397435821592808,0.01991734653711319,-0.3325985074043274,-0.06346303224563599,-0.05221932381391525
11369,0.006560355890542269,-0.014304030686616898,0.019905604422092438,-0.3333948850631714,-0.06424004584550858,-0.05178425833582878
11379,0.006487804464995861,-0.013235977850854397,0.019910644739866257,-0.3819352090358734,-0.0497983880341053,-0.0524575300514698
11389,0.006699469406157732,-0.0132882259786129,0.019901057705283165,-0.3693041503429413,-0.0500924251973629,-0.053567394614219666
11399,0.009286780841648579,-0.01252747979015112,0.019889093935489655,-0.3987710773944855,-0.1702786684036255,-0.050256893038749695
11409,0.006332037039101124,-0.01412391196936369,0.020020445808768272,-0.31166499853134155,-0.006008029915392399,-0.056012336164712906
11419,0.006550830323249102,-0.014401615597307682,0.020015759393572807,-0.29605990648269653,-0.009531602263450623,-0.055527545511722565
11429,0.006260866764932871,-0.015424057841300964,0.02001219056546688,-0.24342261254787445,0.013194367289543152,-0.05624983832240105
11439,0.008468800224363804,-0.009228421375155449,0.0192712415009737,-0.5476240515708923,-0.08790510147809982,-0.055527087301015854
11449,0.0135591896250844,-0.011755313724279404,0.0191984660923481,-0.4076922535896301,-0.322160542011261,-0.04694512113928795
11459,0.014668806456029415,-0.012521698139607906,0.019119931384921074,-0.35993388295173645,-0.3478164076805115,-0.044807542115449905
11469,0.014567716047167778,-0.013019809499382973,0.019131632521748543,-0.32895737886428833,-0.3134709894657135,-0.04685145616531372
11479,0.014715163968503475,-0.010909113101661205,0.019113462418317795,-0.4270150661468506,-0.2910270690917969,-0.049613580107688904
11489,0.010198215954005718,-0.005797765217721462,0.018790114670991898,-0.6612404584884644,-0.04636955261230469,-0.060864273458719254
11499,0.01016657892614603,-0.006787179037928581,0.018833456560969353,-0.588131844997406,-0.033459439873695374,-0.05988249182701111
11509,0.010393096134066582,-0.006349972914904356,0.0187738798558712,-0.5878280401229858,-0.03290759399533272,-0.0604855902493
11519,0.011077096685767174,-0.005703668110072613,0.018691442906856537,-0.5965015292167664,-0.05373026803135872,-0.060941051691770554
11529,0.009852135553956032,-0.004325901158154011,0.019199416041374207,-0.6383127570152283,0.018601730465888977,-0.06363813579082489
11539,0.010062305256724358,-0.006527384277433157,0.019339341670274734,-0.5060305595397949,0.01750371791422367,-0.06217560917139053
11549,0.010041204281151295,-0.005637545138597488,0.01930943876504898,-0.5331538915634155,0.027078164741396904,-0.06366369128227234
11559,0.010023485869169235,-0.005455557256937027,0.019309671595692635,-0.5237127542495728,0.036124520003795624,-0.06338284909725189
11569,0.005435837898403406,-0.0009099783492274582,0.019483808428049088,-0.7223491072654724,0.26488354802131653,-0.07204937934875488
11579,0.004999523051083088,-0.001882308628410101,0.01959376409649849,-0.6424576640129089,0.27869415283203125,-0.07149256020784378
11589,0.004796258639544249,0.002394498558714986,0.0193465705960989,-0.8223790526390076,0.28045088052749634,-0.07439246773719788
11599,0.004587138071656227,0.002583893248811364,0.01940670609474182,-0.7922325134277344,0.28209319710731506,-0.0752607062458992
11609,0.004603576846420765,0.003410657402127981,0.019400935620069504,-0.7910511493682861,0.2718672454357147,-0.07586014270782471
11619,0.004437714349478483,0.004231203813105822,0.020108196884393692,-0.7907351851463318,0.27194324135780334,-0.07538960129022598
11629,0.004263350740075111,0.005024432670325041,0.020142368972301483,-0.7899166941642761,0.2714696526527405,-0.07546612620353699
11639,0.005034270230680704,0.0038870307616889477,0.02040923945605755,-0.6933665871620178,0.22622115910053253,-0.07502811402082443
11649,0.005293775349855423,0.0042460402473807335,0.020502300933003426,-0.6767059564590454,0.2077573537826538,-0.07646925002336502
11659,0.0051975916139781475,0.004931743256747723,0.020747801288962364,-0.6740815043449402,0.20899909734725952,-0.07653685659170151
11669,0.005994338076561689,0.010616938583552837,0.020502246916294098,-0.9189866185188293,0.16423466801643372,-0.07606914639472961
11679,0.005252692848443985,0.010657183825969696,0.020657256245613098,-0.8705263137817383,0.19792109727859497,-0.07578921318054199
11689,0.00600591953843832,0.010471263900399208,0.020864000543951988,-0.8139805793762207,0.1563587635755539,-0.07479513436555862
11699,0.00528053380548954,0.011286512017250061,0.02093479409813881,-0.8075252175331116,0.19068528711795807,-0.07556376606225967
11709,0.005774697754532099,0.01158950012177229,0.020641108974814415,-0.7791629433631897,0.162113755941391,-0.07459244877099991
11719,0.005781711544841528,0.010986982844769955,0.020820988342165947,-0.7075979709625244,0.1602383553981781,-0.07533666491508484
11729,0.006255395710468292,0.010180672630667686,0.02101738005876541,-0.6294212937355042,0.13337497413158417,-0.07616662979125977
11739,0.006257431581616402,0.01078653335571289,0.021091677248477936,-0.6292005181312561,0.13393069803714752,-0.07570523023605347
11749,0.0053526186384260654,0.013387497514486313,0.02012285590171814,-0.7244453430175781,0.1785551756620407,-0.07563778012990952
11759,0.004438444040715694,0.0121630122885108,0.02027823030948639,-0.6199267506599426,0.22026117146015167,-0.07838967442512512
11769,0.006478191819041967,0.009838107042014599,0.020528417080640793,-0.4655241072177887,0.11172394454479218,-0.0775047168135643
11779,0.005577556788921356,0.010022012516856194,0.020583929494023323,-0.44698256254196167,0.15843982994556427,-0.077290378510952
11789,0.006463202182203531,0.010475254617631435,0.02119026891887188,-0.4421081244945526,0.11102698743343353,-0.07708721607923508
11799,0.0064696865156292915,0.013135201297700405,0.021193424239754677,-0.5507248044013977,0.11303360760211945,-0.07748454809188843
11809,0.007766231894493103,0.008516314439475536,0.021551497280597687,-0.27854448556900024,0.045321397483348846,-0.07677865773439407
11819,0.008625890128314495,0.007403955329209566,0.021632900461554527,-0.20263837277889252,0.005925271660089493,-0.07623839378356934
11829,0.007973744533956051,0.008039716631174088,0.021748937666416168,-0.22134213149547577,0.047854408621788025,-0.07770910859107971
11839,0.006920419633388519,0.01268571987748146,0.02107630856335163,-0.4514431357383728,0.10893517732620239,-0.07909048348665237
11849,0.008201686665415764,0.012658930383622646,0.021136747673153877,-0.42106953263282776,0.04191133752465248,-0.0781220942735672
11859,0.007568461820483208,0.013495856896042824,0.021174443885684013,-0.43755465745925903,0.08280147612094879,-0.07919824123382568
11869,0.00799778662621975,0.018541671335697174,0.020955687388777733,-0.677958607673645,0.06426610797643661,-0.08041808754205704
11879,0.006754955276846886,0.023776298388838768,0.021062370389699936,-0.9130311608314514,0.13654331862926483,-0.08009406924247742
11889,0.007387501187622547,0.026889655739068985,0.02081829123198986,-1.0235282182693481,0.10267117619514465,-0.0804593414068222
11899,0.010264933109283447,0.024861857295036316,0.02130657434463501,-0.8509534001350403,-0.04937561973929405,-0.0785716325044632
11909,0.009850350208580494,0.024249430745840073,0.02158185839653015,-0.7635249495506287,-0.01469147577881813,-0.07816518098115921
11919,0.011281223967671394,0.02366519905626774,0.021782755851745605,-0.6803210377693176,-0.08339770883321762,-0.07653793692588806
11929,0.012108595110476017,0.028109082952141762,0.02079976350069046,-0.8767101764678955,-0.11430338025093079,-0.07743490487337112
11939,0.018429812043905258,0.028106315061450005,0.020663075149059296,-0.8201461434364319,-0.44242486357688904,-0.072542205452919
11949,0.019158704206347466,0.029217002913355827,0.02063554897904396,-0.8215365409851074,-0.44390785694122314,-0.07346975803375244
11959,0.01912802644073963,0.0281126219779253,0.020984357222914696,-0.7062441110610962,-0.40541836619377136,-0.07267753034830093
11969,0.019959131255745888,0.028928540647029877,0.02098091132938862,-0.6994262933731079,-0.4160085916519165,-0.07336214184761047
11979,0.024385986849665642,0.02443273551762104,0.02110365778207779,-0.40654444694519043,-0.6205190420150757,-0.06285237520933151
11989,0.023729465901851654,0.02443278767168522,0.021337848156690598,-0.3758523762226105,-0.5332291126251221,-0.06471089273691177
11999,0.024554498493671417,0.024423159658908844,0.02137881889939308,-0.3458768427371979,-0.5317217707633972,-0.06320060044527054
12009,0.024545548483729362,0.025054560974240303,0.021512314677238464,-0.35211411118507385,-0.48705586791038513,-0.06541986763477325
12019,0.020214859396219254,0.02888558991253376,0.022493675351142883,-0.525120735168457,-0.2096008062362671,-0.07462964206933975
12029,0.02021091803908348,0.030124003067612648,0.022554924711585045,-0.5515385866165161,-0.1853134036064148,-0.07557948678731918
12039,0.018359726294875145,0.03177572786808014,0.022647449746727943,-0.5975896716117859,-0.06265884637832642,-0.07846294343471527
12049,0.019179411232471466,0.03280556946992874,0.022694261744618416,-0.6064169406890869,-0.0918954461812973,-0.08034489303827286
12059,0.018352637067437172,0.032587680965662,0.022551503032445908,-0.5506397485733032,-0.031106794252991676,-0.07986224442720413
12069,0.018965234979987144,0.03178595006465912,0.02273663692176342,-0.4651254117488861,-0.05061609670519829,-0.07709022611379623
12079,0.019172416999936104,0.0313960462808609,0.022887680679559708,-0.407395601272583,-0.045506395399570465,-0.07526732981204987
12089,0.0183680709451437,0.031006351113319397,0.023055890575051308,-0.3531593382358551,0.01339906919747591,-0.07500530779361725
12099,0.020977606996893883,0.036240462213754654,0.02250894531607628,-0.600523829460144,-0.11252664029598236,-0.08183833956718445
12109,0.021359547972679138,0.037107519805431366,0.022543612867593765,-0.5993431806564331,-0.11269708722829819,-0.08060496300458908
12119,0.020492784678936005,0.03665295988321304,0.022771622985601425,-0.5285578966140747,-0.045497868210077286,-0.07955947518348694
12129,0.022391268983483315,0.03726821392774582,0.022791467607021332,-0.5185937881469727,-0.1283223032951355,-0.08020391315221786
12139,0.021761054173111916,0.03726567327976227,0.022991033270955086,-0.47847431898117065,-0.07597358524799347,-0.07950880378484726
12149,0.020691238343715668,0.037856947630643845,0.022669944912195206,-0.4736272692680359,-0.0036912125069648027,-0.08011042326688766
12159,0.022146079689264297,0.03701641783118248,0.022804437205195427,-0.39194491505622864,-0.06642341613769531,-0.07802343368530273
12169,0.02248384803533554,0.03763509541749954,0.022847961634397507,-0.39188873767852783,-0.06593278050422668,-0.0784858837723732
12179,0.022019900381565094,0.03869519755244255,0.022894810885190964,-0.41499820351600647,-0.02269064076244831,-0.07861132174730301
12189,0.020877650007605553,0.037070050835609436,0.02223672717809677,-0.2975538372993469,0.05197828263044357,-0.0772593542933464
12199,0.021105000749230385,0.04313725605607033,0.022031348198652267,-0.5850145220756531,0.052380211651325226,-0.08272316306829453
12209,0.02109832875430584,0.041594550013542175,0.022295577451586723,-0.458967387676239,0.061443816870450974,-0.08030146360397339
12219,0.024509387090802193,0.04434620216488838,0.022059498354792595,-0.5632640719413757,-0.10749589651823044,-0.08270584791898727
12229,0.025757985189557076,0.043229542672634125,0.021721577271819115,-0.461402028799057,-0.15108653903007507,-0.0809369757771492
12239,0.021525368094444275,0.047664642333984375,0.021684005856513977,-0.6539186835289001,0.09534697979688644,-0.08273008465766907
12249,0.022368060424923897,0.04764588922262192,0.021764466539025307,-0.6011280417442322,0.06092910096049309,-0.08385168015956879
12259,0.02236740104854107,0.0468016155064106,0.021960141137242317,-0.5065682530403137,0.06980598717927933,-0.08294444531202316
12269,0.022577891126275063,0.04679704084992409,0.022036276757717133,-0.4618696868419647,0.06795493513345718,-0.08220802247524261
12279,0.02192850224673748,0.04673243686556816,0.021181348711252213,-0.4206210672855377,0.11156018078327179,-0.08216745406389236
12289,0.022343195974826813,0.04715247079730034,0.02113453857600689,-0.40421125292778015,0.09806487709283829,-0.08227197080850601
12299,0.022342652082443237,0.04859350621700287,0.021018797531723976,-0.445338636636734,0.10572278499603271,-0.08315791189670563
12309,0.0225521270185709,0.048602815717458725,0.02102130465209484,-0.4043771028518677,0.10320822149515152,-0.08302997797727585
12319,0.02151823602616787,0.04775772616267204,0.020651891827583313,-0.3218177258968353,0.16481906175613403,-0.08340252190828323
12329,0.019703174009919167,0.050204504281282425,0.02048533596098423,-0.4193866550922394,0.26835897564888,-0.08313065767288208
12339,0.018892906606197357,0.050621647387742996,0.0204057227820158,-0.40253353118896484,0.310538649559021,-0.08217482268810272
12349,0.01868966966867447,0.05043865740299225,0.020390253514051437,-0.35375964641571045,0.3161245882511139,-0.08272635191679001
12359,0.01859414391219616,0.05109240859746933,0.020309537649154663,-0.3541260361671448,0.3156535029411316,-0.08370354771614075
12369,0.019260764122009277,0.049675751477479935,0.019824977964162827,-0.24242928624153137,0.27336156368255615,-0.08582937717437744
12379,0.018193872645497322,0.04648805409669876,0.01985257677733898,-0.039023589342832565,0.327483594417572,-0.08806747198104858
12389,0.018816867843270302,0.04628361389040947,0.019788874313235283,-0.010246137157082558,0.28665897250175476,-0.0886097103357315
12399,0.019024763256311417,0.045868657529354095,0.019708504900336266,0.028797904029488564,0.26916494965553284,-0.08883720636367798
12409,0.019647719338536263,0.04489186406135559,0.020985204726457596,0.10104589909315109,0.23037098348140717,-0.09075542539358139
12419,0.017179040238261223,0.04510064050555229,0.02096482738852501,0.0979834794998169,0.3649442493915558,-0.08774202316999435
12429,0.018428413197398186,0.04614952951669693,0.021013712510466576,0.048389144241809845,0.2868526577949524,-0.08814365416765213
12439,0.017405178397893906,0.0453350692987442,0.02098783850669861,0.10192073881626129,0.3391536474227905,-0.0881228893995285
12449,0.01904151774942875,0.046367332339286804,0.021050041541457176,0.051528289914131165,0.2404783070087433,-0.09075065702199936
12459,0.020465994253754616,0.04984119534492493,0.021447613835334778,-0.1309148073196411,0.15987014770507812,-0.09131408482789993
12469,0.024550139904022217,0.04922659322619438,0.021450644358992577,-0.07432082295417786,-0.06457135826349258,-0.09878700971603394
12479,0.024556968361139297,0.04883928224444389,0.021494630724191666,-0.03646693751215935,-0.0488278865814209,-0.1003073900938034
12489,0.024837203323841095,0.049093179404735565,0.02150616981089115,-0.03668048605322838,-0.0481640100479126,-0.10007975250482559
12500,0.022920764982700348,0.05081789568066597,0.02255406230688095,-0.11562026292085648,0.07375215739011765,-0.09556350857019424
12509,0.02291693538427353,0.04996398463845253,0.022659698501229286,-0.049164120107889175,0.08348055183887482,-0.0962245762348175
12519,0.024813756346702576,0.04953347519040108,0.022707737982273102,-0.012443773448467255,-0.012941129505634308,-0.09949759393930435
12529,0.024827154353260994,0.04891304299235344,0.02280585654079914,0.033981382846832275,0.003677569329738617,-0.09946765750646591
12539,0.025066904723644257,0.04906972497701645,0.022873530164361,0.03565973415970802,0.00499653210863471,-0.09988821297883987
12549,0.02303663082420826,0.04905731603503227,0.022617140784859657,0.042922165244817734,0.1282886564731598,-0.09577439725399017
12559,0.02502037025988102,0.04904444143176079,0.022649645805358887,0.050581857562065125,0.028037207201123238,-0.09903007745742798
12569,0.025223340839147568,0.048823654651641846,0.022696588188409805,0.06860409677028656,0.029274528846144676,-0.09880384802818298
12579,0.024994157254695892,0.04882953315973282,0.022757112979888916,0.07339682430028915,0.05309098958969116,-0.09693887829780579
12589,0.024981334805488586,0.04991929978132248,0.023281048983335495,0.01749405451118946,0.06469178944826126,-0.09701613336801529
12599,0.021761110052466393,0.05121507868170738,0.023401904851198196,-0.043353840708732605,0.24609023332595825,-0.08829983323812485
12609,0.024963881820440292,0.049493320286273956,0.023577002808451653,0.057460762560367584,0.07453500479459763,-0.09779369086027145
12619,0.024953681975603104,0.04970585182309151,0.02366241067647934,0.05002419278025627,0.08487822115421295,-0.09740619361400604
12629,0.024954231455922127,0.04991700500249863,0.023747503757476807,0.044133760035037994,0.09427798539400101,-0.09738106280565262
12639,0.02262565866112709,0.0503438375890255,0.02313539944589138,0.02705761045217514,0.22247269749641418,-0.09158337116241455
12649,0.02492092177271843,0.05055217444896698,0.023206278681755066,0.021390100941061974,0.10265190899372101,-0.09781081974506378
12659,0.024914734065532684,0.04972526431083679,0.02325926348567009,0.06954842805862427,0.10875949263572693,-0.0970839411020279
12669,0.0269822608679533,0.04889949411153793,0.02326538786292076,0.11308222264051437,0.00901840254664421,-0.10292575508356094
12679,0.02388787269592285,0.04994114115834236,0.023291992023587227,0.05658375099301338,0.18226265907287598,-0.09294576197862625
12689,0.02368801087141037,0.05425242707133293,0.02333986572921276,-0.16631411015987396,0.1939229518175125,-0.08870217949151993
12699,0.0240960530936718,0.053641099482774734,0.023433122783899307,-0.11976698786020279,0.17473086714744568,-0.09000113606452942
12709,0.024300986900925636,0.05384902283549309,0.02348003163933754,-0.11730547994375229,0.16684457659721375,-0.09101853519678116
12719,0.024354269728064537,0.05409844592213631,0.023524459451436996,-0.1166294738650322,0.1674565225839615,-0.090473473072052
12729,0.022836834192276,0.05409196391701698,0.022898908704519272,-0.10165400058031082,0.2488858699798584,-0.0884069874882698
12739,0.024379074573516846,0.05407348647713661,0.022936634719371796,-0.08852333575487137,0.16683045029640198,-0.09263475239276886
12749,0.023964356631040573,0.05428718030452728,0.022942040115594864,-0.08883581310510635,0.18916960060596466,-0.09284690022468567
12759,0.0243869349360466,0.05428094416856766,0.022954061627388,-0.07809760421514511,0.16788539290428162,-0.09276538342237473
12769,0.02565726637840271,0.05891137570142746,0.0233424324542284,-0.3070547580718994,0.10474088042974472,-0.09308706223964691
12779,0.025783834978938103,0.05939061567187309,0.023367229849100113,-0.3062228858470917,0.1051536574959755,-0.09502313286066055
12789,0.025910265743732452,0.05986931920051575,0.02339187264442444,-0.3081122040748596,0.10261568427085876,-0.09382542967796326
12799,0.027077775448560715,0.059798724949359894,0.02344002015888691,-0.279951810836792,0.04803722724318504,-0.09728411585092545
12809,0.025876382365822792,0.060922469943761826,0.024118289351463318,-0.31378668546676636,0.1185484230518341,-0.09337790310382843
12819,0.02678620256483555,0.060634028166532516,0.024222373962402344,-0.2739098370075226,0.07672623544931412,-0.09551581740379333
12829,0.02694353088736534,0.06107190623879433,0.024293281137943268,-0.27301204204559326,0.0764412134885788,-0.09435096383094788
12839,0.02593963034451008,0.06099572032690048,0.024422194808721542,-0.24593500792980194,0.1361350566148758,-0.09363339841365814
12849,0.0278518944978714,0.06044929847121239,0.024536175653338432,-0.19684527814388275,0.04430896043777466,-0.09759610891342163
12859,0.027825701981782913,0.06371686607599258,0.024291610345244408,-0.34547293186187744,0.05519618093967438,-0.09586125612258911
12869,0.02873937413096428,0.05893528833985329,0.024669097736477852,-0.07721098512411118,0.01847996562719345,-0.09845298528671265
12879,0.028940970078110695,0.05891457572579384,0.024751029908657074,-0.06611265242099762,0.018822556361556053,-0.09853451699018478
12889,0.029172182083129883,0.059104073792696,0.02482926845550537,-0.06583570688962936,0.019637873396277428,-0.09904086589813232
12899,0.02986215613782406,0.059790678322315216,0.024499068036675453,-0.08946355432271957,-0.0034216006752103567,-0.09973055124282837
12909,0.029331935569643974,0.05615825206041336,0.02462322637438774,0.10597632080316544,0.036352045834064484,-0.09887073934078217
12919,0.02954852394759655,0.0561404712498188,0.02468269318342209,0.10457517206668854,0.035819441080093384,-0.09927473962306976
12929,0.029250744730234146,0.05690329521894455,0.02477625571191311,0.06579652428627014,0.061077557504177094,-0.09911339730024338
12939,0.028208782896399498,0.05342759191989899,0.024807864800095558,0.2423604130744934,0.12243325263261795,-0.09943828731775284
12949,0.02833719365298748,0.053247418254613876,0.025383127853274345,0.24320267140865326,0.12342136353254318,-0.10015794634819031
12959,0.027812203392386436,0.05842837318778038,0.025696495547890663,-0.026003941893577576,0.15471671521663666,-0.098301000893116
12969,0.02651263028383255,0.058922700583934784,0.02579636499285698,-0.047401003539562225,0.22199833393096924,-0.0961405411362648
12979,0.027514131739735603,0.05865093320608139,0.025908278301358223,-0.027861949056386948,0.17184145748615265,-0.09879551827907562
12989,0.027564384043216705,0.05872347205877304,0.025164755061268806,-0.026464438065886497,0.17253011465072632,-0.09828871488571167
12999,0.02762324921786785,0.05880105867981911,0.025216493755578995,-0.0271028783172369,0.1728261411190033,-0.09898310154676437
13009,0.028990022838115692,0.05822345241904259,0.0252675823867321,0.004219863098114729,0.10815447568893433,-0.10137666016817093
13019,0.029118461534380913,0.05825379490852356,0.025316907092928886,0.0028416819404810667,0.1105816438794136,-0.10173513740301132
13029,0.029238130897283554,0.0582711398601532,0.02442849986255169,0.002637410769239068,0.11096422374248505,-0.10278494656085968
13039,0.026187390089035034,0.06577962636947632,0.02446550875902176,-0.35783901810646057,0.2647131085395813,-0.09491834044456482
13049,0.02614206075668335,0.06620604544878006,0.024455586448311806,-0.35840144753456116,0.26396119594573975,-0.09448055177927017
13059,0.02493695355951786,0.06631340086460114,0.02444595843553543,-0.3417918086051941,0.3174619674682617,-0.09359167516231537
13069,0.025601090863347054,0.06580908596515656,0.024495957419276237,-0.2978091239929199,0.2788183093070984,-0.09634245187044144
13079,0.02711188606917858,0.07182293385267258,0.02455134317278862,-0.5600340962409973,0.20554479956626892,-0.09633099287748337
13089,0.027118632569909096,0.07255305349826813,0.02453957498073578,-0.558509886264801,0.20414647459983826,-0.09684114158153534
13099,0.027109775692224503,0.0737595409154892,0.02449062280356884,-0.5814006924629211,0.20575468242168427,-0.09637630730867386
13109,0.027402039617300034,0.0710630789399147,0.024754274636507034,-0.4257957339286804,0.19416338205337524,-0.09885156899690628
13119,0.026227306574583054,0.07261381298303604,0.024815445765852928,-0.4717016816139221,0.24932458996772766,-0.09686743468046188
13129,0.02624719776213169,0.07324996590614319,0.02481747232377529,-0.47400155663490295,0.24862012267112732,-0.09731201827526093
13139,0.027379149571061134,0.07164366543292999,0.024942530319094658,-0.3752822279930115,0.19602057337760925,-0.10000311583280563
13149,0.026827506721019745,0.07258108258247375,0.02493688091635704,-0.3958683907985687,0.22196297347545624,-0.0995173379778862
13159,0.026295294985175133,0.07190299034118652,0.025004345923662186,-0.3413509726524353,0.24502982199192047,-0.10084932297468185
13169,0.027625102549791336,0.07522673159837723,0.025355733931064606,-0.4703945815563202,0.18439732491970062,-0.0995209589600563
13179,0.026333333924412727,0.08181193470954895,0.025074010714888573,-0.7356556057929993,0.2461095005273819,-0.09596312046051025
13189,0.026344526559114456,0.08083351701498032,0.025298845022916794,-0.6489273905754089,0.24251390993595123,-0.09788719564676285
13199,0.025101313367486,0.08140775561332703,0.025337273254990578,-0.6368237137794495,0.2968072295188904,-0.09936890006065369
13209,0.027120206505060196,0.0851236954331398,0.024206923320889473,-0.7676898837089539,0.20070557296276093,-0.09702567011117935
13219,0.025898171588778496,0.08276990056037903,0.0244918055832386,-0.6147114634513855,0.2568371593952179,-0.0990087240934372
13229,0.02591329999268055,0.08288337290287018,0.024518122896552086,-0.5827885270118713,0.252964586019516,-0.09980075806379318
13239,0.025675395503640175,0.07898741215467453,0.024892983958125114,-0.370455265045166,0.25977903604507446,-0.10573844611644745
13249,0.024754928424954414,0.07938939332962036,0.024889539927244186,-0.3660750687122345,0.29952239990234375,-0.10579811781644821
13259,0.024783281609416008,0.0844368189573288,0.02481619082391262,-0.5743684768676758,0.2914242148399353,-0.10289131104946136
13269,0.026864757761359215,0.08526695519685745,0.02484266832470894,-0.5765160322189331,0.18798543512821198,-0.10266711562871933
13279,0.02346857264637947,0.08339104801416397,0.025100214406847954,-0.4520060420036316,0.3460307717323303,-0.10763285309076309
13289,0.02685513161122799,0.08132380247116089,0.025453587993979454,-0.3241206109523773,0.17443108558654785,-0.10700948536396027
13299,0.02552988938987255,0.07724512368440628,0.024942945688962936,-0.1119198352098465,0.23745279014110565,-0.11295411735773087
13309,0.028840646147727966,0.07943794876337051,0.02501142956316471,-0.21007290482521057,0.07522474229335785,-0.10801803320646286
13319,0.028975367546081543,0.07973700761795044,0.025018243119120598,-0.20856456458568573,0.07411018013954163,-0.10905251652002335
13329,0.028033435344696045,0.08086687326431274,0.02504896931350231,-0.24933595955371857,0.1258944272994995,-0.10969654470682144
13339,0.030081383883953094,0.07256023585796356,0.02515413984656334,0.1634567826986313,0.029734216630458832,-0.11386072635650635
13349,0.030286148190498352,0.07144935429096222,0.025116125121712685,0.20608758926391602,0.029674435034394264,-0.11472829431295395
13359,0.034761637449264526,0.07214417308568954,0.025061020627617836,0.1573917120695114,-0.17644456028938293,-0.1127672865986824
13369,0.034725937992334366,0.07305635511875153,0.02519327588379383,0.10181016474962234,-0.1518123745918274,-0.11263670772314072
13379,0.03579597547650337,0.07240012288093567,0.02512134239077568,0.1266922652721405,-0.18148314952850342,-0.1135958582162857
13389,0.032488200813531876,0.07198935747146606,0.025318287312984467,0.13905128836631775,0.007192785851657391,-0.11413361877202988
13399,0.034855909645557404,0.07156573235988617,0.02526635117828846,0.14934304356575012,-0.097631074488163,-0.11595798283815384
13409,0.03524186462163925,0.07132990658283234,0.02527930587530136,0.14745523035526276,-0.09702137857675552,-0.11557465046644211
13419,0.035652901977300644,0.07135695219039917,0.025305336341261864,0.1343979686498642,-0.09888094663619995,-0.11701786518096924
13429,0.034702833741903305,0.07161078602075577,0.024809489026665688,0.1110524833202362,-0.030588986352086067,-0.11660265922546387
13439,0.03534746915102005,0.0714070051908493,0.02478158473968506,0.10899605602025986,-0.04544652998447418,-0.11734434962272644
13449,0.03568895533680916,0.07118860632181168,0.024765005335211754,0.10873040556907654,-0.04556956887245178,-0.11729714274406433
13459,0.036348577588796616,0.07144856452941895,0.024752136319875717,0.08288589864969254,-0.0614335797727108,-0.11924674361944199
13469,0.03630766272544861,0.07309457659721375,0.02482456900179386,-0.009751015342772007,-0.04030747711658478,-0.11989352107048035
13479,0.034395359456539154,0.07130362093448639,0.023178039118647575,0.07875463366508484,0.07271828502416611,-0.1162976399064064
13489,0.03596799448132515,0.07177317887544632,0.023072561249136925,0.04417694732546806,0.002071690745651722,-0.118809774518013
13499,0.03616439178586006,0.07179128378629684,0.022977232933044434,0.036458976566791534,0.007134225685149431,-0.11951520293951035
13509,0.03547221049666405,0.07203256338834763,0.02291841432452202,0.014798901043832302,0.05922285467386246,-0.11949782073497772
13519,0.0341108962893486,0.06746960431337357,0.024586981162428856,0.2434360682964325,0.14400944113731384,-0.11667279154062271
13529,0.03498316556215286,0.0683707594871521,0.024654129520058632,0.17517954111099243,0.10627405345439911,-0.11917439103126526
13539,0.03456965461373329,0.07179667800664902,0.02483927272260189,-0.021265514194965363,0.13794703781604767,-0.12005601823329926
13549,0.033478032797575,0.07181402295827866,0.024863028898835182,-0.02771652489900589,0.20147201418876648,-0.11883898824453354
13559,0.03454142436385155,0.0718153715133667,0.02488650567829609,-0.036195624619722366,0.1494026631116867,-0.12017522752285004
13569,0.03128122538328171,0.07338254898786545,0.022847246378660202,-0.12198472023010254,0.3272280693054199,-0.11602145433425903
13579,0.030237294733524323,0.07317736744880676,0.022727180272340775,-0.11011141538619995,0.3794030547142029,-0.11456213146448135
13589,0.031918805092573166,0.0731668770313263,0.02269742079079151,-0.11150999367237091,0.28009742498397827,-0.11769749224185944
13599,0.03189470246434212,0.07312631607055664,0.02260422147810459,-0.11020924150943756,0.28172391653060913,-0.11765260249376297
13609,0.031237559393048286,0.07200774550437927,0.02312394231557846,-0.051767513155937195,0.313920259475708,-0.11731576174497604
13619,0.03124321810901165,0.07244616746902466,0.0230674110352993,-0.0820043683052063,0.30942416191101074,-0.1176561787724495
13630,0.03015361912548542,0.07289370149374008,0.022985899820923805,-0.1098606064915657,0.3656075596809387,-0.11666727066040039
13640,0.03187444061040878,0.07289273291826248,0.022979050874710083,-0.11222869902849197,0.2658786177635193,-0.11914526671171188
13649,0.03037187084555626,0.07332887500524521,0.022896336391568184,-0.13755346834659576,0.3439393639564514,-0.1185402050614357
13659,0.03208740055561066,0.07672925293445587,0.02289520762860775,-0.32143425941467285,0.24473020434379578,-0.11997577548027039
13669,0.031021542847156525,0.07248939573764801,0.022990096360445023,-0.08343399316072464,0.3019096553325653,-0.12248057126998901
13679,0.031654953956604004,0.07249072194099426,0.022944847121834755,-0.08836331218481064,0.2644403874874115,-0.12395569682121277
13689,0.031862277537584305,0.07249791920185089,0.022890126332640648,-0.09327080845832825,0.250550240278244,-0.12421123683452606
13699,0.03183970972895622,0.0724140852689743,0.022831548005342484,-0.09411626309156418,0.25266310572624207,-0.1235416829586029
13709,0.031449902802705765,0.07311701029539108,0.0232897587120533,-0.13629959523677826,0.26602885127067566,-0.12182922661304474
13719,0.03125015273690224,0.07332025468349457,0.023257466033101082,-0.1501666009426117,0.27296027541160583,-0.12277562916278839
13729,0.031660038977861404,0.07250148802995682,0.02323284186422825,-0.10636777430772781,0.24638092517852783,-0.12393585592508316
13739,0.03166373074054718,0.07271111011505127,0.02320856973528862,-0.12192778289318085,0.24307280778884888,-0.12456659227609634
13749,0.03007449582219124,0.07330005615949631,0.023510031402111053,-0.15647979080677032,0.32547006011009216,-0.12279696017503738
13759,0.032498642802238464,0.07247918844223022,0.023562230169773102,-0.1146879568696022,0.18854503333568573,-0.1259453445672989
13769,0.030893132090568542,0.07268886268138885,0.02357638254761696,-0.12794464826583862,0.27588969469070435,-0.12529775500297546
13779,0.030890479683876038,0.07248277217149734,0.023573368787765503,-0.12202394753694534,0.27047988772392273,-0.12463060021400452
13789,0.03188811242580414,0.07646796852350235,0.0237942636013031,-0.33744901418685913,0.2136315256357193,-0.12274548411369324
13799,0.032283421605825424,0.07369109988212585,0.02391641028225422,-0.18026533722877502,0.19115817546844482,-0.12564648687839508
13809,0.03227977082133293,0.0734928697347641,0.02393305115401745,-0.16987459361553192,0.19255411624908447,-0.12538830935955048
13819,0.03287309780716896,0.0732898861169815,0.023943837732076645,-0.1590086668729782,0.16204962134361267,-0.1268283724784851
13829,0.032875947654247284,0.07348650693893433,0.02396043762564659,-0.17011664807796478,0.16434511542320251,-0.12746576964855194
13839,0.031704679131507874,0.07759950309991837,0.02444993518292904,-0.3898923993110657,0.2291402667760849,-0.12444405257701874
13849,0.02935585007071495,0.0784008651971817,0.024446459487080574,-0.41726037859916687,0.35238364338874817,-0.123599573969841
13859,0.03227241709828377,0.07801873981952667,0.024655448272824287,-0.3814848065376282,0.18633970618247986,-0.12468038499355316
13869,0.031296174973249435,0.07881719619035721,0.024678023532032967,-0.40909257531166077,0.24073873460292816,-0.12509430944919586
13879,0.033049795776605606,0.08408261090517044,0.024649474769830704,-0.6760063171386719,0.14455080032348633,-0.12106431275606155
13889,0.03227091208100319,0.08218323439359665,0.025003477931022644,-0.537835955619812,0.19173015654087067,-0.12385784089565277
13899,0.03362312912940979,0.07930785417556763,0.025359541177749634,-0.35643255710601807,0.1209046021103859,-0.12571507692337036
13909,0.03362955525517464,0.07990048080682755,0.02542998641729355,-0.37424179911613464,0.12652014195919037,-0.12692546844482422
13919,0.033736977726221085,0.08016753941774368,0.02550874836742878,-0.37331050634384155,0.12733367085456848,-0.12728333473205566
13929,0.03286442160606384,0.0785738155245781,0.02541951835155487,-0.2795979976654053,0.17658261954784393,-0.12919238209724426
13939,0.033636562526226044,0.07915940880775452,0.025476213544607162,-0.3027499318122864,0.13692134618759155,-0.1286630481481552
13949,0.03306536003947258,0.07936614006757736,0.02555250935256481,-0.3038240075111389,0.17440541088581085,-0.1286742091178894
13959,0.034408725798130035,0.07937462627887726,0.02560862898826599,-0.29485827684402466,0.10483122617006302,-0.12848637998104095
13969,0.02941671572625637,0.06921873986721039,0.025195980444550514,0.2742173373699188,0.38631951808929443,-0.13869772851467133
13979,0.028439940884709358,0.0691877231001854,0.02526015043258667,0.24503923952579498,0.4279264807701111,-0.1384703665971756
13989,0.029954832047224045,0.06915543228387833,0.025482159107923508,0.21500414609909058,0.329205721616745,-0.13775035738945007
13999,0.029795510694384575,0.0686478465795517,0.025527408346533775,0.21618616580963135,0.329934686422348,-0.1395193189382553
14009,0.02978861704468727,0.06681659817695618,0.025656916201114655,0.2894960343837738,0.3221271336078644,-0.1414293646812439
14019,0.029632549732923508,0.06620419025421143,0.025704562664031982,0.289035439491272,0.3228421211242676,-0.14103151857852936
14029,0.029635557904839516,0.06773614883422852,0.025985857471823692,0.17436033487319946,0.31426098942756653,-0.1397162675857544
14039,0.02976689673960209,0.06862044334411621,0.0262225903570652,0.09934042394161224,0.2919628620147705,-0.13964153826236725
14049,0.028151845559477806,0.06842334568500519,0.02615925297141075,0.08564206212759018,0.37587618827819824,-0.13811005651950836
14059,0.027920126914978027,0.06801211833953857,0.026221200823783875,0.08471211045980453,0.3762204051017761,-0.1382448822259903
14069,0.029733769595623016,0.06839632242918015,0.026387467980384827,0.04138560965657234,0.26489582657814026,-0.14006869494915009
14079,0.029617633670568466,0.06801910698413849,0.026455655694007874,0.04059731960296631,0.2658105492591858,-0.13978147506713867
14089,0.027924753725528717,0.06908376514911652,0.02657935954630375,-0.03586554527282715,0.3508182764053345,-0.13737176358699799
14099,0.028590351343154907,0.06909611076116562,0.027256617322564125,-0.05337831377983093,0.30409902334213257,-0.13704463839530945
14109,0.029010500758886337,0.07265911251306534,0.027457857504487038,-0.25927573442459106,0.2742208242416382,-0.13517948985099792
14119,0.02880113758146763,0.07162649929523468,0.02757527492940426,-0.20776566863059998,0.2782953083515167,-0.1368243396282196
14129,0.02879752777516842,0.07142175734043121,0.027682555839419365,-0.20450586080551147,0.2712092399597168,-0.137437105178833
14139,0.02733173780143261,0.0676308199763298,0.027743352577090263,0.006498170085251331,0.3441452980041504,-0.14082551002502441
14149,0.027125727385282516,0.06729229539632797,0.027099454775452614,0.006798312067985535,0.34467846155166626,-0.14094969630241394
14159,0.02753581292927265,0.06917453557252884,0.027270808815956116,-0.11624301224946976,0.31276172399520874,-0.13824759423732758
14169,0.027534643188118935,0.07350688427686691,0.027440888807177544,-0.3622549772262573,0.3026902377605438,-0.13413074612617493
14179,0.028157660737633705,0.07329607009887695,0.027542274445295334,-0.3477025628089905,0.2589355409145355,-0.1360696405172348
14189,0.028366118669509888,0.07329750806093216,0.027364762499928474,-0.3439854383468628,0.23931770026683807,-0.13657419383525848
