timestamp (ms),stateEstimate.x,stateEstimate.y,stateEstimate.z,stabilizer.roll,stabilizer.pitch,stabilizer.yaw
10940,3.371792263351381e-05,-2.729757034103386e-05,0.019999874755740166,5.8477882703300565e-05,-0.0005956721142865717,-0.00014508565072901547
10950,8.326031820615754e-05,-5.94961857132148e-05,0.019986677914857864,-0.0013534013414755464,-0.0005820933147333562,0.0002672069240361452
10961,6.222343654371798e-05,-0.00013489210687112063,0.01995079591870308,-0.0037142098881304264,0.06521251797676086,0.00011641452147159725
10971,9.633619629312307e-05,-0.00023207197955343872,0.019909275695681572,0.013829193077981472,0.06956636905670166,0.000233879589359276
10981,9.633619629312307e-05,-0.00023207197955343872,0.019909275695681572,0.013829193077981472,0.06956636905670166,0.000233879589359276
10990,0.0001352354884147644,-6.716763891745359e-05,0.019401773810386658,-0.08147259056568146,0.07786973565816879,0.00012739420344587415
11001,-0.0002381703379796818,-8.298948523588479e-05,0.019353853538632393,-0.08558963984251022,0.2851310968399048,-0.0009630208951421082
11011,-2.3900396627141163e-05,-0.0005656654248014092,0.01920795813202858,0.07702620327472687,0.19846321642398834,-0.003113442100584507
11021,0.0015621270285919309,-0.0038586219307035208,0.018988490104675293,1.2461587190628052,-0.36486321687698364,-0.0003130099503323436
11031,0.0020728828385472298,-0.004738113842904568,0.0192380603402853,1.342863917350769,-0.4395013749599457,0.0011067886371165514
11041,0.0020728828385472298,-0.004738113842904568,0.0192380603402853,1.342863917350769,-0.4395013749599457,0.0011067886371165514
11051,0.0012670550495386124,-0.006159220822155476,0.01913813315331936,1.3280155658721924,0.025654656812548637,-0.0037431768141686916
11061,0.0008503618882969022,-0.006816112902015448,0.019051656126976013,1.3059953451156616,0.2141142189502716,-0.004510745871812105
11070,0.0008618601132184267,-0.006850558333098888,0.020872829481959343,1.3059953451156616,0.2141142189502716,-0.004510745871812105
11080,0.000992705230601132,-0.007600005716085434,0.020856056362390518,1.3047411441802979,0.21172866225242615,-0.005650176201015711
11091,4.745377373183146e-05,-0.008351095020771027,0.02091936394572258,1.084708571434021,0.5400835871696472,-0.007105639204382896
11101,0.0018187565729022026,-0.00942041166126728,0.020864766091108322,1.1695162057876587,0.09741859138011932,-0.007437885273247957
11112,0.0018187565729022026,-0.00942041166126728,0.020864766091108322,1.1695162057876587,0.09741859138011932,-0.007437885273247957
11121,0.002219392918050289,-0.007862702012062073,0.02146719954907894,0.5829311609268188,0.05022941157221794,-0.00629144674167037
11130,0.002474741078913212,-0.008420702069997787,0.021466389298439026,0.5816076397895813,0.05096442997455597,-0.005098605528473854
11141,0.003605787642300129,-0.008569885045289993,0.021456023678183556,0.48302391171455383,-0.1464836299419403,-0.004926653578877449
11151,0.0002690329565666616,-0.008738677948713303,0.021741341799497604,0.2951902151107788,0.6696372628211975,-0.0019875604193657637
11161,-0.0046473098918795586,-0.007286186795681715,0.022276828065514565,-0.015243210829794407,1.703900933265686,0.007753304671496153
11170,-0.005139356479048729,-0.007620891556143761,0.02231367491185665,-0.01539897732436657,1.7005910873413086,0.007754550315439701
11182,-0.005254409741610289,-0.006482691969722509,0.022409383207559586,-0.296518474817276,1.6233915090560913,0.011020233854651451
11192,-0.005571291781961918,-0.008872929029166698,0.022580452263355255,0.03493034467101097,1.5084348917007446,0.0018176721641793847
11200,-0.005571291781961918,-0.008872929029166698,0.022580452263355255,0.03493034467101097,1.5084348917007446,0.0018176721641793847
11210,-0.006014740094542503,-0.009224280714988708,0.021896563470363617,0.036001842468976974,1.5072027444839478,-0.00023986032465472817
11222,-0.005503150634467602,-0.008015520870685577,0.022028513252735138,-0.2577592730522156,1.2913740873336792,0.005068302620202303
11231,-0.005503150634467602,-0.008015520870685577,0.022028513252735138,-0.2577592730522156,1.2913740873336792,0.005068302620202303
11242,-0.003963038325309753,-0.009051472879946232,0.022121787071228027,-0.14253467321395874,1.014190912246704,0.0016512051224708557
11252,-0.0040711089968681335,-0.008598310872912407,0.02259041927754879,-0.2828548550605774,0.9678385853767395,0.004903246182948351
11262,-0.0052071199752390385,-0.008792194537818432,0.022618040442466736,-0.2867719829082489,1.0863442420959473,0.0042772660963237286
11270,-0.0052071199752390385,-0.008792194537818432,0.022618040442466736,-0.2867719829082489,1.0863442420959473,0.0042772660963237286
11280,-0.005092996638268232,-0.00808742642402649,0.022668689489364624,-0.401241272687912,1.0375208854675293,0.006663946900516748
11290,-0.00409317621961236,-0.010085813701152802,0.02242683432996273,-0.1778310239315033,0.8881409168243408,0.000790150894317776
11300,0.003858943236991763,-0.0026596863754093647,0.02255329117178917,-1.0798852443695068,-0.061522286385297775,0.013218537904322147
11310,0.0042981719598174095,-0.002393391216173768,0.0225694440305233,-1.078572154045105,-0.06131059676408768,0.012729682959616184
11320,0.005299888085573912,-0.0022469235118478537,0.0225510336458683,-1.062022089958191,-0.12368707358837128,0.012505480088293552
11330,0.00412704749032855,-0.002399819903075695,0.022752322256565094,-1.0121906995773315,0.06399022787809372,0.012080985121428967
11342,-0.0032983673736453056,-0.008764631114900112,0.023430589586496353,-0.32205361127853394,0.8875288963317871,-0.002440296346321702
11350,-0.0034072715789079666,-0.008939860388636589,0.023501716554164886,-0.3220900297164917,0.8870115280151367,-0.0022322386503219604
11362,-0.004576674662530422,-0.009193171747028828,0.023553356528282166,-0.31410929560661316,0.9942793250083923,-0.0037385327741503716
11370,-0.004757239017635584,-0.009374769404530525,0.023624002933502197,-0.3143458366394043,0.9936572313308716,-0.004447677172720432
11380,-0.002413075650110841,-0.00929397065192461,0.022165372967720032,-0.3375111222267151,0.7535698413848877,-0.002082003513351083
11390,0.0004010020347777754,-0.009798788465559483,0.022154707461595535,-0.3034854233264923,0.48655831813812256,2.8410422601155005e-05
11400,0.0006295648636296391,-0.011109994724392891,0.022128917276859283,-0.20100942254066467,0.4792531728744507,-0.0016309167258441448
11410,0.0016774535179138184,-0.011032195761799812,0.02210422046482563,-0.23273321986198425,0.398438036441803,-0.0014661845052614808
11420,0.0016097996849566698,-0.010416860692203045,0.022123465314507484,-0.3098640739917755,0.4247042238712311,-0.00035294375265948474
11430,0.0018395527731627226,-0.010605791583657265,0.022059157490730286,-0.3098125457763672,0.4257166385650635,-0.0003690672747325152
11440,0.0020762672647833824,-0.01079463493078947,0.02204347401857376,-0.3094414472579956,0.42564693093299866,-0.0004824766074307263
11452,0.0021944569889456034,-0.011853865347802639,0.022039420902729034,-0.24729830026626587,0.447903037071228,-0.0014547972241416574
11462,0.00031523502548225224,-0.010862594470381737,0.02211996354162693,-0.3459869921207428,0.6164631247520447,-0.002640861552208662
11470,0.00031294787186197937,-0.010869215242564678,0.022899117320775986,-0.3459869921207428,0.6164631247520447,-0.002640861552208662
11480,0.004945780616253614,-0.010217126458883286,0.022913679480552673,-0.40854692459106445,0.2616215944290161,0.0020676488056778908
11490,0.0019203599076718092,-0.010461117140948772,0.023091837763786316,-0.3974757790565491,0.523537278175354,-0.002670770976692438
11500,0.0026958303060382605,-0.010419629514217377,0.02313133329153061,-0.4078965485095978,0.47889548540115356,-0.0017997176619246602
11510,0.0023374089505523443,-0.011782710440456867,0.02319089137017727,-0.3144693076610565,0.5223047137260437,-0.0038900226354599
11520,4.785117562278174e-05,-0.010325325652956963,0.021537939086556435,-0.4343356192111969,0.7039626836776733,-0.005278798285871744
11530,0.0001068193232640624,-0.010408109053969383,0.02149577997624874,-0.433673620223999,0.7029789090156555,-0.005903867073357105
11540,-0.00021095444390084594,-0.009202833287417889,0.021450359374284744,-0.5250438451766968,0.7285658121109009,-0.006123894359916449
11550,-0.0007939609931781888,-0.01120541337877512,0.021425383165478706,-0.3872896134853363,0.7720133662223816,-0.008950112387537956
11562,-0.0019193332409486175,-0.015958070755004883,0.021607518196105957,-0.07132043689489365,0.8479833006858826,-0.015305468812584877
11570,-0.003009298350661993,-0.01554745715111494,0.021589843556284904,-0.12362845987081528,0.9138630628585815,-0.01586911454796791
11580,-0.003136733779683709,-0.015905646607279778,0.021558186039328575,-0.12304842472076416,0.9136427640914917,-0.0161860641092062
11590,-0.0032651573419570923,-0.016266001388430595,0.021527649834752083,-0.12238948792219162,0.9122386574745178,-0.017046097666025162
11600,-0.0035127156879752874,-0.01702832616865635,0.022092239931225777,-0.09672311693429947,0.9196637868881226,-0.01825415901839733
11610,-0.0016086559044197202,-0.018684420734643936,0.0220958162099123,-0.015544617548584938,0.7911257147789001,-0.017798755317926407
11620,-0.0031008170917630196,-0.01698625087738037,0.022191110998392105,-0.1474420130252838,0.8818027973175049,-0.017067965120077133
11630,-0.003197877900674939,-0.017335116863250732,0.02220613695681095,-0.14798955619335175,0.8812639117240906,-0.017166346311569214
11640,-0.0028325889725238085,-0.017158647999167442,0.022247476503252983,-0.17864812910556793,0.853140115737915,-0.017075005918741226
11650,-0.0028987638652324677,-0.0174801554530859,0.02215021476149559,-0.1778169423341751,0.8514095544815063,-0.01754790171980858
11660,-0.003183030756190419,-0.016000231727957726,0.0221962071955204,-0.27933385968208313,0.8620948195457458,-0.01584310457110405
11670,-0.00472240149974823,-0.01620848849415779,0.022195011377334595,-0.2785814106464386,0.9405511617660522,-0.01849479414522648
11680,-0.0030877587851136923,-0.016728240996599197,0.022242767736315727,-0.260418564081192,0.8387100696563721,-0.017545415088534355
11690,-0.007903988473117352,-0.016605297103524208,0.02171127311885357,-0.28073394298553467,1.0984190702438354,-0.01992291957139969
11700,-0.007758882362395525,-0.01739790290594101,0.02170012705028057,-0.24962851405143738,1.0690749883651733,-0.019562475383281708
11710,-0.0003338420356158167,-0.014970985241234303,0.021993763744831085,-0.39491555094718933,0.6495075225830078,-0.012047603726387024
11720,-0.0003800592676270753,-0.016077110543847084,0.022003114223480225,-0.3408811390399933,0.6576111316680908,-0.013511542230844498
11730,0.0007057866896502674,-0.015451878309249878,0.02198469266295433,-0.3828422427177429,0.6055019497871399,-0.012190882116556168
11740,0.0009154623840004206,-0.015547414310276508,0.021108640357851982,-0.3808833062648773,0.603888750076294,-0.012202405370771885
11750,0.001113135484047234,-0.015655159950256348,0.021056653931736946,-0.37849533557891846,0.602149486541748,-0.012902241200208664
11760,0.0019482177449390292,-0.01591920666396618,0.020987382158637047,-0.3691272437572479,0.569313645362854,-0.013612977229058743
11770,0.002133898204192519,-0.01586085744202137,0.02093924768269062,-0.377225786447525,0.5722151398658752,-0.013699332252144814
11782,0.001716923899948597,-0.020119469612836838,0.02181418053805828,-0.15481343865394592,0.6067550182342529,-0.017969433218240738
11790,0.0019276570528745651,-0.02047131396830082,0.021823585033416748,-0.15340512990951538,0.6061156988143921,-0.018251072615385056
11800,0.0006870687357150018,-0.021775763481855392,0.021832581609487534,-0.10455875843763351,0.6805145740509033,-0.021026160567998886
11810,0.0029101071413606405,-0.02077140472829342,0.021891556680202484,-0.17698726058006287,0.5741832256317139,-0.01837187632918358
11820,0.0022658586967736483,-0.021224718540906906,0.02239040657877922,-0.17209981381893158,0.6196020841598511,-0.01954270899295807
11830,0.0021948283538222313,-0.020291749387979507,0.022480884566903114,-0.2340409755706787,0.6341274976730347,-0.019649535417556763
11841,0.001590243773534894,-0.020205557346343994,0.0225567314773798,-0.25125113129615784,0.6740550994873047,-0.020120272412896156
11850,0.00046361092245206237,-0.019865693524479866,0.022642768919467926,-0.27909767627716064,0.7388353943824768,-0.020891455933451653
11860,0.001519482466392219,-0.020874831825494766,0.022677620872855186,-0.23561511933803558,0.6881658434867859,-0.02102850191295147
11870,0.0016704883892089128,-0.021145356819033623,0.02240857668220997,-0.23811358213424683,0.6867660880088806,-0.021365325897932053
11880,0.0016149382572621107,-0.021325858309864998,0.022447844967246056,-0.24369849264621735,0.6977972984313965,-0.020215479657053947
11890,-0.0003135761362500489,-0.021274277940392494,0.022514982149004936,-0.2613206207752228,0.8028104305267334,-0.022585129365324974
11900,-0.0014015622437000275,-0.021202823147177696,0.022551976144313812,-0.27565136551856995,0.8585512638092041,-0.023472506552934647
11910,-0.0014262190088629723,-0.021450545638799667,0.022759387269616127,-0.27550360560417175,0.8581104278564453,-0.02439756691455841
11920,0.002525618067011237,-0.021643614396452904,0.022844580933451653,-0.27864569425582886,0.6558630466461182,-0.02135619707405567
11930,-0.0003070480306632817,-0.02239060029387474,0.022932449355721474,-0.2528012990951538,0.8063681125640869,-0.024610210210084915
11940,-0.00027746218256652355,-0.022661952301859856,0.022983230650424957,-0.2541075050830841,0.8041022419929504,-0.024369286373257637
11950,-0.0017187603516504169,-0.021415380761027336,0.023067837581038475,-0.32988741993904114,0.8741023540496826,-0.023107824847102165
11960,-0.00028570881113409996,-0.021330377086997032,0.022271381691098213,-0.34314072132110596,0.7993317246437073,-0.021423595026135445
11970,-0.005869453307241201,-0.015693986788392067,0.022320399060845375,-0.6313039064407349,1.0776058435440063,-0.019071640446782112
11980,-0.005785984452813864,-0.014630288816988468,0.02231319434940815,-0.6757262945175171,1.0597871541976929,-0.017067544162273407
11991,-0.004902161192148924,-0.015493384562432766,0.022411933168768883,-0.6226264834403992,1.0040626525878906,-0.018203996121883392
12001,-0.0045826369896531105,-0.01658424362540245,0.02228502742946148,-0.5617523193359375,0.9783570170402527,-0.018170718103647232
12011,-0.002147076651453972,-0.016076277941465378,0.022330304607748985,-0.5846813917160034,0.8453837633132935,-0.016209738329052925
12021,-0.004489552695304155,-0.015838325023651123,0.022328229621052742,-0.5918546319007874,0.9591355323791504,-0.016582809388637543
12030,-0.004639805760234594,-0.01572202704846859,0.022333264350891113,-0.59208083152771,0.9555999636650085,-0.017585450783371925
12040,-0.006226475816220045,-0.01466355286538601,0.022284040227532387,-0.6376373767852783,1.0243637561798096,-0.01786978915333748
12050,-0.004803953692317009,-0.0166076198220253,0.02225014567375183,-0.5340033173561096,0.9431164264678955,-0.019949540495872498
12060,-0.004235397092998028,-0.02352367341518402,0.02231675758957863,-0.19199097156524658,0.905713677406311,-0.028826428577303886
12070,-0.004335643723607063,-0.02384032867848873,0.022317202761769295,-0.19143261015415192,0.905204713344574,-0.029068714007735252
12080,-0.0037444275803864002,-0.02512473426759243,0.02227897383272648,-0.14267531037330627,0.8716827034950256,-0.031590159982442856
12090,-0.0056281015276908875,-0.024466848000884056,0.02178262360394001,-0.19131533801555634,0.9601345658302307,-0.032110072672367096
12100,-0.00018458813428878784,-0.024916917085647583,0.021834906190633774,-0.18440032005310059,0.6868338584899902,-0.02783527970314026
12110,-3.5138262319378555e-05,-0.025248536840081215,0.021811379119753838,-0.18432402610778809,0.6848434209823608,-0.02845710702240467
12120,-8.677119330968708e-05,-0.02625732123851776,0.021765800192952156,-0.15030083060264587,0.6943861842155457,-0.03087029606103897
12130,-0.00013394092093221843,-0.024204012006521225,0.021867206320166588,-0.2637385129928589,0.7027225494384766,-0.030005061998963356
12140,-1.9825674826279283e-06,-0.024443689733743668,0.021906014531850815,-0.2641722559928894,0.7014803886413574,-0.029265739023685455
12150,0.0013845833018422127,-0.018330207094550133,0.02199619449675083,-0.5604699850082397,0.6430944800376892,-0.021839220076799393
12160,0.0030054047238081694,-0.019223611801862717,0.021976079791784286,-0.513886570930481,0.575133204460144,-0.02226509526371956
12170,0.0017985005397349596,-0.017304986715316772,0.02199423685669899,-0.5983911156654358,0.6447663307189941,-0.02296661026775837
12180,0.0025590863078832626,-0.0184501800686121,0.02116077020764351,-0.535788357257843,0.6199806928634644,-0.023363105952739716
12190,0.006247333716601133,-0.012845058925449848,0.020922064781188965,-0.7888005375862122,0.4633531868457794,-0.018094222992658615
12200,0.006127614993602037,-0.012433857657015324,0.02088090032339096,-0.7879793047904968,0.4907107949256897,-0.017284175381064415
12210,0.00707217724993825,-0.013070524670183659,0.02085629478096962,-0.7361654043197632,0.46405482292175293,-0.018588751554489136
12220,0.007223145570605993,-0.013675923459231853,0.02087554521858692,-0.6899417042732239,0.4761302173137665,-0.019163474440574646
12230,0.007685880176723003,-0.013321086764335632,0.021753711625933647,-0.6879242658615112,0.47566917538642883,-0.019709335640072823
12240,0.008150428533554077,-0.012978173792362213,0.02174992859363556,-0.6875607967376709,0.47668778896331787,-0.021260907873511314
12250,0.007410440593957901,-0.01311250776052475,0.021832043305039406,-0.6627338528633118,0.5312442779541016,-0.022708747535943985
12260,0.00756361847743392,-0.014061987400054932,0.021901050582528114,-0.6034359335899353,0.5382656455039978,-0.022451402619481087
12270,0.00603911466896534,-0.01390782743692398,0.020693683996796608,-0.5986365079879761,0.6242449283599854,-0.02501104027032852
12280,0.0099948700517416,-0.018827183172106743,0.020669259130954742,-0.362494558095932,0.45869290828704834,-0.021864943206310272
12290,0.009587988257408142,-0.018544891849160194,0.020661741495132446,-0.37691426277160645,0.500971257686615,-0.024886222556233406
12300,0.010051404125988483,-0.018572822213172913,0.020600372925400734,-0.37744665145874023,0.49970743060112,-0.02578984573483467
12310,0.011024386622011662,-0.018548933789134026,0.02117002010345459,-0.37795835733413696,0.4766615331172943,-0.024939244613051414
12320,0.005957496352493763,-0.019898289814591408,0.021379675716161728,-0.317477822303772,0.7276779413223267,-0.032002270221710205
12330,0.005635390058159828,-0.02040763944387436,0.021371886134147644,-0.29759398102760315,0.749441385269165,-0.03231576830148697
12340,0.005329194478690624,-0.0195835679769516,0.021396804600954056,-0.3405284285545349,0.7684023976325989,-0.03290429711341858
12350,0.004248932935297489,-0.020871050655841827,0.021372949704527855,-0.2849178612232208,0.8220810890197754,-0.033449240028858185
12360,0.005265064537525177,-0.021628739312291145,0.021199675276875496,-0.25786668062210083,0.7797423601150513,-0.03390589728951454
12370,0.00422022957354784,-0.019536975771188736,0.021248066797852516,-0.36468470096588135,0.8316531181335449,-0.034867748618125916
12380,0.0042715189047157764,-0.01958940178155899,0.02124015800654888,-0.3651491403579712,0.8307347297668457,-0.03578876703977585
12390,0.005592067260295153,-0.02038123831152916,0.021237866953015327,-0.3290237486362457,0.7707135677337646,-0.03475369140505791
12400,0.004505387973040342,-0.01983734406530857,0.020688381046056747,-0.3578251898288727,0.8246361017227173,-0.034825921058654785
12410,0.003189972834661603,-0.02475622482597828,0.020616479218006134,-0.12975506484508514,0.887606680393219,-0.03845836967229843
12420,0.003959519322961569,-0.02468278631567955,0.02060212939977646,-0.14793901145458221,0.8490484952926636,-0.038506895303726196
12430,0.0019237101078033447,-0.02461601234972477,0.020564274862408638,-0.16414783895015717,0.947088897228241,-0.0398489274084568
12440,0.0029893177561461926,-0.025827007368206978,0.02051486447453499,-0.1194995790719986,0.8898974061012268,-0.040330588817596436
12450,0.002970473375171423,-0.026167025789618492,0.01980382204055786,-0.11883743107318878,0.8914365172386169,-0.040682218968868256
12460,0.0029710724484175444,-0.029187416657805443,0.019622579216957092,0.008116364479064941,0.8903985619544983,-0.042882878333330154
12470,0.0032340551260858774,-0.029065364971756935,0.019585328176617622,-0.021968785673379898,0.8777115345001221,-0.04240230470895767
12480,-0.0005672848201356828,-0.030227234587073326,0.019432390108704567,0.012199075892567635,1.0582962036132812,-0.04411432892084122
12490,-0.0012884923489764333,-0.02587556280195713,0.020268386229872704,-0.2245633453130722,1.083117127418518,-0.03925703838467598
12500,-0.001528158551082015,-0.02613080106675625,0.020237674936652184,-0.22395986318588257,1.0818578004837036,-0.040332768112421036
12510,-0.0017711927648633718,-0.026387974619865417,0.02020753175020218,-0.22233544290065765,1.0809463262557983,-0.04044269025325775
12520,-0.0030737740453332663,-0.026301998645067215,0.020144788548350334,-0.2400399148464203,1.1320587396621704,-0.03876126557588577
12530,-0.0029776140581816435,-0.02595941349864006,0.02014697901904583,-0.26660826802253723,1.1124211549758911,-0.03900360316038132
12540,-0.0032828706316649914,-0.026190312579274178,0.020901503041386604,-0.2650352120399475,1.1108278036117554,-0.04040567949414253
12550,-0.0017790414858609438,-0.02724793180823326,0.020962608978152275,-0.22300289571285248,1.0225563049316406,-0.041846778243780136
12560,-0.001714773359708488,-0.026894759386777878,0.02099744603037834,-0.25173142552375793,1.0078755617141724,-0.04166368395090103
12570,-0.0030300896614789963,-0.027914466336369514,0.02097337879240513,-0.21381209790706635,1.0607590675354004,-0.042457807809114456
12580,-0.0010958305792883039,-0.028101835399866104,0.020629601553082466,-0.21899700164794922,0.9547788500785828,-0.04290924593806267
12590,-0.0007950313738547266,-0.027231670916080475,0.020651064813137054,-0.27479079365730286,0.9342953562736511,-0.04143393784761429
12600,-0.0009135403670370579,-0.027444660663604736,0.020649265497922897,-0.2766198217868805,0.9342135787010193,-0.04164957255125046
12610,-0.0017039217054843903,-0.027096960693597794,0.020650964230298996,-0.30217644572257996,0.9650654196739197,-0.04038368910551071
12620,-0.0008415210759267211,-0.027040375396609306,0.020671945065259933,-0.31319525837898254,0.9175758957862854,-0.04051991552114487
12630,-0.006156079471111298,-0.02806110307574272,0.02077341638505459,-0.27279847860336304,1.1590062379837036,-0.04135273024439812
12640,-0.006549020763486624,-0.02828120067715645,0.020776718854904175,-0.2717836797237396,1.1583868265151978,-0.04208190739154816
12650,-0.007806302048265934,-0.028484612703323364,0.020739393308758736,-0.2716149091720581,1.1972839832305908,-0.042141932994127274
12660,-0.006305569317191839,-0.0295062568038702,0.020841408520936966,-0.2359984964132309,1.1044093370437622,-0.04360102117061615
12670,-0.007260163780301809,-0.028881115838885307,0.020497247576713562,-0.27686238288879395,1.1316698789596558,-0.04271266609430313
12680,-0.005312393885105848,-0.03067808970808983,0.020545970648527145,-0.20515547692775726,1.0246766805648804,-0.04590173065662384
12690,-0.007329630199819803,-0.028243765234947205,0.020579466596245766,-0.3313305377960205,1.104016900062561,-0.04048147425055504
12700,-0.00596406776458025,-0.029237303882837296,0.020638545975089073,-0.29279911518096924,1.0221326351165771,-0.04255323112010956
12710,-0.00515250489115715,-0.02918952889740467,0.02067418023943901,-0.3041132092475891,0.9714466333389282,-0.043039288371801376
12720,-0.003638002322986722,-0.029164500534534454,0.02127019315958023,-0.3145369589328766,0.8914021849632263,-0.041703961789608
12730,-0.004855508916079998,-0.028636066243052483,0.021321909502148628,-0.3448881208896637,0.9416764378547668,-0.041707176715135574
12740,-0.004826790653169155,-0.028128692880272865,0.02137056551873684,-0.3713049590587616,0.9317113757133484,-0.042190149426460266
12750,-0.006982574705034494,-0.028357673436403275,0.021389920264482498,-0.3643494248390198,1.0221937894821167,-0.04218257963657379
12760,-0.006452879868447781,-0.02882440574467182,0.02126113697886467,-0.3442656397819519,0.9833837151527405,-0.04258476942777634
12770,-0.006896995939314365,-0.028096530586481094,0.02129298262298107,-0.38224390149116516,0.9939088821411133,-0.04349001124501228
12780,-0.006395481061190367,-0.02855571359395981,0.02134423516690731,-0.36250045895576477,0.9570092558860779,-0.04476875439286232
12790,-0.006833767518401146,-0.028075477108359337,0.021376149728894234,-0.3895585536956787,0.9658675789833069,-0.04404504969716072
12800,-0.006800762843340635,-0.02714509330689907,0.021240219473838806,-0.4340963661670685,0.9538562297821045,-0.04327154904603958
12810,-0.007004494778811932,-0.02713700197637081,0.02126292511820793,-0.4318649470806122,0.9527120590209961,-0.042859237641096115
12820,-0.007948539219796658,-0.02664971351623535,0.021266696974635124,-0.45361456274986267,0.9867763519287109,-0.04351363703608513
12830,-0.008200853131711483,-0.026608526706695557,0.021288152784109116,-0.4508797526359558,0.985241711139679,-0.04347870871424675
12840,-0.008140059188008308,-0.027387000620365143,0.021334068849682808,-0.41103896498680115,0.9691364765167236,-0.04567353054881096
12850,-0.00835211668163538,-0.0253772996366024,0.02164728008210659,-0.5036869645118713,0.9668574929237366,-0.043066635727882385
12860,-0.008587014861404896,-0.025257200002670288,0.02169179916381836,-0.5021586418151855,0.96415114402771,-0.044334776699543
12870,-0.008823462761938572,-0.025135472416877747,0.02173752337694168,-0.5013477802276611,0.9649861454963684,-0.04495377838611603
12880,-0.007904551923274994,-0.02545604109764099,0.021829282864928246,-0.480894535779953,0.9103469848632812,-0.04632143676280975
12890,-0.008377820253372192,-0.026321668177843094,0.020642975345253944,-0.43549177050590515,0.9248045682907104,-0.048875316977500916
12900,-0.008584988303482533,-0.026274943724274635,0.02061416208744049,-0.4334619641304016,0.9227405786514282,-0.04870852082967758
12910,-0.007349352817982435,-0.02571244351565838,0.020610472187399864,-0.45756998658180237,0.8552452325820923,-0.047487325966358185
12920,-0.009564978070557117,-0.024891715496778488,0.02055678889155388,-0.4900737404823303,0.9511645436286926,-0.0472029373049736
12930,-0.0072077480144798756,-0.024931084364652634,0.021684985607862473,-0.48000848293304443,0.829857587814331,-0.04676439240574837
12940,-0.0038973975460976362,-0.02688402310013771,0.021764351055026054,-0.38390877842903137,0.67323899269104,-0.04905936121940613
12950,-0.005522437393665314,-0.02688213624060154,0.021858766674995422,-0.3837309181690216,0.7531735897064209,-0.0491558201611042
12960,-0.005502251908183098,-0.026882225647568703,0.02191026322543621,-0.38415202498435974,0.752619206905365,-0.04973834007978439
12970,-0.0055070300586521626,-0.027993686497211456,0.02195633575320244,-0.33274373412132263,0.7526546120643616,-0.05160312354564667
12980,-0.006840420421212912,-0.02662822976708412,0.020695222541689873,-0.3998907804489136,0.8156136274337769,-0.05076585337519646
12990,-0.006283617578446865,-0.025027170777320862,0.020669955760240555,-0.47234174609184265,0.7864042520523071,-0.05007900297641754
13000,-0.006297804415225983,-0.02491919882595539,0.020645899698138237,-0.46847212314605713,0.7858297228813171,-0.049621451646089554
13010,-0.0062948777340352535,-0.02579112909734249,0.020638050511479378,-0.42136844992637634,0.7846377491950989,-0.05050596967339516
13020,-0.005990609060972929,-0.02554730325937271,0.019472798332571983,-0.4319545328617096,0.7697339653968811,-0.04979296401143074
13030,-0.004362601786851883,-0.023945702239871025,0.01936955377459526,-0.5024016499519348,0.6944038271903992,-0.049058686941862106
13040,-0.00426560640335083,-0.023790298029780388,0.019280558452010155,-0.5017085671424866,0.6931539177894592,-0.04937901720404625
13050,-0.005694708786904812,-0.022443383932113647,0.0191914364695549,-0.5569236874580383,0.7619466781616211,-0.04989038407802582
13060,-0.0037710194010287523,-0.02498598024249077,0.019191283732652664,-0.42677536606788635,0.6697129011154175,-0.05108564347028732
13070,-0.007872921414673328,-0.019322849810123444,0.019916974008083344,-0.6833502650260925,0.8663807511329651,-0.05123466998338699
13080,-0.008665122091770172,-0.02127266675233841,0.019966278225183487,-0.5710653066635132,0.8976947069168091,-0.053362347185611725
13090,-0.016284866258502007,-0.015794998034834862,0.01960444264113903,-0.8127605319023132,1.2448498010635376,-0.053821612149477005
13100,-0.01744687557220459,-0.016452966257929802,0.019582780078053474,-0.754787266254425,1.2702136039733887,-0.05479899048805237
13110,-0.016284942626953125,-0.01785273104906082,0.019913947209715843,-0.6630184054374695,1.187064290046692,-0.05688200518488884
13120,-0.010892740450799465,-0.017923353239893913,0.020211385563015938,-0.6394400000572205,0.9092805981636047,-0.05336408689618111
13131,-0.010854322463274002,-0.01723906397819519,0.020184773951768875,-0.6549310088157654,0.8979602456092834,-0.054366886615753174
13140,-0.009572582319378853,-0.0173211507499218,0.0202078465372324,-0.6296136379241943,0.8283448219299316,-0.05444948375225067
13151,-0.009556183591485023,-0.01861971616744995,0.020267238840460777,-0.5496391654014587,0.821453332901001,-0.05609270557761192
13161,-0.002979594748467207,-0.015675239264965057,0.021780820563435555,-0.6734696626663208,0.5038719773292542,-0.04970540106296539
13170,-0.00269571365788579,-0.015237192623317242,0.021847005933523178,-0.6731812357902527,0.5045173168182373,-0.05025365948677063
13180,-0.0027587637305259705,-0.016351817175745964,0.022006379440426826,-0.5969098210334778,0.521255612373352,-0.05202056095004082
13190,-0.0025610316079109907,-0.015673594549298286,0.02207024022936821,-0.610123872756958,0.5242700576782227,-0.05234784260392189
13200,-0.0018576813163235784,-0.015787823125720024,0.021254539489746094,-0.588254451751709,0.5056450963020325,-0.05207272246479988
13210,-0.001547172898426652,-0.015422407537698746,0.021276917308568954,-0.5882748365402222,0.5034723281860352,-0.05095615237951279
13220,-0.0026654317043721676,-0.01577347330749035,0.021385736763477325,-0.551507294178009,0.5724500417709351,-0.05238798260688782
13230,-0.0019463379867374897,-0.014824559912085533,0.02137935161590576,-0.5817282199859619,0.5480021834373474,-0.05234838277101517
13240,-0.00149907311424613,-0.01591498591005802,0.021457357332110405,-0.513851523399353,0.5388621687889099,-0.052714332938194275
13250,-0.009543671272695065,-0.01077626645565033,0.020171839743852615,-0.745559573173523,0.931072473526001,-0.06061187759041786
13260,-0.012449989095330238,-0.0030325250700116158,0.019574198871850967,-1.0822062492370605,1.0569430589675903,-0.06251595169305801
13270,-0.012384745292365551,-0.00222720205783844,0.01953522488474846,-1.0715162754058838,1.0357955694198608,-0.062132738530635834
13280,-0.011606995016336441,-0.003095268039032817,0.019803330302238464,-0.9799658060073853,0.982001543045044,-0.061223939061164856
13290,-0.013490550220012665,-0.005812864750623703,0.02050323598086834,-0.8047676086425781,1.0564560890197754,-0.06516760587692261
13300,-0.015318082645535469,-0.0037952736020088196,0.020323054865002632,-0.8659337162971497,1.1237486600875854,-0.06534196436405182
13310,-0.012925415299832821,-0.003181536216288805,0.02051849104464054,-0.8560106754302979,0.9862423539161682,-0.06240653619170189
13320,-0.014053519815206528,-0.0034983179066330194,0.020578356459736824,-0.8017367124557495,1.0247020721435547,-0.06406138837337494
13330,-0.011269507929682732,-0.004021695349365473,0.020895015448331833,-0.7396820783615112,0.8745985627174377,-0.059358563274145126
13340,-0.01140605565160513,-0.0034299970138818026,0.020045239478349686,-0.7407097220420837,0.873694658279419,-0.06024710088968277
13350,-0.01234990544617176,-0.004017050378024578,0.020075732842087746,-0.6802931427955627,0.9109963774681091,-0.06163725629448891
13360,-0.011124958284199238,-0.003860980272293091,0.020105578005313873,-0.6595848798751831,0.8425248265266418,-0.06027788296341896
13370,-0.010168038308620453,-0.004885395057499409,0.02018997259438038,-0.5817312598228455,0.7924143075942993,-0.0605015903711319
13380,-0.011337773874402046,-0.00354426889680326,0.020065775141119957,-0.6218420267105103,0.8472043871879578,-0.06191762909293175
13390,-0.011455959640443325,-0.003010502550750971,0.020042624324560165,-0.6207115650177002,0.8452925086021423,-0.06198170781135559
13400,-0.011435908265411854,-0.0021269796416163445,0.02000311017036438,-0.6365436315536499,0.83843994140625,-0.06233501061797142
13410,-0.012881387025117874,-0.0027109424117952585,0.02003917470574379,-0.5813819766044617,0.8997090458869934,-0.06444218009710312
13420,-0.011659183539450169,-0.0034851974342018366,0.020517541095614433,-0.518263578414917,0.8297268748283386,-0.06394225358963013
13430,-0.011762059293687344,-0.0030624642968177795,0.020530687645077705,-0.5178931951522827,0.8284318447113037,-0.06304207444190979
13440,-0.010223404504358768,-0.0026501789689064026,0.020558802410960197,-0.517408013343811,0.7496132254600525,-0.061504896730184555
13450,-0.010223719291388988,-0.0022212695330381393,0.0205734521150589,-0.5172704458236694,0.7488764524459839,-0.06186144798994064
13460,-0.0102225998416543,-0.0018047417979687452,0.020589789375662804,-0.5185524821281433,0.7483246922492981,-0.06180272251367569
13470,-0.010203510522842407,-0.0030001183040440083,0.01990687847137451,-0.4412183463573456,0.7468231916427612,-0.06208305433392525
13480,-0.01020281296223402,-0.003335022833198309,0.01990080252289772,-0.40934664011001587,0.7462193965911865,-0.06196754053235054
13490,-0.010202070698142052,-0.0021365219727158546,0.019863935187458992,-0.4498042166233063,0.7461690306663513,-0.062364526093006134
13500,-0.010206100530922413,-0.002707387786358595,0.01987755112349987,-0.40431100130081177,0.7466273307800293,-0.06379443407058716
13510,-0.010188418440520763,-0.0024246997199952602,0.019464664161205292,-0.40460315346717834,0.7454187870025635,-0.06400275230407715
13520,-0.01070841122418642,-0.0011959091061726213,0.01940649002790451,-0.448446124792099,0.7699211835861206,-0.06372160464525223
13530,-0.011726723983883858,-0.0025690344627946615,0.019420744851231575,-0.36464953422546387,0.8153764009475708,-0.06429579108953476
13540,-0.011797876097261906,-0.0023090685717761517,0.019383925944566727,-0.3626299500465393,0.8140543699264526,-0.06538329273462296
13550,-0.010709854774177074,-0.003714190097525716,0.019664224237203598,-0.2827632427215576,0.7565411925315857,-0.06632285565137863
13560,-0.010966995730996132,0.00020522090198937804,0.019630666822195053,-0.4634620249271393,0.7683579325675964,-0.06558558344841003
13570,-0.010981067083775997,0.0005788450944237411,0.019609229639172554,-0.46181386709213257,0.7676032781600952,-0.06603757292032242
13580,-0.012062768451869488,0.00046107429079711437,0.019605204463005066,-0.43576884269714355,0.8167939186096191,-0.06629814207553864
13590,-0.01096320804208517,-0.000736415502615273,0.019657548516988754,-0.35977184772491455,0.7604813575744629,-0.06768246740102768
13600,-0.0056646717712283134,-0.0013263097498565912,0.02023555338382721,-0.31893524527549744,0.5043616890907288,-0.06712377071380615
13610,-0.006527911871671677,-0.0019141450757160783,0.020305577665567398,-0.2796355187892914,0.5581233501434326,-0.06784167140722275
13620,-0.006295747589319944,-0.0017388819251209497,0.02032424882054329,-0.280505895614624,0.5577332973480225,-0.06811348348855972
13630,-0.007460437249392271,-0.0017887987196445465,0.020395727828145027,-0.2700745761394501,0.6251200437545776,-0.06828349828720093
13640,-0.005343394819647074,-0.0018220862839370966,0.020642410963773727,-0.2593911588191986,0.5327467322349548,-0.06889639794826508
13650,-0.005414258688688278,-0.0021338299848139286,0.020688194781541824,-0.2361268252134323,0.5470556616783142,-0.0694485604763031
13660,-0.007574900519102812,-0.0021638476755470037,0.020796475932002068,-0.2278280109167099,0.6610170006752014,-0.07030528783798218
13670,-0.006586766801774502,-0.00219338433817029,0.02082335762679577,-0.22021600604057312,0.6215821504592896,-0.07262488454580307
13680,-0.007642572745680809,-0.0014464441919699311,0.020886067301034927,-0.25110968947410583,0.680363118648529,-0.0728413462638855
13690,-0.007526092231273651,-0.0013274182565510273,0.02010156400501728,-0.25250333547592163,0.6809017062187195,-0.0719027891755104
13700,-0.007404327858239412,-0.001194666139781475,0.02009514532983303,-0.2532312572002411,0.6800020933151245,-0.0722678154706955
13710,-0.006604849360883236,-0.0012397862737998366,0.020083468407392502,-0.24476365745067596,0.6459657549858093,-0.07278545945882797
13720,-0.006932019721716642,-0.002110470086336136,0.020092489197850227,-0.1959192156791687,0.6698819994926453,-0.07343745231628418
13730,-0.008603887632489204,-0.001326159224845469,0.01964701898396015,-0.22903402149677277,0.7554880380630493,-0.07245553284883499
13740,-0.010201922617852688,-0.0018853979418054223,0.01961563341319561,-0.19737425446510315,0.8309476375579834,-0.07151321321725845
13750,-0.007306948304176331,-0.002168020699173212,0.01962648704648018,-0.1812736988067627,0.6912881731987,-0.07284174114465714
13760,-0.008885533548891544,-0.00192593177780509,0.019618576392531395,-0.18858253955841064,0.7699302434921265,-0.07229498028755188
13770,-0.006841071881353855,-0.0016858531162142754,0.019599998369812965,-0.19710151851177216,0.673448920249939,-0.07415063679218292
13780,-0.011651093140244484,-0.0024413641076534986,0.02025020867586136,-0.16028110682964325,0.9052956104278564,-0.07088826596736908
13790,-0.013117261230945587,-0.003439938882365823,0.020223550498485565,-0.11235804855823517,0.966518759727478,-0.07016817480325699
13800,-0.012092860415577888,-0.0014718984020873904,0.02031416818499565,-0.2037564516067505,0.9076826572418213,-0.07034531980752945
13810,-0.006728325970470905,-0.002461201511323452,0.02050468511879444,-0.15374578535556793,0.6492404937744141,-0.07648492604494095
13820,-0.006545575801283121,-0.00245803059078753,0.021170681342482567,-0.1509336233139038,0.648756742477417,-0.07538455724716187
13830,-0.0063548097386956215,-0.002459924900904298,0.02123882807791233,-0.14969632029533386,0.6476097106933594,-0.07587158679962158
13840,-0.007213275879621506,-0.0021905184257775545,0.02133624255657196,-0.16243357956409454,0.6941038370132446,-0.0743137001991272
13850,-0.006720378063619137,-0.0016693330835551023,0.02140023373067379,-0.18482482433319092,0.6766883134841919,-0.07564588636159897
13860,-0.007280161138623953,-0.0019398266449570656,0.020849116146564484,-0.17030549049377441,0.7091650366783142,-0.07390225678682327
13870,-0.006798297632485628,-0.004769236780703068,0.020875100046396255,-0.03826503828167915,0.6919200420379639,-0.0738731250166893
13880,-0.0075886547565460205,-0.002203872660174966,0.020990103483200073,-0.16390271484851837,0.7357529401779175,-0.07348394393920898
13890,-0.00635883491486311,-0.0017103934660553932,0.021017596125602722,-0.18557026982307434,0.6827676296234131,-0.0757419541478157
13900,-0.0054041300900280476,-0.0027018063701689243,0.021039843559265137,-0.13890716433525085,0.6464376449584961,-0.0785476565361023
13910,-0.003977071028202772,-0.0051341187208890915,0.02057260274887085,-0.028240542858839035,0.5888023376464844,-0.07959362119436264
13920,-0.00545954704284668,-0.002936853328719735,0.020704476162791252,-0.1375793069601059,0.6686774492263794,-0.07794853299856186
13930,-0.0054785460233688354,-0.0026982324197888374,0.020720884203910828,-0.14823707938194275,0.6751477122306824,-0.07546287029981613
13940,-0.007151252124458551,-0.0017489806050434709,0.020775320008397102,-0.19303859770298004,0.7602638602256775,-0.07415150105953217
13950,-0.005051989108324051,-0.002693426562473178,0.021774083375930786,-0.1487821787595749,0.6648994088172913,-0.07604183256626129
13960,-0.007611861918121576,-0.002227764343842864,0.02190595306456089,-0.1725511997938156,0.7940698266029358,-0.07287900894880295
13970,-0.005549439694732428,-0.002466987119987607,0.022000154480338097,-0.1596180498600006,0.6973391175270081,-0.07705460488796234
13980,-0.0069319684989750385,-0.0017823806265369058,0.022109942510724068,-0.19298933446407318,0.7710272073745728,-0.07471374422311783
13990,-0.005582026671618223,-0.00268630962818861,0.022198133170604706,-0.15118099749088287,0.7087107300758362,-0.076991006731987
14000,-0.005820020567625761,-0.00335296499542892,0.021245498210191727,-0.12056669592857361,0.7274714112281799,-0.07778593897819519
14010,-0.006943945307284594,-0.0017818682827055454,0.021301617845892906,-0.20110157132148743,0.7881523966789246,-0.07458549737930298
14020,-0.006903238128870726,-0.0017694029957056046,0.021327249705791473,-0.19945795834064484,0.7869026064872742,-0.07513758540153503
14030,-0.005968037061393261,-0.0027157629374414682,0.0213618203997612,-0.15173135697841644,0.7414438128471375,-0.07705062627792358
14040,-0.005741373170167208,-0.0013110281433910131,0.021230556070804596,-0.22475242614746094,0.7340641617774963,-0.07790028303861618
14050,-0.0064505934715271,-0.001548884785734117,0.021256405860185623,-0.2106669396162033,0.775683581829071,-0.07790648192167282
14060,-0.006683872081339359,-0.0015523748006671667,0.021274598315358162,-0.20982961356639862,0.7892284989356995,-0.07849029451608658
14070,-0.00663870619609952,-0.0015400302363559604,0.02129279263317585,-0.21005284786224365,0.7878502607345581,-0.07805237174034119
14080,-0.005431248806416988,-0.0029925131238996983,0.020285632461309433,-0.13731440901756287,0.7295812368392944,-0.07933158427476883
14090,-0.0049726045690476894,-0.004897203762084246,0.020222609862685204,-0.046561628580093384,0.7113844156265259,-0.08169461041688919
14100,-0.004835357423871756,-0.005088302306830883,0.020181963220238686,-0.045453011989593506,0.7117008566856384,-0.08202140778303146
14110,-0.006112550850957632,-0.005297776777297258,0.020164430141448975,-0.04497957229614258,0.7811260223388672,-0.07940229028463364
14120,-0.005142128095030785,-0.006248772609978914,0.020097343251109123,-0.006902014836668968,0.7348970174789429,-0.08178055286407471
14130,-0.0009820295963436365,-0.006700993049889803,0.01997309923171997,0.002343116095289588,0.5287464261054993,-0.08675998449325562
14140,0.00017024780390784144,-0.00715222954750061,0.019886350259184837,0.014088308438658714,0.48867717385292053,-0.08921479433774948
14150,0.00011576383258216083,-0.00639515882357955,0.01990482397377491,-0.03776320442557335,0.5101377367973328,-0.08938951790332794
14160,6.25617103651166e-05,-0.007077145855873823,0.019871963188052177,-0.01565750129520893,0.5313671827316284,-0.08937278389930725
14170,2.871512515412178e-05,-0.006362279411405325,0.020792415365576744,-0.06549795717000961,0.5506690740585327,-0.08889967948198318
14180,-0.0018708886345848441,-0.006340465508401394,0.02088436670601368,-0.07623448967933655,0.6629772782325745,-0.08610156923532486
14190,-3.6688667023554444e-05,-0.006552061066031456,0.020871536806225777,-0.07536531239748001,0.5798556804656982,-0.08932946622371674
14200,0.00028096148162148893,-0.006757599301636219,0.020885856822133064,-0.07768746465444565,0.5776957273483276,-0.08918235450983047
14210,0.00022892301785759628,-0.007696161977946758,0.020898493006825447,-0.04124043509364128,0.5961877107620239,-0.08831513673067093
14221,0.0035402439534664154,-0.004334540572017431,0.02138412930071354,-0.22561217844486237,0.44231492280960083,-0.09380234777927399
14230,-0.001286984421312809,-0.002418524120002985,0.021696770563721657,-0.32356321811676025,0.7099006772041321,-0.08626936376094818
14240,-0.000598312821239233,-0.0026695129927247763,0.021753527224063873,-0.3063725531101227,0.6824955940246582,-0.08682366460561752
14250,-0.0013167290017008781,-0.002677324926480651,0.021827079355716705,-0.3026961386203766,0.7253994941711426,-0.08628036826848984
14260,-0.0004116405616514385,-0.003605967154726386,0.021897118538618088,-0.256328821182251,0.6868458390235901,-0.08763930946588516
14271,-0.0002151462686015293,-0.003613898530602455,0.021126022562384605,-0.25600695610046387,0.6850337386131287,-0.08838864415884018
14280,-7.283219019882381e-06,-0.003630748251453042,0.02114139497280121,-0.2554081976413727,0.6847044825553894,-0.08859872817993164
14290,0.0007165506249293685,-0.0036114559043198824,0.02112944796681404,-0.2565009891986847,0.6461379528045654,-0.0895417332649231
14300,0.0009153697174042463,-0.004643423482775688,0.02116495370864868,-0.20660747587680817,0.6608279347419739,-0.08851933479309082
14310,0.0013621055986732244,-0.00084763637278229,0.02028816007077694,-0.3966844379901886,0.6494154334068298,-0.0907730683684349
14320,0.0010615151841193438,-0.002858604770153761,0.020319541916251183,-0.28888824582099915,0.6774296164512634,-0.08993036299943924
14330,-0.0009462955640628934,-0.0031094076111912727,0.0203346386551857,-0.273348867893219,0.7861849665641785,-0.08707766979932785
14340,0.0007360419840551913,-0.0038419044576585293,0.020315933972597122,-0.23686249554157257,0.7067630290985107,-0.08733396977186203
14350,-0.000491477083414793,-0.002630706876516342,0.020589573308825493,-0.2978496849536896,0.7745242118835449,-0.08610440790653229
14360,-0.000744108110666275,-0.00239175814203918,0.020577233284711838,-0.30965420603752136,0.7909735441207886,-0.08539167046546936
14370,-0.0005187837523408234,-0.0031081712804734707,0.020572753623127937,-0.2710070013999939,0.782609224319458,-0.08528611809015274
14380,-0.0012334320927038789,-0.0033397504594177008,0.020563703030347824,-0.2582630515098572,0.8209711313247681,-0.08476480096578598
14390,-8.30700810183771e-05,-0.004034179728478193,0.020561864599585533,-0.22564096748828888,0.7661260366439819,-0.08578798174858093
14400,2.6463225367479026e-05,-0.004096534103155136,0.019413791596889496,-0.22346650063991547,0.7640596032142639,-0.085337795317173
14410,-0.0007204224239103496,-0.0040854718536138535,0.019345076754689217,-0.2257319986820221,0.8037348389625549,-0.08423977345228195
14420,0.0009583427454344928,-0.003837540512904525,0.01927482895553112,-0.24134714901447296,0.7240869402885437,-0.08547801524400711
14430,0.001177299884147942,-0.004069599322974682,0.01919848844408989,-0.23319227993488312,0.7180562615394592,-0.08498667180538177
14440,-0.004744492471218109,-0.004049804527312517,0.019997097551822662,-0.2357267588376999,1.009098768234253,-0.08208748698234558
14450,-0.0049560703337192535,-0.004103174898773432,0.01997757889330387,-0.2354869246482849,1.008366584777832,-0.08120346069335938
14460,-0.006156174931675196,-0.003351509105414152,0.01992025412619114,-0.27217692136764526,1.0536491870880127,-0.08113963901996613
14470,-0.005370886530727148,-0.0035996015649288893,0.019966071471571922,-0.25894758105278015,1.001524567604065,-0.0823909342288971
14480,-0.005818922538310289,-0.003128769574686885,0.01994401402771473,-0.28287452459335327,1.0243563652038574,-0.08179532736539841
14490,-0.006323603447526693,-0.003105691634118557,0.02088482305407524,-0.2789722979068756,1.0223920345306396,-0.08312734961509705
14500,-0.00423328997567296,-0.0023495398927479982,0.0210148673504591,-0.3135838806629181,0.9087895750999451,-0.083465576171875
14510,-0.0024545772466808558,-0.00186591234523803,0.021090196445584297,-0.3327736258506775,0.8190655708312988,-0.0830727145075798
14520,-0.0007197560044005513,-0.0018869538325816393,0.02113422565162182,-0.32705938816070557,0.7363380193710327,-0.08454777300357819
14530,-0.001448282040655613,-0.0006866467301733792,0.01976867951452732,-0.37890997529029846,0.7769322395324707,-0.08361558616161346
14540,-0.0017471526516601443,-0.001308430335484445,0.01978505216538906,-0.3474665880203247,0.7919664978981018,-0.08402957767248154
14550,-0.0019491863204166293,-0.0012238963972777128,0.019720375537872314,-0.3360693156719208,0.8047868609428406,-0.0856548398733139
14560,-0.0019491863204166293,-0.0012238963972777128,0.019720375537872314,-0.3360693156719208,0.8047868609428406,-0.0856548398733139
14570,-0.0006820268463343382,-0.002409210428595543,0.020686212927103043,-0.2668171226978302,0.7429937720298767,-0.08746304363012314
14580,-0.000796115433331579,-0.0017272772965952754,0.02068852260708809,-0.3014363646507263,0.7488307952880859,-0.08691176772117615
14590,-0.002185042016208172,-0.0016734813107177615,0.020766785368323326,-0.2979566156864166,0.8207905888557434,-0.08618269860744476
14600,-0.0010527374688535929,-0.001738157356157899,0.020769348368048668,-0.2947484254837036,0.7630722522735596,-0.08638977259397507
14610,-0.001704722410067916,-0.0019352841190993786,0.0208436306566,-0.2799317240715027,0.8015222549438477,-0.08806566148996353
14620,-0.001691529294475913,-0.0019445352954789996,0.020029732957482338,-0.2799317240715027,0.8015222549438477,-0.08806566148996353
14630,-0.001621993607841432,-0.0018717547645792365,0.019990092143416405,-0.2779332399368286,0.8022350668907166,-0.08747934550046921
14640,-0.0016609091544523835,-0.0011614487739279866,0.019988039508461952,-0.31438225507736206,0.8042844533920288,-0.08691879361867905
14650,-0.0029482890386134386,-0.0016224865103140473,0.01995999366044998,-0.28267017006874084,0.8675634264945984,-0.08797959983348846
14660,-0.0028919840697199106,-0.005979601293802261,0.01915431208908558,-0.05967739224433899,0.8650100827217102,-0.09160550683736801
14670,-0.0019264250295236707,-0.007377156056463718,0.01905684918165207,0.002963901497423649,0.8132449388504028,-0.09308623522520065
14680,-0.0016901189228519797,-0.006396835204213858,0.019049549475312233,-0.06269310414791107,0.8013036251068115,-0.09126101434230804
14690,-0.0028639514930546284,-0.006829989142715931,0.018985865637660027,-0.051224786788225174,0.8608035445213318,-0.09083903580904007
14700,-0.0007792339893057942,-0.007269832771271467,0.01893959380686283,-0.04127778112888336,0.7497270703315735,-0.09214360266923904
14710,-0.0007030239794403315,-0.007518531288951635,0.019360661506652832,-0.04009111598134041,0.7504470944404602,-0.09272714704275131
14720,0.00024640842457301915,-0.008682302199304104,0.019290035590529442,0.007325965445488691,0.7034011483192444,-0.09330703318119049
14730,0.00022465507208835334,-0.007218066602945328,0.019336996600031853,-0.08513633906841278,0.7101331949234009,-0.09227047115564346
14740,0.00044276597327552736,-0.007656156085431576,0.01929841935634613,-0.07227661460638046,0.7055943012237549,-0.0923488512635231
14750,-0.001460053725168109,-0.0076528554782271385,0.020408574491739273,-0.08525216579437256,0.810924768447876,-0.09198196977376938
14760,0.00016418899758718908,-0.007625878322869539,0.020449548959732056,-0.09849396347999573,0.7276224493980408,-0.09335532039403915
14770,0.0001532794995000586,-0.00851405505090952,0.020469902083277702,-0.0637013390660286,0.7330237030982971,-0.093510702252388
14780,0.00026305968640372157,-0.008768114261329174,0.020501427352428436,-0.06338707357645035,0.7318426966667175,-0.09358418732881546
14790,0.000247570569626987,-0.007309813518077135,0.020752880722284317,-0.15262213349342346,0.7383002042770386,-0.09235259890556335
14800,0.00035775723517872393,-0.007468719966709614,0.020796455442905426,-0.15260377526283264,0.7355820536613464,-0.0914573222398758
14810,-0.00016519756172783673,-0.007184704765677452,0.02085237205028534,-0.17664839327335358,0.7680296897888184,-0.09237401187419891
14820,-0.0004284402239136398,-0.007650807965546846,0.020895639434456825,-0.15952329337596893,0.7839623093605042,-0.09295652061700821
14830,-0.00043350495980121195,-0.007379365153610706,0.02094666101038456,-0.18168500065803528,0.7858806848526001,-0.09166719019412994
14840,0.0031886864453554153,-0.006380714941769838,0.020177075639367104,-0.23840110003948212,0.602353572845459,-0.09440259635448456
14850,0.004096424672752619,-0.005417739972472191,0.020153872668743134,-0.29203712940216064,0.5672520399093628,-0.09478993713855743
14860,0.004519140347838402,-0.005422754213213921,0.020145565271377563,-0.29255783557891846,0.5672628879547119,-0.09523036330938339
14870,0.009352014400064945,-0.007516729179769754,0.019949782639741898,-0.18558649718761444,0.33774811029434204,-0.09898088127374649
14880,0.010424061678349972,-0.01232152245938778,0.019489871338009834,0.051627498120069504,0.312724769115448,-0.0985439345240593
14890,0.01106550358235836,-0.01274301391094923,0.01944558322429657,0.050958290696144104,0.31133657693862915,-0.09843903034925461
14900,0.010241757147014141,-0.012907098978757858,0.01954193040728569,0.03899543359875679,0.38514941930770874,-0.09758547693490982
14910,0.01204515527933836,-0.01332259550690651,0.019413765519857407,0.03774156793951988,0.32086899876594543,-0.09866571426391602
14920,0.00962347723543644,-0.013740957714617252,0.020197812467813492,0.03853180259466171,0.47626352310180664,-0.09599826484918594
14930,0.010094810277223587,-0.014171764254570007,0.020209522917866707,0.03866440802812576,0.47401174902915955,-0.09641317278146744
14940,0.010752097703516483,-0.014132428914308548,0.020235957577824593,0.01435244269669056,0.46313801407814026,-0.09779288619756699
14950,0.008736844174563885,-0.013815785758197308,0.020429909229278564,-0.019988052546977997,0.5880380868911743,-0.0951293557882309
14960,0.010592679493129253,-0.013999885879456997,0.020412877202033997,-0.029866501688957214,0.5124083757400513,-0.09615030884742737
14970,0.008648592047393322,-0.013013012707233429,0.02080034837126732,-0.09581199288368225,0.629570722579956,-0.0941862240433693
14980,0.009299669414758682,-0.01460032258182764,0.020810751244425774,-0.02810382843017578,0.6114916205406189,-0.09436354786157608
14990,0.009949986822903156,-0.014104458503425121,0.020881861448287964,-0.07232227176427841,0.5952747464179993,-0.09561856836080551
15000,0.008549862541258335,-0.012933873571455479,0.021045563742518425,-0.14483317732810974,0.6816617846488953,-0.09469868242740631
15010,0.014567303471267223,-0.009067683480679989,0.019812146201729774,-0.34636417031288147,0.393595427274704,-0.10361224412918091
15020,0.015189308673143387,-0.0090369563549757,0.019783299416303635,-0.3460056185722351,0.3945598006248474,-0.10481376945972443
15030,0.014156583696603775,-0.009042596444487572,0.019884677603840828,-0.34410539269447327,0.4766732156276703,-0.10342621058225632
15040,0.01501488033682108,-0.008115923032164574,0.01981896534562111,-0.38826626539230347,0.45818567276000977,-0.10454587638378143
15050,0.013798338361084461,-0.009752735495567322,0.020004352554678917,-0.3018457293510437,0.5463737845420837,-0.1006164699792862
15060,0.014208247885107994,-0.008844832889735699,0.019990725442767143,-0.34574320912361145,0.545517086982727,-0.10084642469882965
15070,0.014399156905710697,-0.008175618015229702,0.019983982667326927,-0.37734654545783997,0.5583631992340088,-0.10148227959871292
15081,0.013696652837097645,-0.008176577277481556,0.020034046843647957,-0.372678279876709,0.613967776298523,-0.10175052285194397
15090,0.01477716863155365,-0.009288053028285503,0.020033901557326317,-0.31336110830307007,0.5769283175468445,-0.10130278021097183
15100,0.015632404014468193,-0.009728536941111088,0.02044779062271118,-0.2920043468475342,0.5533652305603027,-0.10128911584615707
15110,0.013875849545001984,-0.008641972206532955,0.020569298416376114,-0.34831491112709045,0.6672561168670654,-0.10092666000127792
15120,0.014508499763906002,-0.008857637643814087,0.020598124712705612,-0.3340013027191162,0.650115966796875,-0.10241701453924179
15130,0.013857709243893623,-0.008863922208547592,0.020663730800151825,-0.33215978741645813,0.6998576521873474,-0.10261450707912445
15141,0.016818081960082054,-0.007598589174449444,0.020784959197044373,-0.39369654655456543,0.559970498085022,-0.10399214178323746
15150,0.01448925118893385,-0.008015800267457962,0.02095996029675007,-0.36682501435279846,0.7052707672119141,-0.10380089282989502
15161,0.01385463960468769,-0.008648568764328957,0.021037042140960693,-0.3285834491252899,0.7519815564155579,-0.10357855260372162
15170,0.014079744927585125,-0.008622710593044758,0.021089190617203712,-0.3259975016117096,0.7511879801750183,-0.1036800816655159
15181,0.014286677353084087,-0.008604277856647968,0.02025790326297283,-0.32396814227104187,0.7515622973442078,-0.10408443957567215
15190,0.014242175966501236,-0.00957473274320364,0.020262310281395912,-0.2705264389514923,0.7653705477714539,-0.1053714007139206
15201,0.01445675827562809,-0.009613463655114174,0.020262591540813446,-0.2680380046367645,0.7639126181602478,-0.10551689565181732
15210,0.013459322974085808,-0.009118793532252312,0.020286647602915764,-0.29555097222328186,0.8280293345451355,-0.1055755689740181
15221,0.015357683412730694,-0.009838449768722057,0.02028103545308113,-0.25796276330947876,0.7324460744857788,-0.1044575423002243
15230,0.014611667953431606,-0.011240363121032715,0.021030234172940254,-0.18646389245986938,0.7832783460617065,-0.10439203679561615
15241,0.013413901440799236,-0.009114494547247887,0.0211364533752203,-0.306600421667099,0.8568634986877441,-0.10336874425411224
15250,0.014328981749713421,-0.009580526500940323,0.021187257021665573,-0.2805819809436798,0.8127073645591736,-0.1031007319688797
15261,0.014313303865492344,-0.00865649152547121,0.021242933347821236,-0.3296034038066864,0.8212802410125732,-0.10328198969364166
15271,0.014750616624951363,-0.010699991136789322,0.021588297560811043,-0.22000667452812195,0.8051160573959351,-0.10416258126497269
15280,0.014921759255230427,-0.010796330869197845,0.021655181422829628,-0.21944330632686615,0.8036263585090637,-0.10406440496444702
15290,0.014190359972417355,-0.010792256332933903,0.0217409860342741,-0.22313383221626282,0.8527594804763794,-0.10501473397016525
15300,0.016064029186964035,-0.011019614525139332,0.02179638482630253,-0.2145201861858368,0.7576977610588074,-0.1041528582572937
15310,0.014172838069498539,-0.00960773415863514,0.02194451354444027,-0.2936471998691559,0.868140697479248,-0.10457857698202133
15320,0.01737915351986885,-0.013062171638011932,0.0211663618683815,-0.11111793667078018,0.7042080163955688,-0.10504069179296494
15330,0.015049262903630733,-0.01095880102366209,0.021330637857317924,-0.231770321726799,0.8376129269599915,-0.10460048913955688
15340,0.015941057354211807,-0.011175279505550861,0.02135634981095791,-0.2243174910545349,0.7955726981163025,-0.10400570929050446
15350,0.01611463353037834,-0.01127135194838047,0.021388180553913116,-0.22522488236427307,0.7962709069252014,-0.10539890825748444
15360,0.01629064232110977,-0.011368762701749802,0.021419890224933624,-0.22508695721626282,0.7968053221702576,-0.10582438111305237
15371,0.009004825726151466,-0.010047774761915207,0.02044318988919258,-0.2971460819244385,1.1762524843215942,-0.10617993772029877
15380,0.008808178827166557,-0.009815149009227753,0.02042197436094284,-0.31168994307518005,1.1722661256790161,-0.10459046810865402
15390,0.008607354946434498,-0.010270374827086926,0.020401958376169205,-0.2875416576862335,1.1677855253219604,-0.10601659119129181
15400,0.011138821952044964,-0.010732420720160007,0.02053793892264366,-0.26468244194984436,1.0226593017578125,-0.10694780945777893
15410,0.010014507919549942,-0.010498938150703907,0.021116580814123154,-0.27772057056427,1.073623538017273,-0.10688268393278122
15420,0.010028659366071224,-0.01004795078188181,0.02113766223192215,-0.3029940128326416,1.0624451637268066,-0.10655652731657028
15430,0.009161206893622875,-0.010050475597381592,0.02113613300025463,-0.30359727144241333,1.0979504585266113,-0.10663440078496933
15440,0.009173048660159111,-0.010706869885325432,0.021162329241633415,-0.2686264216899872,1.0844112634658813,-0.1073620542883873
15450,0.008960439823567867,-0.01075707282871008,0.021903423592448235,-0.2684883177280426,1.0826975107192993,-0.10705424100160599
15460,0.00876329280436039,-0.010810296051204205,0.021964937448501587,-0.26656854152679443,1.0804873704910278,-0.1073838621377945
15470,0.009528680704534054,-0.010555589571595192,0.022054428234696388,-0.2806188464164734,1.0279277563095093,-0.10607685148715973
15480,0.009785767644643784,-0.011027304455637932,0.02212454564869404,-0.2588830888271332,1.0059528350830078,-0.10713905096054077
15490,0.009670277126133442,-0.011094022542238235,0.022188697010278702,-0.2587433159351349,1.0056763887405396,-0.10809100419282913
